~Version Information                                                            

 VERS.                1.20:                                                     

 WRAP.                  NO:                                                     

~Well Information Block                                                         

#MNEM.UNIT       Data Type    Information                                       

#---------    -------------   ------------------------------                    

 STRT.M           2170.000:                                                     

 STOP.M           2381.000:                                                     

 STEP.M               1.250:                                                     

 NULL.            -999.000:                                                     

 CN  .             COMPANY:   ZZPNiG ZIELONA GORA                               

 WN  .                WELL:   K O S C I A N - 6                                 

 FN  .               FIELD:   MONOKLINA PRZEDSUDECKA                            

 DATE.                DATE:   95-05-16                                          

 FL  .     LOCATION LINE 1:   SIERAKOW                                          

 LONG.           LONGITUDE:                            .0000                    

 LATI.            LATITUDE:                            .0000                    

 PD  .     PERMANENT DATUM:   POZIOM MORZA                                      

 LMF .       LOG MEAS FROM:   POW. TERENU                                       

 FAPD.      ABOVE PERM DAT:                            .0000                    

 DMF .     DRLNG MEAS FROM:   POW. TERENU                                       

 EPD .          ELEV. P.D.:                          79.0000                    

 EKB .          ELEV. K.B.:                          84.0000                    

 EDF .          ELEV. D.F.:                          84.0000                    

 EGL .          ELEV. G.L.:                          79.0000                    

 DFT .      DR. FLUID TYPE:   SOLNO-SKROB.                                      

 MSS .     MUD SAMPLE SRC.:   OBIEG                                             

 MFSS.      MUD FILT. SRC.:   WYKRES                                            

 MCSS.     MUD CAKE SOURCE:   WYKRES                                            

 TCS .     TIME SINCE CIRC:                                0                    

 TLAB.     TIME LOG ON BTM:                                0                    

 LUN .     LOG UNIT NUMBER:   1A/Kw                                             

 LUL .       LOG UNIT LOC.:   BGW KRAKOW                                        

 ENGI.         RECORDED BY:   J. DUBIS                                          

 WITN.        WITNESSED BY:   K. KRAWIEC                                        

~Parameter Information Block                                                    

#MNEM.UNIT        Value       Description                                       

#---------    -------------   ------------------------------                    

 RUN .               .0000:                           RUN NUMBER                

 DD  .           2381.0000:                      DEPTH - DRILLER                

 DL  .           2379.0000:                       DEPTH - LOGGER                

 BLI .           2379.0000:                  BOTTOM LOG INTERVAL                

 TLI .           2015.0000:                     TOP LOG INTERVAL                

 CS  .              9.6250:                      CASING DIAMETER                

 CSD .           2002.0000:               CASING DEPTH - DRILLER                

 BS  .              8.5000:                             BIT SIZE                

 DFD .              1.3600:               DRILLING FLUID DENSITY                

 DFV .             39.0000:             DRILLING FLUID VISCOSITY                

 DFPH.              9.8000:                    DRILLING FLUID PH                

 DFL .              3.5000:                  DRILLING FLUID LOSS                

 RMS .               .0640:                      MUD RESISTIVITY                

 MST .             16.0000:                 MUD RESISTIVITY TEMP                

 RMF .               .0350:             MUD FILTRATE RESISTIVITY                

 MFST.             16.0000:        MUD FILTRATE RESISTIVITY TEMP                

 RMC .               .1250:                 MUD CAKE RESISTIVITY                

 MCST.             16.0000:            MUD CAKE RESISTIVITY TEMP                

 RMB .               .0160:          BOTTOM HOLE MUD RESISTIVITY                

 BHT .             86.0000:                     BOTTOM HOLE TEMP                

~Curve Information Block                                                        

#MNEM.UNIT     API CODE       Curve Description                                 

#---------    -------------   ------------------------------                    

 DEPT.M                   :                                                     

 TENS.lbs      0   0  0  0:                                                     

 CALM.mm       0   0  0  0:                                                     

 DPHI.ls       0   0  0  0:                                                     

 RHOB.gm/c     0   0  0  0:                                                     

 DRHO.gm/c     0   0  0  0:                                                     

 NPHI.ls       0   0  0  0:                                                     

 NPHS.ss       0   0  0  0:                                                     

 NPHD.dol      0   0  0  0:                                                     

 GR  .API      0   0  0  0:                                                     

 DTM .us/m     0   0  0  0:                                                     

 SPHI.ls       0   0  0  0:                                                     

 ITT .ms       0   0  0  0:                                                     

~A  DEPT        TENS       CALM       DPHI       RHOB       DRHO       NPHI       NPHS       NPHD       GR         DTM        SPHI       ITT   
# ...
 2184.0000  2407.9749   281.5397   -16.2277     2.9648      .0206      .0249     3.2157     -.5089     7.8728   175.7061     7.7449      .0000 
 2184.2500  2414.6851   279.4195   -15.5918     2.9548      .0191      .0681     3.2647     -.4984     7.3464   175.5582     7.6938      .0000 
 2184.5000  2402.1799   277.4534   -15.3518     2.9510      .0202      .0864     3.2855     -.4939     7.7550   171.9685     6.4245      .0000 
 2184.7500  2424.4448   276.4511   -15.5818     2.9546      .0225      .0784     3.2763     -.4959     7.7532   171.9936     6.4335      .0000 
 2185.0000  2429.0200   274.6007   -15.8176     2.9583      .0264      .0806     3.2789     -.4953     6.7520   172.0978     6.4711      .0000 
 2185.2500  2443.9648   272.6733   -16.4252     2.9679      .0316      .0995     3.3003     -.4907     6.3880   172.0356     6.4487      .0000 
 2185.5000  2410.4150   271.8252   -16.8682     2.9748      .0341      .0902     3.2897     -.4930     6.6265   172.0542     6.4554      .0000 
 2185.7500  2409.1948   269.9362   -17.9190     2.9913      .0383      .0838     3.2825     -.4945     6.7555   172.1399     6.4863      .0000 
 2186.0000  2419.5649   268.2015   -17.9645     2.9920      .0371      .0049     3.1930     -.5137     6.0900   172.0978     6.4711      .0000 
 2186.2500  2432.3750   267.2378   -17.6701     2.9874      .0353     -.0312     3.1521     -.5224     5.9532   171.9685     6.4245      .0000 
 2186.5000  2411.6350   265.4645   -16.6696     2.9717      .0289     -.0585     3.1212     -.5289     6.2771   172.1584     6.4930      .0000 
 2186.7500  2436.0349   264.5393   -16.3905     2.9673      .0264     -.0217     3.1629     -.5201     6.4009   172.1213     6.4796      .0000 
 2187.0000  2420.4800   262.6119   -16.6254     2.9710      .0251      .0655     3.2617     -.4990     6.5651   171.7617     6.3497      .0000 
 2187.2500  2444.8799   260.5302   -17.2350     2.9806      .0260      .0552     3.2500     -.5015     6.7518   171.2776     6.1741      .0000 
 2187.5000  2408.5850   259.4893   -17.3978     2.9831      .0259      .0388     3.2315     -.5055     6.6013   171.4424     6.2340      .0000 
 2187.7500  2409.1948   257.4848   -16.8318     2.9743      .0218      .0212     3.2116     -.5098     6.4258   171.9500     6.4178      .0000 
 2188.0000  2407.6699   255.5573   -16.4765     2.9687      .0184     -.0014     3.1860     -.5152     5.4881   171.5702     6.2804      .0000 
 2188.2500  2450.9800   254.7477   -16.3166     2.9662      .0167      .0075     3.1960     -.5131     5.2769   171.2541     6.1655      .0000 
 2188.5000  2450.0649   252.5504   -16.0766     2.9624      .0138      .0772     3.2750     -.4962     6.4884   171.3382     6.1961      .0000 
 2188.7500  2435.4250   250.2760   -15.3702     2.9513      .0092      .1310     3.3359     -.4829     8.8190   171.8441     6.3796      .0000 
 2189.0000  2401.2649   248.9268   -14.9548     2.9448      .0069      .1478     3.3550     -.4787     9.3134   171.7431     6.3430      .0000 
 2189.2500  2428.1050   246.4596   -15.6549     2.9558      .0090      .1896     3.4023     -.4683     8.3772   171.5532     6.2742     1.0000 
 2189.5000  2419.5649   245.3031   -16.3316     2.9664      .0121      .2174     3.4337     -.4614     7.4404   171.6122     6.2956      .0000 
 2189.7500  2411.9399   242.7588   -17.4208     2.9835      .0160      .2749     3.4988     -.4468     8.3155   170.7499     5.9815      .0000 
 2190.0000  2395.7749   240.4459   -16.8842     2.9751      .0138      .3054     3.5334     -.4390     8.6859   169.6743     5.5851      .0000 
 2190.2500  2453.1150   239.2123   -16.9956     2.9768      .0148      .3188     3.5485     -.4356     8.4686   169.6557     5.5783      .0000 
 2190.5000  2461.0449   236.5138   -18.4586     2.9998      .0301      .3932     3.6327     -.4163     7.7001   169.8927     5.6660      .0000 
 2190.7500  2459.2148   233.6611   -17.6497     2.9871      .0439      .9154     4.2224     -.2736     9.3710   168.9398     5.3116      .0000 
 2191.0000  2405.8398   232.4276   -14.7785     2.9420      .0440     1.6221     5.0177     -.0593    11.1481   169.0625     5.3575      .0000 
 2191.2500  2404.0100   230.3074    -5.1357     2.7906      .0283     6.1505    10.0396     1.8636    15.9484   171.9870     6.4312      .0000 
 2191.5000  2410.4150   228.2642     2.7623     2.6666      .0180    13.3378    17.7466     6.6522    20.0946   177.9419     8.5083      .0000 
 2191.7500  2448.5400   227.0692     4.7802     2.6350      .0172    16.1588    20.6588     9.0293    20.3897   181.1436     9.5687      .0000 
 2192.0000  2453.7249   224.8719     5.9337     2.6168      .0217    19.6965    24.1965    12.3439    18.5796   185.7086    11.0173      .0000 
 2192.2500  2427.8000   224.0623     6.0191     2.6155      .0240    20.7227    25.2227    13.3678    18.0090   186.6952    11.3211      .0000 
 2192.5000  2403.0950   222.5204     5.7516     2.6197      .0305    21.9270    26.4270    14.6018    18.7527   186.3154    11.2045      .0000 
 2192.7500  2372.8999   221.4410     6.1438     2.6135      .0339    22.1181    26.6181    14.8007    19.6786   185.2397    10.8718      .0000 
 2193.0000  2369.2400   221.0169     6.5720     2.6068      .0344    22.2392    26.7392    14.9271    19.5701   185.0919    10.8258      .0000 
 2193.2500  2368.3250   220.4387     7.8552     2.5867      .0335    23.0601    27.5601    15.7931    18.0600   186.5189    11.2670      .0000 
 2193.5000  2406.7549   220.2074     7.8992     2.5860      .0361    22.9148    27.4148    15.6388    18.6203   189.2214    12.0844      .0000 
 2193.7500  2320.4399   220.1303     7.5302     2.5918      .0383    22.4268    26.9268    15.1238    18.9788   189.4970    12.1665      .0000 
 2194.0000  2419.2600   220.0532     6.5053     2.6079      .0423    22.1158    26.6158    14.7984    19.2435   187.0079    11.4167      .0000 
 2194.2500  2379.3049   220.0532     5.3267     2.6264      .0461    22.3815    26.8815    15.0762    20.7716   183.0110    10.1700      .0000 
 2194.5000  2340.2649   220.0917     4.7673     2.6352      .0478    22.3761    26.8761    15.0705    22.0031   181.2429     9.6010      .0000 
 2194.7500  2408.5850   220.2460     4.0666     2.6462      .0487    21.7019    26.2019    14.3686    21.0796   179.7924     9.1258      .0000 
 2195.0000  2351.2449   220.2845     4.2026     2.6440      .0466    21.0907    25.5907    13.7412    19.6210   180.0664     9.2161     1.0000 
 2195.2500  2345.1450   220.4772     4.2465     2.6433      .0435    19.7735    24.2735    12.4199    20.0022   179.3974     8.9951      .0000 
 2195.5000  2403.3999   220.7085     2.9676     2.6634      .0467    18.7347    23.2347    11.4088    20.9190   177.7486     8.4431      .0000 
 2195.7500  2374.4250   220.8242     2.0240     2.6782      .0498    18.4593    22.9593    11.1456    20.9464   177.5015     8.3595      .0000 
 2196.0000  2368.3250   221.1711     1.0517     2.6935      .0520    18.8606    23.3606    11.5298    19.8243   178.0898     8.5581      .0000 
 2196.2500  2417.7349   221.5181     1.2971     2.6896      .0492    19.6868    24.1868    12.3344    17.3839   178.2175     8.6011      .0000 
 2196.5000  2380.8298   221.8265     1.4913     2.6866      .0474    19.6151    24.1151    12.2638    17.0818   177.9670     8.5168      .0000 
 2196.7500  2383.8799   222.4047     1.1009     2.6927      .0479    18.5400    23.0400    11.2225    17.3025   176.7435     8.1016      .0000 
 2197.0000  2423.2249   223.2143      .0180     2.7097      .0502    17.5718    22.0718    10.3113    16.9442   174.4947     7.3232      .0000 
 2197.2500  2379.3049   223.4456     -.4326     2.7168      .0508    17.3145    21.8145    10.0736    16.2435   173.1701     6.8552      .0000 
 2197.5000  2369.5449   224.0238     -.5014     2.7179      .0485    17.2086    21.7086     9.9763    16.2841   171.0877     6.1049      .0000 
 2197.7500  2415.9050   224.3707      .4647     2.7027      .0429    17.8491    22.3491    10.5696    18.0305   170.3952     5.8513      .0000 
