~Version Information                                                            

 VERS.                1.20:                                                     

 WRAP.                  NO:                                                     

~Well Information Block                                                         

#MNEM.UNIT       Data Type    Information                                       

#---------    -------------   ------------------------------                    

 STRT.M           2170.000:                                                     

 STOP.M           2381.000:                                                     

 STEP.M               1.250:                                                     

 NULL.            -999.000:                                                     

 CN  .             COMPANY:   ZZPNiG ZIELONA GORA                               

 WN  .                WELL:   K O S C I A N - 6                                 

 FN  .               FIELD:   MONOKLINA PRZEDSUDECKA                            

 DATE.                DATE:   95-05-16                                          

 FL  .     LOCATION LINE 1:   SIERAKOW                                          

 LONG.           LONGITUDE:                            .0000                    

 LATI.            LATITUDE:                            .0000                    

 PD  .     PERMANENT DATUM:   POZIOM MORZA                                      

 LMF .       LOG MEAS FROM:   POW. TERENU                                       

 FAPD.      ABOVE PERM DAT:                            .0000                    

 DMF .     DRLNG MEAS FROM:   POW. TERENU                                       

 EPD .          ELEV. P.D.:                          79.0000                    

 EKB .          ELEV. K.B.:                          84.0000                    

 EDF .          ELEV. D.F.:                          84.0000                    

 EGL .          ELEV. G.L.:                          79.0000                    

 DFT .      DR. FLUID TYPE:   SOLNO-SKROB.                                      

 MSS .     MUD SAMPLE SRC.:   OBIEG                                             

 MFSS.      MUD FILT. SRC.:   WYKRES                                            

 MCSS.     MUD CAKE SOURCE:   WYKRES                                            

 TCS .     TIME SINCE CIRC:                                0                    

 TLAB.     TIME LOG ON BTM:                                0                    

 LUN .     LOG UNIT NUMBER:   1A/Kw                                             

 LUL .       LOG UNIT LOC.:   BGW KRAKOW                                        

 ENGI.         RECORDED BY:   J. DUBIS                                          

 WITN.        WITNESSED BY:   K. KRAWIEC                                        

~Parameter Information Block                                                    

#MNEM.UNIT        Value       Description                                       

#---------    -------------   ------------------------------                    

 RUN .               .0000:                           RUN NUMBER                

 DD  .           2381.0000:                      DEPTH - DRILLER                

 DL  .           2379.0000:                       DEPTH - LOGGER                

 BLI .           2379.0000:                  BOTTOM LOG INTERVAL                

 TLI .           2015.0000:                     TOP LOG INTERVAL                

 CS  .              9.6250:                      CASING DIAMETER                

 CSD .           2002.0000:               CASING DEPTH - DRILLER                

 BS  .              8.5000:                             BIT SIZE                

 DFD .              1.3600:               DRILLING FLUID DENSITY                

 DFV .             39.0000:             DRILLING FLUID VISCOSITY                

 DFPH.              9.8000:                    DRILLING FLUID PH                

 DFL .              3.5000:                  DRILLING FLUID LOSS                

 RMS .               .0640:                      MUD RESISTIVITY                

 MST .             16.0000:                 MUD RESISTIVITY TEMP                

 RMF .               .0350:             MUD FILTRATE RESISTIVITY                

 MFST.             16.0000:        MUD FILTRATE RESISTIVITY TEMP                

 RMC .               .1250:                 MUD CAKE RESISTIVITY                

 MCST.             16.0000:            MUD CAKE RESISTIVITY TEMP                

 RMB .               .0160:          BOTTOM HOLE MUD RESISTIVITY                

 BHT .             86.0000:                     BOTTOM HOLE TEMP                

~Curve Information Block                                                        

#MNEM.UNIT     API CODE       Curve Description                                 

#---------    -------------   ------------------------------                    

 DEPT.M                   :                                                     

 TENS.lbs      0   0  0  0:                                                     

 CALM.mm       0   0  0  0:                                                     

 DPHI.ls       0   0  0  0:                                                     

 RHOB.gm/c     0   0  0  0:                                                     

 DRHO.gm/c     0   0  0  0:                                                     

 NPHI.ls       0   0  0  0:                                                     

 NPHS.ss       0   0  0  0:                                                     

 NPHD.dol      0   0  0  0:                                                     

 GR  .API      0   0  0  0:                                                     

 DTM .us/m     0   0  0  0:                                                     

 SPHI.ls       0   0  0  0:                                                     

 ITT .ms       0   0  0  0:                                                     

~A  DEPT        TENS       CALM       DPHI       RHOB       DRHO       NPHI       NPHS       NPHD       GR         DTM        SPHI       ITT   
# ...
 2296.0000  2426.8850   219.2439     8.9023     2.5702      .0311    24.6053    29.1053    17.4617    10.2300   220.0182    19.9811      .0000 
 2296.2500  2450.6750   219.3981     9.4323     2.5619      .0331    25.1826    29.6826    18.0973    10.6790   220.6618    20.1227      .0000 
 2296.5000  2422.6150   219.6679    13.7864     2.4936      .0289    27.8924    32.3924    21.1605    11.6952   233.1381    22.7116      .0000 
 2296.7500  2483.0049   219.8221    17.1061     2.4414      .0224    30.1035    34.6035    23.7449    11.6915   243.7132    24.6984      .0000 
 2297.0000  2480.2600   219.9763    21.9559     2.3653      .0134    34.7492    39.2492    29.3614     9.9301   257.9255    27.1119      .0000 
 2297.2500  2443.0500   220.0534    22.3667     2.3588      .0136    34.7362    39.2362    29.3454     8.5498   258.2619    27.1659     1.0000 
 2297.5000  2437.8650   220.1691    21.6519     2.3701      .0152    33.8037    38.3037    28.2021     8.1892   256.2652    26.8438      .0000 
 2297.7500  2442.1350   220.4389    20.9075     2.3818      .0155    32.0887    36.5887    26.1186     8.3574   253.6063    26.4071      .0000 
 2298.0000  2438.4749   220.8630    21.3132     2.3754      .0126    31.7632    36.2632    25.7265     8.6911   255.4416    26.7095      .0000 
 2298.2500  2445.1851   221.0172    21.6943     2.3694      .0107    31.6119    36.1119    25.5445     9.5272   257.4838    27.0409      .0000 
 2298.5000  2447.0149   221.2870    21.6915     2.3694      .0094    31.2272    35.7272    25.0830    11.1010   259.2334    27.3208      .0000 
 2298.7500  2451.2849   221.5569    20.6766     2.3854      .0122    32.2800    36.7800    26.3497    13.9122   255.8619    26.7781      .0000 
 2299.0000  2442.1350   221.6340    20.4171     2.3895      .0122    33.1757    37.6757    27.4361    15.2187   254.1946    26.5045      .0000 
 2299.2500  2444.2700   221.8267    20.6458     2.3859      .0100    33.0898    37.5898    27.3316    17.8956   253.6147    26.4085      .0000 
 2299.5000  2446.4050   221.9809    20.6954     2.3851      .0085    31.4502    35.9502    25.3504    20.1566   253.6583    26.4157      .0000 
 2299.7500  2448.8450   222.1351    20.1391     2.3938      .0100    30.9019    35.4019    24.6941    20.0966   252.3540    26.1982      .0000 
 2300.0000  2442.1350   222.3279    19.0934     2.4102      .0127    30.1494    34.6494    23.7993    16.7747   250.5154    25.8877      .0000 
 2300.2500  2451.8950   222.4050    18.9993     2.4117      .0130    30.2650    34.7650    23.9364    15.2053   250.7087    25.9206      .0000 
 2300.5000  2455.8599   222.4820    20.0553     2.3951      .0094    32.0486    36.5486    26.0703    14.6895   253.6113    26.4079      .0000 
 2300.7500  2454.3350   222.5591    20.9825     2.3806      .0064    33.3096    37.8096    27.5991    16.1999   255.9525    26.7929      .0000 
 2301.0000  2453.7249   222.6362    21.2270     2.3767      .0052    33.6022    38.1022    27.9560    16.5089   256.5980    26.8978      .0000 
 2301.2500  2451.2849   222.7904    21.6224     2.3705      .0033    35.4779    39.9779    30.2592    15.2988   259.2856    27.3291      .0000 
 2301.5000  2450.0649   222.9060    22.7805     2.3523     -.0005    36.6690    41.1690    31.7332    12.7343   265.9615    28.3625      .0000 
 2301.7500  2446.4050   222.9446    23.2294     2.3453     -.0015    36.2215    40.7215    31.1785    12.4995   268.6590    28.7655      .0000 
 2302.0000  2455.8599   223.0602    23.3179     2.3439     -.0013    34.1079    38.6079    28.5744    11.9389   269.5179    28.8921      .0000 
 2302.2500  2453.1150   223.1759    21.9759     2.3650      .0028    32.3632    36.8632    26.4502    10.5790   264.3025    28.1105      .0000 
 2302.5000  2444.5750   223.2530    21.2105     2.3770      .0049    31.9863    36.4863    25.9952     9.7817   261.0723    27.6108      .0000 
 2302.7500  2448.8450   223.4071    20.1720     2.3933      .0079    32.4574    36.9574    26.5643     9.7344   256.4250    26.8698      .0000 
 2303.0000  2454.9448   223.4843    20.1983     2.3929      .0077    32.5938    37.0938    26.7295     9.7722   256.8636    26.9409      .0000 
 2303.2500  2465.6199   223.7155    21.4817     2.3727      .0045    32.6702    37.1702    26.8220     8.7019   262.7161    27.8667      .0000 
 2303.5000  2458.9099   224.1011    23.7351     2.3374     -.0014    34.9291    39.4291    29.5827     8.3011   272.9586    29.3914      .0000 
 2303.7500  2454.6399   224.3324    24.6109     2.3236     -.0035    35.5881    40.0881    30.3951     8.5251   276.9282    29.9520      .0000 
 2304.0000  2453.7249   224.4480    24.7304     2.3217     -.0055    30.7360    35.2360    24.4963     8.5192   274.6844    29.6371      .0000 
 2304.2500  2449.7600   224.8335    21.7630     2.3683     -.0051    23.3285    27.8285    16.0794    10.8073   253.7037    26.4232      .0000 
 2304.5000  2447.0149   225.0262    19.2426     2.4079     -.0042    19.3403    23.8403    11.9948    12.3018   240.0426    24.0286      .0000 
 2304.7500  2448.8450   225.7972    12.8690     2.5080      .0019    13.6609    18.0855     6.9115    14.3857   213.8768    18.5879      .0000 
 2305.0000  2449.4548   226.1057     7.5699     2.5912      .0088    10.6099    14.8596     4.6064    17.4293   197.7785    14.5253     1.0000 
 2305.2500  2460.4351   226.2984     5.8347     2.6184      .0119     9.5752    13.7524     3.9008    20.9421   194.2134    13.5345      .0000 
 2305.5000  2467.1450   226.4911     4.8375     2.6341      .0169     8.1982    12.2684     3.0252    34.8685   196.1294    14.0715      .0000 
 2305.7500  2449.1499   226.5297     4.8482     2.6339      .0206     7.7485    11.7812     2.7554    41.6045   198.2066    14.6419      .0000 
 2306.0000  2418.3450   226.2984     5.2467     2.6276      .0261     6.4313    10.3469     2.0127    43.4185   197.9326    14.5673      .0000 
 2306.2500  2568.7100   225.9514     5.1250     2.6295      .0278     5.7740     9.6270     1.6691    35.1870   191.8215    12.8491      .0000 
 2306.5000  2579.9949   225.8358     4.8014     2.6346      .0274     6.2310    10.1278     1.9060    34.1449   189.7326    12.2364      .0000 
 2306.7500  2548.2749   225.7201     3.3691     2.6571      .0294     8.5737    12.6743     3.2566    43.8906   191.0804    12.6333      .0000 
 2307.0000  2547.6650   225.5659     2.2247     2.6751      .0315     9.8333    14.0292     4.0730    61.6830   196.6284    14.2096      .0000 
 2307.2500  2540.0400   225.4117     1.9598     2.6792      .0325     9.2459    13.3986     3.6847    66.7783   197.7646    14.5215      .0000 
 2307.5000  2521.7400   225.1033     2.4647     2.6713      .0323     7.0926    11.0683     2.3766    63.8513   194.6839    13.6674      .0000 
 2307.7500  2572.6750   224.8720     2.8289     2.6656      .0335     5.4884     9.3135     1.5256    52.3502   189.2366    12.0889      .0000 
 2308.0000  2584.2649   224.8335     2.6280     2.6687      .0354     4.9834     8.7577     1.2804    48.7643   187.0264    11.4223      .0000 
 2308.2500  2558.6450   224.7949     2.1381     2.6764      .0376     4.7074     8.4533     1.1511    48.5257   183.8498    10.4361      .0000 
 2308.5000  2554.0698   224.8335     2.3040     2.6738      .0360     4.8613     8.6231     1.2228    47.1698   183.2195    10.2364      .0000 
 2308.7500  2557.1199   224.9106     2.7033     2.6676      .0341     4.8910     8.6558     1.2367    46.8350   183.5186    10.3313      .0000 
 2309.0000  2545.8350   225.1804     2.8386     2.6654      .0339     4.8137     8.5705     1.2005    50.5983   184.2968    10.5769      .0000 
 2309.2500  2554.0698   225.3732     2.6413     2.6685      .0354     4.6957     8.4404     1.1457    53.3806   183.9825    10.4780      .0000 
 2309.5000  2556.5100   225.7587     1.9937     2.6787      .0401     4.4402     8.1580     1.0291    50.7724   182.4615     9.9943      .0000 
 2309.7500  2555.5950   226.3755     1.8904     2.6803      .0418     5.2056     9.0024     1.3869    47.4451   182.1908     9.9074      .0000 
