~Version Information                                                            

 VERS.                1.20:                                                     

 WRAP.                  NO:                                                     

~Well Information Block                                                         

#MNEM.UNIT       Data Type    Information                                       

#---------    -------------   ------------------------------                    

 STRT.M           2170.000:                                                     

 STOP.M           2381.000:                                                     

 STEP.M               1.250:                                                     

 NULL.            -999.000:                                                     

 CN  .             COMPANY:   ZZPNiG ZIELONA GORA                               

 WN  .                WELL:   K O S C I A N - 6                                 

 FN  .               FIELD:   MONOKLINA PRZEDSUDECKA                            

 DATE.                DATE:   95-05-16                                          

 FL  .     LOCATION LINE 1:   SIERAKOW                                          

 LONG.           LONGITUDE:                            .0000                    

 LATI.            LATITUDE:                            .0000                    

 PD  .     PERMANENT DATUM:   POZIOM MORZA                                      

 LMF .       LOG MEAS FROM:   POW. TERENU                                       

 FAPD.      ABOVE PERM DAT:                            .0000                    

 DMF .     DRLNG MEAS FROM:   POW. TERENU                                       

 EPD .          ELEV. P.D.:                          79.0000                    

 EKB .          ELEV. K.B.:                          84.0000                    

 EDF .          ELEV. D.F.:                          84.0000                    

 EGL .          ELEV. G.L.:                          79.0000                    

 DFT .      DR. FLUID TYPE:   SOLNO-SKROB.                                      

 MSS .     MUD SAMPLE SRC.:   OBIEG                                             

 MFSS.      MUD FILT. SRC.:   WYKRES                                            

 MCSS.     MUD CAKE SOURCE:   WYKRES                                            

 TCS .     TIME SINCE CIRC:                                0                    

 TLAB.     TIME LOG ON BTM:                                0                    

 LUN .     LOG UNIT NUMBER:   1A/Kw                                             

 LUL .       LOG UNIT LOC.:   BGW KRAKOW                                        

 ENGI.         RECORDED BY:   J. DUBIS                                          

 WITN.        WITNESSED BY:   K. KRAWIEC                                        

~Parameter Information Block                                                    

#MNEM.UNIT        Value       Description                                       

#---------    -------------   ------------------------------                    

 RUN .               .0000:                           RUN NUMBER                

 DD  .           2381.0000:                      DEPTH - DRILLER                

 DL  .           2379.0000:                       DEPTH - LOGGER                

 BLI .           2379.0000:                  BOTTOM LOG INTERVAL                

 TLI .           2015.0000:                     TOP LOG INTERVAL                

 CS  .              9.6250:                      CASING DIAMETER                

 CSD .           2002.0000:               CASING DEPTH - DRILLER                

 BS  .              8.5000:                             BIT SIZE                

 DFD .              1.3600:               DRILLING FLUID DENSITY                

 DFV .             39.0000:             DRILLING FLUID VISCOSITY                

 DFPH.              9.8000:                    DRILLING FLUID PH                

 DFL .              3.5000:                  DRILLING FLUID LOSS                

 RMS .               .0640:                      MUD RESISTIVITY                

 MST .             16.0000:                 MUD RESISTIVITY TEMP                

 RMF .               .0350:             MUD FILTRATE RESISTIVITY                

 MFST.             16.0000:        MUD FILTRATE RESISTIVITY TEMP                

 RMC .               .1250:                 MUD CAKE RESISTIVITY                

 MCST.             16.0000:            MUD CAKE RESISTIVITY TEMP                

 RMB .               .0160:          BOTTOM HOLE MUD RESISTIVITY                

 BHT .             86.0000:                     BOTTOM HOLE TEMP                

~Curve Information Block                                                        

#MNEM.UNIT     API CODE       Curve Description                                 

#---------    -------------   ------------------------------                    

 DEPT.M                   :                                                     

 TENS.lbs      0   0  0  0:                                                     

 CALM.mm       0   0  0  0:                                                     

 DPHI.ls       0   0  0  0:                                                     

 RHOB.gm/c     0   0  0  0:                                                     

 DRHO.gm/c     0   0  0  0:                                                     

 NPHI.ls       0   0  0  0:                                                     

 NPHS.ss       0   0  0  0:                                                     

 NPHD.dol      0   0  0  0:                                                     

 GR  .API      0   0  0  0:                                                     

 DTM .us/m     0   0  0  0:                                                     

 SPHI.ls       0   0  0  0:                                                     

 ITT .ms       0   0  0  0:                                                     

~A  DEPT        TENS       CALM       DPHI       RHOB       DRHO       NPHI       NPHS       NPHD       GR         DTM        SPHI       ITT   
# ...
 2226.0000  2453.4199   281.4241   -15.8619     2.9590      .0419      .2281     3.4458     -.4587    15.5209   168.7598     5.2442      .0000 
 2226.2500  2479.3450   284.0455   -16.7561     2.9731      .0417      .0560     3.2510     -.5013    10.9616   169.9532     5.6884      .0000 
 2226.5000  2511.9800   289.2882   -17.0937     2.9784      .0356     -.0156     3.1698     -.5186     8.6370   170.5600     5.9119      .0000 
 2226.7500  2508.6250   293.7985   -16.8563     2.9746      .0284     -.0030     3.1841     -.5156     9.4066   171.0020     6.0736      .0000 
 2227.0000  2497.6450   295.9187   -16.5142     2.9693      .0242     -.0013     3.1860     -.5152     9.4875   171.0255     6.0822      .0000 
 2227.2500  2492.7649   299.6195   -16.5258     2.9695      .0209      .0293     3.2207     -.5078     9.7271   171.7617     6.3497      .0000 
 2227.5000  2497.9500   303.0504   -16.2828     2.9656      .0190      .1398     3.3460     -.4807     9.5186   172.0793     6.4645      .0000 
 2227.7500  2490.9351   304.5153   -15.6982     2.9565      .0169      .2160     3.4321     -.4617     9.2707   171.9685     6.4245      .0000 
 2228.0000  2479.9548   307.0210   -14.1926     2.9328      .0107      .4305     3.6749     -.4066    10.2934   171.7180     6.3339      .0000 
 2228.2500  2500.6948   307.9077   -13.9368     2.9288      .0094      .5161     3.7716     -.3839    11.4216   171.5516     6.2736      .0000 
 2228.5000  2505.8799   309.8737   -14.8989     2.9439      .0130      .5334     3.7911     -.3793    13.3634   171.1062     6.1117      .0000 
 2228.7500  2503.1350   311.6855   -15.5294     2.9538      .0153      .7093     3.9899     -.3315    13.6719   171.4239     6.2273      .0000 
 2229.0000  2456.7749   312.4950   -14.9411     2.9446      .0127     1.0378     4.3604     -.2382    15.1771   172.4711     6.6054      .0000 
 2229.2500  2469.5850   313.6130   -13.2740     2.9184      .0041     1.9672     5.4049      .0541    21.2421   176.5771     8.0446      .0000 
 2229.5000  2494.5950   314.3454   -13.1454     2.9164      .0004     1.7727     5.1867     -.0105    26.2399   179.6981     9.0946      .0000 
 2229.7500  2508.0149   314.6538   -14.0721     2.9309      .0015     1.2130     4.5576     -.1863    24.5769   178.5822     8.7234      .0000 
 2230.0000  2453.4199   314.9236   -15.6939     2.9564      .0028      .4380     3.6834     -.4046    15.6115   173.2443     6.8816     1.0000 
 2230.2500  2440.3049   315.0008   -15.8076     2.9582      .0006      .3677     3.6039     -.4229    11.1553   170.5786     5.9187      .0000 
 2230.5000  2516.8599   314.8851   -15.4546     2.9526     -.0010      .4125     3.6545     -.4113    11.2663   171.1499     6.1276      .0000 
 2230.7500  2498.2549   314.4225   -15.7059     2.9566     -.0003      .2980     3.5249     -.4409    11.8603   172.8608     6.7449      .0000 
 2231.0000  2462.2649   313.9985   -16.3999     2.9675      .0015      .1543     3.3623     -.4771    12.3111   173.1299     6.8409      .0000 
 2231.2500  2477.8198   313.1119   -17.8005     2.9895      .0052     -.1373     3.0318     -.5475    10.4661   171.3802     6.2114      .0000 
 2231.5000  2481.4800   312.0711   -17.7566     2.9888      .0051     -.3239     2.8201     -.5903     7.5007   170.1583     5.7641      .0000 
 2231.7500  2479.3450   311.3386   -17.2485     2.9808      .0037     -.3624     2.7764     -.5989     7.0401   170.2239     5.7883      .0000 
 2232.0000  2476.5999   309.7581   -16.7141     2.9724      .0020     -.3410     2.8007     -.5941     7.6679   171.8222     6.3716      .0000 
 2232.2500  2474.4648   307.9077   -16.5847     2.9704      .0018     -.2987     2.8487     -.5846     6.8256   173.4861     6.9675      .0000 
 2232.5000  2503.4399   307.0981   -16.7185     2.9725      .0027     -.2929     2.8553     -.5833     6.3274   173.9702     7.1387      .0000 
 2232.7500  2504.6599   305.2863   -16.3749     2.9671      .0022     -.2317     2.9248     -.5694     5.6735   174.7484     7.4120      .0000 
 2233.0000  2513.5049   303.3974   -16.1323     2.9633      .0015     -.0834     3.0930     -.5348     7.6244   175.1702     7.5591      .0000 
 2233.2500  2479.9548   302.3952   -16.2370     2.9649      .0018     -.0202     3.1646     -.5198     9.6051   175.1451     7.5504      .0000 
 2233.5000  2469.5850   300.5448   -16.7094     2.9723      .0030      .0266     3.2177     -.5085    11.1275   174.4106     7.2937      .0000 
 2233.7500  2464.7048   298.9258   -17.1004     2.9785      .0039      .0760     3.2736     -.4965     9.6653   173.4812     6.9658      .0000 
 2234.0000  2528.1450   298.3090   -17.0520     2.9777      .0038      .1092     3.3112     -.4883     9.1120   173.4206     6.9443      .0000 
 2234.2500  2493.6799   297.1525   -17.0950     2.9784      .0049      .1201     3.3236     -.4856    10.1275   174.1601     7.2056      .0000 
 2234.5000  2447.6250   296.6128   -16.9956     2.9768      .0052      .1041     3.3055     -.4896    10.9138   174.7233     7.4032      .0000 
 2234.7500  2503.4399   295.8418   -16.8078     2.9739      .0053      .1027     3.3039     -.4899    11.1967   175.3585     7.6245      .0000 
 2235.0000  2504.6599   294.9166   -16.2869     2.9657      .0037      .1427     3.3491     -.4800    10.4885   175.5871     7.7038      .0000 
 2235.2500  2440.3049   294.4155   -16.1592     2.9637      .0033      .1828     3.3945     -.4700    10.5296   175.7754     7.7689      .0000 
 2235.5000  2457.3850   293.4131   -15.8394     2.9587      .0017      .2958     3.5224     -.4415    10.4430   177.0611     8.2099      .0000 
 2235.7500  2435.1199   292.5651   -15.5340     2.9539      .0000      .3072     3.5354     -.4385     8.8909   178.2191     8.6016     1.0000 
 2236.0000  2529.0598   292.2181   -15.5189     2.9536     -.0008      .2441     3.4640     -.4546     8.2576   178.0511     8.5451      .0000 
 2236.2500  2508.0149   291.4471   -15.8597     2.9590     -.0007      .0495     3.2436     -.5029     8.1734   175.2308     7.5802      .0000 
 2236.5000  2510.1499   290.7532   -16.5375     2.9696      .0007     -.0958     3.0789     -.5377     7.7213   171.2290     6.1564      .0000 
 2236.7500  2489.1050   290.4062   -16.8032     2.9738      .0015     -.1365     3.0327     -.5473     7.5852   170.3482     5.8340      .0000 
 2237.0000  2488.1899   289.8280   -16.6803     2.9719      .0013     -.1324     3.0374     -.5464     7.1161   170.5851     5.9211      .0000 
 2237.2500  2485.4448   289.6353   -16.6342     2.9712      .0017     -.0895     3.0861     -.5362     6.9071   170.7314     5.9747      .0000 
 2237.5000  2481.1750   289.4425   -16.2355     2.9649      .0010      .0040     3.1921     -.5139     7.9486   170.8743     6.0270      .0000 
 2237.7500  2473.8550   289.4040   -16.4649     2.9685      .0025      .0269     3.2180     -.5084     9.3991   172.7281     6.6975      .0000 
 2238.0000  2510.1499   289.4040   -16.6001     2.9706      .0031      .0120     3.2012     -.5120     9.1983   173.9080     7.1168      .0000 
 2238.2500  2526.9250   289.4426   -17.3632     2.9826      .0059     -.0922     3.0830     -.5369     8.4872   174.2693     7.2440      .0000 
 2238.5000  2511.6750   289.5582   -17.4603     2.9841      .0061     -.2258     2.9315     -.5680     8.6636   169.1767     5.4001      .0000 
 2238.7500  2507.0999   289.6739   -17.2162     2.9803      .0055     -.2678     2.8838     -.5776     8.3324   165.7396     4.0915      .0000 
 2239.0000  2508.3198   289.9823   -16.3994     2.9675      .0029     -.2977     2.8499     -.5844     7.6549   162.2874     2.7214      .0000 
 2239.2500  2507.0999   290.3292   -16.3006     2.9659      .0026     -.3265     2.8171     -.5909     8.1445   165.1362     3.8562      .0000 
 2239.5000  2500.0850   290.6376   -16.4414     2.9681      .0028     -.3427     2.7987     -.5945     8.1042   167.2001     4.6541      .0000 
 2239.7500  2469.5850   291.2930   -16.3167     2.9662      .0023     -.3357     2.8067     -.5930     8.3352   168.8389     5.2739      .0000 
