~Version Information                                                            

 VERS.                1.20:                                                     

 WRAP.                  NO:                                                     

~Well Information Block                                                         

#MNEM.UNIT       Data Type    Information                                       

#---------    -------------   ------------------------------                    

 STRT.M           2170.000:                                                     

 STOP.M           2381.000:                                                     

 STEP.M               1.250:                                                     

 NULL.            -999.000:                                                     

 CN  .             COMPANY:   ZZPNiG ZIELONA GORA                               

 WN  .                WELL:   K O S C I A N - 6                                 

 FN  .               FIELD:   MONOKLINA PRZEDSUDECKA                            

 DATE.                DATE:   95-05-16                                          

 FL  .     LOCATION LINE 1:   SIERAKOW                                          

 LONG.           LONGITUDE:                            .0000                    

 LATI.            LATITUDE:                            .0000                    

 PD  .     PERMANENT DATUM:   POZIOM MORZA                                      

 LMF .       LOG MEAS FROM:   POW. TERENU                                       

 FAPD.      ABOVE PERM DAT:                            .0000                    

 DMF .     DRLNG MEAS FROM:   POW. TERENU                                       

 EPD .          ELEV. P.D.:                          79.0000                    

 EKB .          ELEV. K.B.:                          84.0000                    

 EDF .          ELEV. D.F.:                          84.0000                    

 EGL .          ELEV. G.L.:                          79.0000                    

 DFT .      DR. FLUID TYPE:   SOLNO-SKROB.                                      

 MSS .     MUD SAMPLE SRC.:   OBIEG                                             

 MFSS.      MUD FILT. SRC.:   WYKRES                                            

 MCSS.     MUD CAKE SOURCE:   WYKRES                                            

 TCS .     TIME SINCE CIRC:                                0                    

 TLAB.     TIME LOG ON BTM:                                0                    

 LUN .     LOG UNIT NUMBER:   1A/Kw                                             

 LUL .       LOG UNIT LOC.:   BGW KRAKOW                                        

 ENGI.         RECORDED BY:   J. DUBIS                                          

 WITN.        WITNESSED BY:   K. KRAWIEC                                        

~Parameter Information Block                                                    

#MNEM.UNIT        Value       Description                                       

#---------    -------------   ------------------------------                    

 RUN .               .0000:                           RUN NUMBER                

 DD  .           2381.0000:                      DEPTH - DRILLER                

 DL  .           2379.0000:                       DEPTH - LOGGER                

 BLI .           2379.0000:                  BOTTOM LOG INTERVAL                

 TLI .           2015.0000:                     TOP LOG INTERVAL                

 CS  .              9.6250:                      CASING DIAMETER                

 CSD .           2002.0000:               CASING DEPTH - DRILLER                

 BS  .              8.5000:                             BIT SIZE                

 DFD .              1.3600:               DRILLING FLUID DENSITY                

 DFV .             39.0000:             DRILLING FLUID VISCOSITY                

 DFPH.              9.8000:                    DRILLING FLUID PH                

 DFL .              3.5000:                  DRILLING FLUID LOSS                

 RMS .               .0640:                      MUD RESISTIVITY                

 MST .             16.0000:                 MUD RESISTIVITY TEMP                

 RMF .               .0350:             MUD FILTRATE RESISTIVITY                

 MFST.             16.0000:        MUD FILTRATE RESISTIVITY TEMP                

 RMC .               .1250:                 MUD CAKE RESISTIVITY                

 MCST.             16.0000:            MUD CAKE RESISTIVITY TEMP                

 RMB .               .0160:          BOTTOM HOLE MUD RESISTIVITY                

 BHT .             86.0000:                     BOTTOM HOLE TEMP                

~Curve Information Block                                                        

#MNEM.UNIT     API CODE       Curve Description                                 

#---------    -------------   ------------------------------                    

 DEPT.M                   :                                                     

 TENS.lbs      0   0  0  0:                                                     

 CALM.mm       0   0  0  0:                                                     

 DPHI.ls       0   0  0  0:                                                     

 RHOB.gm/c     0   0  0  0:                                                     

 DRHO.gm/c     0   0  0  0:                                                     

 NPHI.ls       0   0  0  0:                                                     

 NPHS.ss       0   0  0  0:                                                     

 NPHD.dol      0   0  0  0:                                                     

 GR  .API      0   0  0  0:                                                     

 DTM .us/m     0   0  0  0:                                                     

 SPHI.ls       0   0  0  0:                                                     

 ITT .ms       0   0  0  0:                                                     

~A  DEPT        TENS       CALM       DPHI       RHOB       DRHO       NPHI       NPHS       NPHD       GR         DTM        SPHI       ITT   
# ...
 2366.0000  2612.0200   224.8335    -4.1786     2.7756      .0430    18.5275    23.0275    11.2105      .0000   202.9902    15.9111      .0000 
 2366.2500  2614.4600   224.7564    -3.3603     2.7628      .0463    17.7965    22.2965    10.5204      .0000   202.5919    15.8077      .0000 
 2366.5000  2668.1399   225.3346    -2.3105     2.7463      .0480    17.1678    21.6678     9.9389      .0000   176.8488     8.1375      .0000 
 2366.7500  2592.8049   225.7587    -1.5131     2.7338      .0481    17.1067    21.6067     9.8829      .0000   130.0697   -15.0000      .0000 
 2367.0000  2638.5549   226.0285      .7619     2.6980      .0445    17.6829    22.1829    10.4145      .0000    25.8472   -15.0000      .0000 
 2367.2500  2640.0798   226.1441     2.5773     2.6695      .0392    18.7361    23.2361    11.4101      .0000      .0000   -15.0000      .0000 
 2367.5000  2666.0049   226.5682     2.9701     2.6634      .0368    19.0475    23.5475    11.7103      .0000      .0000   -15.0000      .0000 
 2367.7500  2705.9600   226.7995     2.8854     2.6647      .0344    19.3862    23.8862    12.0396      .0000      .0000   -15.0000      .0000 
 2368.0000  2595.2449   226.6068     2.9635     2.6635      .0294    18.7269    23.2269    11.4013      .0000      .0000   -15.0000      .0000 
 2368.2500  2685.2200   225.7972     3.2487     2.6590      .0253    17.8331    22.3331    10.5547      .0000      .0000   -15.0000      .0000 
 2368.5000  2658.9900   225.3346     3.3871     2.6568      .0178    15.9997    20.4997     8.8886      .0000      .0000   -15.0000      .0000 
 2368.7500  2578.4700   224.5251     3.1981     2.6598      .0161    15.4533    19.9533     8.4114      .0000      .0000   -15.0000      .0000 
 2369.0000  2630.0149   222.7132     2.3116     2.6737      .0147    14.9103    19.3897     7.9462      .0000      .0000   -15.0000      .0000 
 2369.2500  2657.1599   219.1667     1.6926     2.6834      .0154    13.8166    18.2485     7.0376      .0000      .0000   -15.0000      .0000 
 2369.5000  2637.3350   217.6247     1.3616     2.6886      .0177    13.1461    17.5453     6.5000      .0000      .0000   -15.0000      .0000 
 2369.7500  2587.9250   215.2346      .9760     2.6947      .0243    12.9051    17.2918     6.3105      .0000      .0000   -15.0000      .0000 
 2370.0000  2576.9448   214.3480      .4280     2.7033      .0309    14.2010    18.6504     7.3526      .0000      .0000   -15.0000      .0000 
 2370.2500  2605.0049   214.2709      .1251     2.7080      .0332    15.1231    19.6231     8.1275      .0000      .0000   -15.0000      .0000 
 2370.5000  2600.7349   213.9625     -.1072     2.7117      .0326    15.0009    19.5009     8.0232      .0000      .0000   -15.0000      .0000 
 2370.7500  2611.1050   213.5770     -.1523     2.7124      .0294    12.4830    16.8470     5.9832      .0000      .0000   -15.0000      .0000 
 2371.0000  2646.1799   213.4228      .0401     2.7094      .0268    11.6017    15.9147     5.3198      .0000      .0000   -15.0000      .0000 
 2371.2500  2621.7800   213.2301      .2327     2.7063      .0264    11.0426    15.3207     4.9133      .0000      .0000   -15.0000      .0000 
 2371.5000  2636.7249   213.3457      .4200     2.7034      .0273    10.7581    15.0177     4.7108      .0000      .0000   -15.0000      .0000 
 2371.7500  2642.8250   213.5385      .5844     2.7008      .0302    10.2564    14.4821     4.3608      .0000      .0000   -15.0000      .0000 
 2372.0000  2648.3149   213.6156      .5481     2.7014      .0313    10.5269    14.7710     4.5483      .0000      .0000   -15.0000      .0000 
 2372.2500  2572.0649   213.4614      .4382     2.7031      .0317    10.8279    15.0920     4.7601      .0000      .0000   -15.0000      .0000 
 2372.5000  2620.2549   212.7675      .8503     2.6967      .0293    11.0803    15.3608     4.9404      .0000      .0000   -15.0000      .0000 
 2372.7500  2631.2349   212.3435     1.7303     2.6828      .0258    10.7001    14.9558     4.6698      .0000      .0000   -15.0000      .0000 
 2373.0000  2621.4749   212.1507     2.1796     2.6758      .0238    10.4939    14.7358     4.5253      .0000      .0000   -15.0000      .0000 
 2373.2500  2589.1450   212.3049     1.8042     2.6817      .0259    10.2945    14.5229     4.3871      .0000      .0000   -15.0000      .0000 
 2373.5000  2581.8250   212.2278      .6411     2.6999      .0317    10.4415    14.6799     4.4889      .0000      .0000   -15.0000      .0000 
 2373.7500  2647.0950   212.1507      .1889     2.7070      .0345    10.5260    14.7701     4.5477      .0000      .0000   -15.0000      .0000 
 2374.0000  2643.4348   211.6495      .5510     2.7013      .0345    10.7220    14.9792     4.6853      .0000      .0000   -15.0000      .0000 
 2374.2500  2660.2100   211.2641     1.1463     2.6920      .0338    10.9415    15.2131     4.8410      .0000      .0000   -15.0000      .0000 
 2374.5000  2633.3699   211.1484     1.2332     2.6906      .0339    10.9896    15.2643     4.8753      .0000      .0000   -15.0000      .0000 
 2374.7500  2625.7449   211.0713      .7954     2.6975      .0348    11.5430    15.8523     5.2766      .0000      .0000   -15.0000      .0000 
 2375.0000  2624.5249   211.0713      .6326     2.7001      .0332    13.7659    18.1955     6.9965      .0000      .0000   -15.0000      .0000 
 2375.2500  2651.9749   211.4568      .1696     2.7073      .0302    27.5566    32.0566    20.7742      .0000      .0000   -15.0000      .0000 
 2375.5000  2654.4150   211.9579     -.5450     2.7186      .0289   103.3479   107.8479    63.4558      .0000      .0000   -15.0000      .0000 
 2375.7500  2598.5999   212.0736    -1.0485     2.7265      .0300   103.3468   107.8468    63.4571      .0000      .0000   -15.0000      .0000 
 2376.0000  2582.4348   211.9965    -1.7547     2.7375      .0302    -3.4385     -.7466    -1.0395      .0000      .0000   -15.0000      .0000 
 2376.2500  2612.3250   211.8423    -1.9213     2.7402      .0285    -3.4371     -.7450    -1.0394      .0000      .0000   -15.0000      .0000 
 2376.5000  2687.3550   212.0350    -1.9696     2.7409      .0271    -3.4390     -.7472    -1.0396      .0000      .0000   -15.0000      .0000 
 2376.7500  2667.8350   212.0350    -2.3915     2.7475      .0257    -3.4391     -.7473    -1.0396      .0000      .0000   -15.0000      .0000 
 2377.0000  2637.9448   211.8423    -2.0525     2.7422      .0224    -3.4374     -.7453    -1.0395      .0000      .0000   -15.0000      .0000 
 2377.2500  2684.3049   211.3797    -1.7335     2.7372      .0215    -3.4330     -.7402    -1.0392      .0000      .0000   -15.0000      .0000 
 2377.5000  2723.9548   210.0304     -.8160     2.7228      .0235    -3.4202     -.7254    -1.0384      .0000      .0000   -15.0000      .0000 
 2377.7500  2701.0798   209.2595     -.9806     2.7254      .0296    -3.4128     -.7169    -1.0379      .0000      .0000   -15.0000      .0000 
 2378.0000  2680.3398   206.2141    -1.7398     2.7373      .0477    -3.3837     -.6832    -1.0361      .0000      .0000   -15.0000      .0000 
 2378.2500  2609.8850   202.4748    -2.9470     2.7563      .0681    -3.3477     -.6417    -1.0337      .0000      .0000   -15.0000      .0000 
 2378.5000  2593.7200   200.6629    -3.4680     2.7644      .0778    -3.3303     -.6216    -1.0325      .0000      .0000   -15.0000      .0000 
 2378.7500  2588.2300   198.7355    -4.0654     2.7738      .0907    -3.3126     -.6012    -1.0313      .0000      .0000   -15.0000      .0000 
 2379.0000  2633.9800   198.3500    -6.2361     2.8079      .1305    -3.3092     -.5973    -1.0311      .0000      .0000   -15.0000      .0000 
 2379.2500  2570.8450   198.2729   -12.7460     2.9101      .2397    -3.3086     -.5965    -1.0310      .0000      .0000   -15.0000      .0000 
 2379.5000  2434.2048   198.1572   -40.7950     3.3505      .8033    -3.3076     -.5954    -1.0310      .0000      .0000   -15.0000      .0000 
 2379.7500  2294.5149   198.0802   -37.7156     3.3021     1.0389    -3.3070     -.5947    -1.0309      .0000      .0000   -15.0000      .0000 
