~Version Information                                                            

 VERS.                1.20:                                                     

 WRAP.                  NO:                                                     

~Well Information Block                                                         

#MNEM.UNIT       Data Type    Information                                       

#---------    -------------   ------------------------------                    

 STRT.M           2170.000:                                                     

 STOP.M           2381.000:                                                     

 STEP.M               1.250:                                                     

 NULL.            -999.000:                                                     

 CN  .             COMPANY:   ZZPNiG ZIELONA GORA                               

 WN  .                WELL:   K O S C I A N - 6                                 

 FN  .               FIELD:   MONOKLINA PRZEDSUDECKA                            

 DATE.                DATE:   95-05-16                                          

 FL  .     LOCATION LINE 1:   SIERAKOW                                          

 LONG.           LONGITUDE:                            .0000                    

 LATI.            LATITUDE:                            .0000                    

 PD  .     PERMANENT DATUM:   POZIOM MORZA                                      

 LMF .       LOG MEAS FROM:   POW. TERENU                                       

 FAPD.      ABOVE PERM DAT:                            .0000                    

 DMF .     DRLNG MEAS FROM:   POW. TERENU                                       

 EPD .          ELEV. P.D.:                          79.0000                    

 EKB .          ELEV. K.B.:                          84.0000                    

 EDF .          ELEV. D.F.:                          84.0000                    

 EGL .          ELEV. G.L.:                          79.0000                    

 DFT .      DR. FLUID TYPE:   SOLNO-SKROB.                                      

 MSS .     MUD SAMPLE SRC.:   OBIEG                                             

 MFSS.      MUD FILT. SRC.:   WYKRES                                            

 MCSS.     MUD CAKE SOURCE:   WYKRES                                            

 TCS .     TIME SINCE CIRC:                                0                    

 TLAB.     TIME LOG ON BTM:                                0                    

 LUN .     LOG UNIT NUMBER:   1A/Kw                                             

 LUL .       LOG UNIT LOC.:   BGW KRAKOW                                        

 ENGI.         RECORDED BY:   J. DUBIS                                          

 WITN.        WITNESSED BY:   K. KRAWIEC                                        

~Parameter Information Block                                                    

#MNEM.UNIT        Value       Description                                       

#---------    -------------   ------------------------------                    

 RUN .               .0000:                           RUN NUMBER                

 DD  .           2381.0000:                      DEPTH - DRILLER                

 DL  .           2379.0000:                       DEPTH - LOGGER                

 BLI .           2379.0000:                  BOTTOM LOG INTERVAL                

 TLI .           2015.0000:                     TOP LOG INTERVAL                

 CS  .              9.6250:                      CASING DIAMETER                

 CSD .           2002.0000:               CASING DEPTH - DRILLER                

 BS  .              8.5000:                             BIT SIZE                

 DFD .              1.3600:               DRILLING FLUID DENSITY                

 DFV .             39.0000:             DRILLING FLUID VISCOSITY                

 DFPH.              9.8000:                    DRILLING FLUID PH                

 DFL .              3.5000:                  DRILLING FLUID LOSS                

 RMS .               .0640:                      MUD RESISTIVITY                

 MST .             16.0000:                 MUD RESISTIVITY TEMP                

 RMF .               .0350:             MUD FILTRATE RESISTIVITY                

 MFST.             16.0000:        MUD FILTRATE RESISTIVITY TEMP                

 RMC .               .1250:                 MUD CAKE RESISTIVITY                

 MCST.             16.0000:            MUD CAKE RESISTIVITY TEMP                

 RMB .               .0160:          BOTTOM HOLE MUD RESISTIVITY                

 BHT .             86.0000:                     BOTTOM HOLE TEMP                

~Curve Information Block                                                        

#MNEM.UNIT     API CODE       Curve Description                                 

#---------    -------------   ------------------------------                    

 DEPT.M                   :                                                     

 TENS.lbs      0   0  0  0:                                                     

 CALM.mm       0   0  0  0:                                                     

 DPHI.ls       0   0  0  0:                                                     

 RHOB.gm/c     0   0  0  0:                                                     

 DRHO.gm/c     0   0  0  0:                                                     

 NPHI.ls       0   0  0  0:                                                     

 NPHS.ss       0   0  0  0:                                                     

 NPHD.dol      0   0  0  0:                                                     

 GR  .API      0   0  0  0:                                                     

 DTM .us/m     0   0  0  0:                                                     

 SPHI.ls       0   0  0  0:                                                     

 ITT .ms       0   0  0  0:                                                     

~A  DEPT        TENS       CALM       DPHI       RHOB       DRHO       NPHI       NPHS       NPHD       GR         DTM        SPHI       ITT   
# ...
 2198.0000  2475.6851   224.7562     1.1074     2.6926      .0396    18.1572    22.6572    10.8592    20.1599   170.2239     5.7883      .0000 
 2198.2500  2415.2949   225.2188     2.2055     2.6754      .0340    18.4707    22.9707    11.1564    24.4938   171.7130     6.3321      .0000 
 2198.5000  2403.7048   225.4887     2.6565     2.6683      .0319    18.5992    23.0992    11.2790    24.1183   173.0693     6.8193      .0000 
 2198.7500  2429.9351   225.8742     3.3768     2.6570      .0290    19.0938    23.5938    11.7551    18.8599   174.3500     7.2724      .0000 
 2199.0000  2478.1250   226.4525     3.3513     2.6574      .0291    18.7843    23.2843    11.4564    16.8094   173.2542     6.8851      .0000 
 2199.2500  2428.1050   226.7994     3.2655     2.6587      .0295    18.3838    22.8838    11.0737    17.1206   172.9786     6.7870      .0000 
 2199.5000  2432.9849   227.6860     2.8554     2.6652      .0320    18.3329    22.8329    11.0254    16.2882   171.9920     6.4330      .0000 
 2199.7500  2387.5400   228.5727     2.5047     2.6707      .0346    19.0628    23.5628    11.7251    14.7220   171.6088     6.2944      .0000 
 2200.0000  2363.1399   228.9967     2.3237     2.6735      .0357    19.1048    23.6048    11.7658    15.5508   172.2626     6.5305      .0000 
 2200.2500  2375.0349   229.8448     2.1038     2.6770      .0370    18.9933    23.4933    11.6578    18.1801   173.9501     7.1316      .0000 
 2200.5000  2376.2549   230.6158     2.5789     2.6695      .0343    19.6376    24.1376    12.2860    19.7706   174.1786     7.2122     1.0000 
 2200.7500  2408.2800   231.0398     2.9465     2.6637      .0325    19.9071    24.4071    12.5519    19.2158   173.9266     7.1233      .0000 
 2201.0000  2387.8450   231.7723     3.5750     2.6539      .0281    19.9674    24.4674    12.6117    17.2561   174.0073     7.1518      .0000 
 2201.2500  2362.8350   232.0807     3.6955     2.6520      .0263    19.9093    24.4093    12.5540    17.2941   174.1601     7.2056      .0000 
 2201.5000  2393.3350   232.9287     3.2565     2.6589      .0245    19.7589    24.2589    12.4054    19.3403   173.8660     7.1019      .0000 
 2201.7500  2386.6250   233.8539     2.0666     2.6776      .0253    18.9820    23.4820    11.6469    18.6719   171.8457     6.3801      .0000 
 2202.0000  2380.2200   234.3165     1.5911     2.6850      .0251    18.3894    22.8894    11.0790    18.6189   170.8121     6.0042      .0000 
 2202.2500  2371.3750   235.1646     1.0751     2.6931      .0238    17.4924    21.9924    10.2378    20.3661   169.6792     5.5870      .0000 
 2202.5000  2406.1450   235.9742     1.4708     2.6869      .0200    17.2456    21.7456    10.0102    20.4800   168.9212     5.3047      .0000 
 2202.7500  2361.0049   236.4753     1.5602     2.6855      .0186    17.0790    21.5790     9.8576    21.2826   168.5600     5.1692      .0000 
 2203.0000  2380.2200   237.1692     1.1032     2.6927      .0188    16.4278    20.9278     9.2689    22.1442   168.3565     5.0927      .0000 
 2203.2500  2431.7649   237.6318      .5766     2.7009      .0198    15.6697    20.1697     8.5993    22.3474   167.3850     4.7247      .0000 
 2203.5000  2343.9250   237.9787      .3230     2.7049      .0210    15.3726    19.8726     8.3417    23.6491   167.0237     4.5867      .0000 
 2203.7500  2427.4949   238.4027      .5312     2.7017      .0205    15.1885    19.6885     8.1834    25.9172   168.6271     5.1944      .0000 
 2204.0000  2407.0601   238.5569      .5076     2.7020      .0208    15.3554    19.8554     8.3269    25.1017   169.5363     5.5340      .0000 
 2204.2500  2436.6450   238.5955      .7904     2.6976      .0197    15.6774    20.1774     8.6060    23.4184   169.2574     5.4302      .0000 
 2204.5000  2500.0850   238.7883     1.1094     2.6926      .0184    15.8524    20.3524     8.7591    22.7794   167.8069     4.8850      .0000 
 2204.7500  2460.4351   238.9039     1.2657     2.6901      .0180    15.9552    20.4552     8.8494    22.7725   167.4691     4.7567      .0000 
 2205.0000  2460.4351   239.1352     1.3466     2.6889      .0187    15.8258    20.3258     8.7358    22.5750   167.6170     4.8129      .0000 
 2205.2500  2402.7900   239.0581     1.5314     2.6860      .0197    15.3953    19.8953     8.3612    22.3002   168.3951     5.1072      .0000 
 2205.5000  2432.3750   239.1352     1.7354     2.6828      .0199    15.5116    20.0116     8.4618    22.7553   169.1902     5.4051      .0000 
 2205.7500  2390.5898   239.0195     2.2131     2.6753      .0201    16.3833    20.8833     9.2291    21.4013   171.8643     6.3868      .0000 
 2206.0000  2470.5000   238.7496     2.7718     2.6665      .0188    16.9786    21.4786     9.7661    20.3386   174.1400     7.1985      .0000 
 2206.2500  2447.3198   238.5184     2.7115     2.6674      .0190    17.1090    21.6090     9.8850    20.5190   174.2878     7.2506      .0000 
 2206.5000  2470.5000   238.3256     2.5195     2.6704      .0201    17.5537    22.0537    10.2946    21.7638   173.8610     7.1002     1.0000 
 2206.7500  2392.7249   238.0558     2.7764     2.6664      .0207    18.1511    22.6511    10.8534    21.2357   174.6005     7.3602      .0000 
 2207.0000  2373.2048   237.9016     3.3151     2.6580      .0193    18.4532    22.9532    11.1397    21.0200   175.0224     7.5076      .0000 
 2207.2500  2400.9600   237.4390     4.1186     2.6453      .0172    19.2944    23.7944    11.9501    21.3041   174.7904     7.4267      .0000 
 2207.5000  2368.9351   237.3619     4.1003     2.6456      .0172    19.6821    24.1821    12.3297    22.1140   174.3249     7.2636      .0000 
 2207.7500  2372.8999   237.1691     3.5761     2.6539      .0187    20.2733    24.7733    12.9162    23.4593   172.8122     6.7276      .0000 
 2208.0000  2385.0999   237.0535     2.9883     2.6631      .0196    19.8154    24.3154    12.4612    23.6578   171.6945     6.3254      .0000 
 2208.2500  2380.5249   236.9764     2.7883     2.6662      .0198    19.2138    23.7138    11.8716    24.0675   171.3617     6.2047      .0000 
 2208.5000  2398.5200   236.7451     2.2678     2.6744      .0209    18.6901    23.1901    11.3661    25.9002   171.0877     6.1049      .0000 
 2208.7500  2386.6250   236.4753     1.8233     2.6814      .0226    18.9629    23.4629    11.6285    26.6397   170.5616     5.9125      .0000 
 2209.0000  2368.9351   236.3211     1.6738     2.6837      .0236    18.7958    23.2958    11.4674    26.6884   170.5180     5.8964      .0000 
 2209.2500  2393.9448   236.0898     1.6132     2.6847      .0252    17.9468    22.4468    10.6611    26.5461   171.1062     6.1117      .0000 
 2209.5000  2368.9351   235.9741     1.8397     2.6811      .0263    17.4146    21.9146    10.1658    25.2566   172.0962     6.4706      .0000 
 2209.7500  2467.4500   235.8199     2.0029     2.6786      .0264    17.3824    21.8824    10.1361    24.4965   172.6861     6.6824      .0000 
 2210.0000  2387.5400   235.4344     2.5284     2.6703      .0257    17.9286    22.4286    10.6441    24.7726   173.4861     6.9675      .0000 
 2210.2500  2445.1851   235.2031     2.6848     2.6678      .0252    18.3145    22.8145    11.0080    24.1090   173.8425     7.0936      .0000 
 2210.5000  2455.8599   234.8176     2.8469     2.6653      .0232    18.3662    22.8662    11.0570    22.5524   173.0878     6.8259      .0000 
 2210.7500  2414.3799   234.5863     2.3343     2.6734      .0230    17.3372    21.8372    10.0944    22.9672   171.5281     6.2651      .0000 
 2211.0000  2420.1750   234.5092     2.0954     2.6771      .0230    17.1616    21.6616     9.9331    23.3433   171.0441     6.0890      .0000 
 2211.2500  2395.1650   234.2779     1.3957     2.6881      .0246    17.9548    22.4548    10.6686    23.6985   169.8676     5.6567      .0000 
 2211.5000  2412.8550   234.1238     1.2688     2.6901      .0246    18.6546    23.1546    11.3320    24.3273   168.8541     5.2795      .0000 
 2211.7500  2356.1250   234.0467     1.1526     2.6919      .0254    18.7753    23.2753    11.4478    23.7627   168.7734     5.2493      .0000 
