~Version Information                                                            

 VERS.                1.20:                                                     

 WRAP.                  NO:                                                     

~Well Information Block                                                         

#MNEM.UNIT       Data Type    Information                                       

#---------    -------------   ------------------------------                    

 STRT.M           2170.000:                                                     

 STOP.M           2381.000:                                                     

 STEP.M               1.250:                                                     

 NULL.            -999.000:                                                     

 CN  .             COMPANY:   ZZPNiG ZIELONA GORA                               

 WN  .                WELL:   K O S C I A N - 6                                 

 FN  .               FIELD:   MONOKLINA PRZEDSUDECKA                            

 DATE.                DATE:   95-05-16                                          

 FL  .     LOCATION LINE 1:   SIERAKOW                                          

 LONG.           LONGITUDE:                            .0000                    

 LATI.            LATITUDE:                            .0000                    

 PD  .     PERMANENT DATUM:   POZIOM MORZA                                      

 LMF .       LOG MEAS FROM:   POW. TERENU                                       

 FAPD.      ABOVE PERM DAT:                            .0000                    

 DMF .     DRLNG MEAS FROM:   POW. TERENU                                       

 EPD .          ELEV. P.D.:                          79.0000                    

 EKB .          ELEV. K.B.:                          84.0000                    

 EDF .          ELEV. D.F.:                          84.0000                    

 EGL .          ELEV. G.L.:                          79.0000                    

 DFT .      DR. FLUID TYPE:   SOLNO-SKROB.                                      

 MSS .     MUD SAMPLE SRC.:   OBIEG                                             

 MFSS.      MUD FILT. SRC.:   WYKRES                                            

 MCSS.     MUD CAKE SOURCE:   WYKRES                                            

 TCS .     TIME SINCE CIRC:                                0                    

 TLAB.     TIME LOG ON BTM:                                0                    

 LUN .     LOG UNIT NUMBER:   1A/Kw                                             

 LUL .       LOG UNIT LOC.:   BGW KRAKOW                                        

 ENGI.         RECORDED BY:   J. DUBIS                                          

 WITN.        WITNESSED BY:   K. KRAWIEC                                        

~Parameter Information Block                                                    

#MNEM.UNIT        Value       Description                                       

#---------    -------------   ------------------------------                    

 RUN .               .0000:                           RUN NUMBER                

 DD  .           2381.0000:                      DEPTH - DRILLER                

 DL  .           2379.0000:                       DEPTH - LOGGER                

 BLI .           2379.0000:                  BOTTOM LOG INTERVAL                

 TLI .           2015.0000:                     TOP LOG INTERVAL                

 CS  .              9.6250:                      CASING DIAMETER                

 CSD .           2002.0000:               CASING DEPTH - DRILLER                

 BS  .              8.5000:                             BIT SIZE                

 DFD .              1.3600:               DRILLING FLUID DENSITY                

 DFV .             39.0000:             DRILLING FLUID VISCOSITY                

 DFPH.              9.8000:                    DRILLING FLUID PH                

 DFL .              3.5000:                  DRILLING FLUID LOSS                

 RMS .               .0640:                      MUD RESISTIVITY                

 MST .             16.0000:                 MUD RESISTIVITY TEMP                

 RMF .               .0350:             MUD FILTRATE RESISTIVITY                

 MFST.             16.0000:        MUD FILTRATE RESISTIVITY TEMP                

 RMC .               .1250:                 MUD CAKE RESISTIVITY                

 MCST.             16.0000:            MUD CAKE RESISTIVITY TEMP                

 RMB .               .0160:          BOTTOM HOLE MUD RESISTIVITY                

 BHT .             86.0000:                     BOTTOM HOLE TEMP                

~Curve Information Block                                                        

#MNEM.UNIT     API CODE       Curve Description                                 

#---------    -------------   ------------------------------                    

 DEPT.M                   :                                                     

 TENS.lbs      0   0  0  0:                                                     

 CALM.mm       0   0  0  0:                                                     

 DPHI.ls       0   0  0  0:                                                     

 RHOB.gm/c     0   0  0  0:                                                     

 DRHO.gm/c     0   0  0  0:                                                     

 NPHI.ls       0   0  0  0:                                                     

 NPHS.ss       0   0  0  0:                                                     

 NPHD.dol      0   0  0  0:                                                     

 GR  .API      0   0  0  0:                                                     

 DTM .us/m     0   0  0  0:                                                     

 SPHI.ls       0   0  0  0:                                                     

 ITT .ms       0   0  0  0:                                                     

~A  DEPT        TENS       CALM       DPHI       RHOB       DRHO       NPHI       NPHS       NPHD       GR         DTM        SPHI       ITT   
# ...
 2338.0000  2598.9050   272.7506     4.4360     2.6404      .0256    10.4136    14.6501     4.4695    50.9885   207.0291    16.9370      .0000 
 2338.2500  2586.7048   271.4399     5.0770     2.6303      .0236     9.8819    14.0812     4.1057    47.5243   204.7012    16.3507      .0000 
 2338.5000  2629.4050   270.6689     5.1091     2.6298      .0238     9.5876    13.7656     3.9090    45.0756   201.7766    15.5948      .0000 
 2338.7500  2615.3750   269.4739     4.5047     2.6393      .0252     8.6237    12.7282     3.2878    44.3457   195.8740    14.0005      .0000 
 2339.0000  2583.0449   268.8571     3.8507     2.6495      .0274     8.4788    12.5717     3.1976    47.2333   194.3663    13.5777      .0000 
 2339.2500  2590.3650   268.0089     2.3362     2.6733      .0312     9.2728    13.4275     3.7022    52.3549   192.7494    13.1170      .0000 
 2339.5000  2605.0049   266.8139      .9533     2.6950      .0334    11.5585    15.8688     5.2880    55.6640   192.6402    13.0856      .0000 
 2339.7500  2587.3149   266.1971      .2275     2.7064      .0334    13.2467    17.6509     6.5797    60.6822   194.3226    13.5654      .0000 
 2340.0000  2606.8350   265.1178    -1.2246     2.7292      .0311    17.8487    22.3487    10.5693    77.2259   198.0101    14.5885      .0000 
 2340.2500  2580.6050   264.6166    -2.7797     2.7536      .0286    20.7468    25.2468    13.3921    93.6499   199.2068    14.9123      .0000 
 2340.5000  2604.3950   264.3082    -3.1107     2.7588      .0261    19.7441    24.2441    12.3909    95.4383   198.3479    14.6803      .0000 
 2340.7500  2612.3250   262.7277    -2.6197     2.7511      .0209    15.6804    20.1804     8.6087    89.0857   194.3947    13.5858      .0000 
 2341.0000  2588.8398   259.4124    -1.0816     2.7270      .0165    13.5451    17.9641     6.8182    82.3331   187.9660    11.7076      .0000 
 2341.2500  2573.2849   257.4079     -.4719     2.7174      .0158    13.6823    18.1079     6.9288    82.5985   186.0936    11.1362      .0000 
 2341.5000  2556.2048   253.8228     -.2068     2.7132      .0168    15.2653    19.7653     8.2493    79.3087   186.8801    11.3777      .0000 
 2341.7500  2596.4648   252.3193     -.2633     2.7141      .0169    15.9164    20.4164     8.8153    76.5269   189.6250    12.2045      .0000 
 2342.0000  2593.7200   249.8136     -.5471     2.7186      .0159    16.8908    21.3908     9.6862    75.0233   200.8052    15.3389      .0000 
 2342.2500  2593.4150   246.9995    -1.0007     2.7257      .0157    17.9956    22.4956    10.7069    82.1449   211.7333    18.0826      .0000 
 2342.5000  2590.9749   245.6117    -1.2012     2.7289      .0154    18.2299    22.7299    10.9278    82.7015   213.5772    18.5179      .0000 
 2342.7500  2613.5449   242.4506    -1.2135     2.7291      .0143    18.7145    23.2145    11.3894    76.5553   212.1167    18.1738      .0000 
 2343.0000  2562.9150   239.2896    -1.3007     2.7304      .0149    18.2980    22.7980    10.9923    71.7076   210.4813    17.7828      .0000 
 2343.2500  2633.6750   237.7090    -1.4370     2.7326      .0163    17.1241    21.6241     9.8989    70.0861   209.5367    17.5541      .0000 
 2343.5000  2589.1450   234.5094     -.9918     2.7256      .0172    14.2494    18.7010     7.3926    60.2067   204.2793    16.2430      .0000 
 2343.7500  2605.9199   231.1556      .2730     2.7057      .0181    11.5004    15.8072     5.2454    49.9663   193.3611    13.2922      .0000 
 2344.0000  2603.4800   229.5365     1.0671     2.6932      .0182    10.2958    14.5242     4.3880    45.1044   187.0029    11.4151      .0000 
 2344.2500  2599.2100   226.6839     1.9548     2.6793      .0206     9.2251    13.3763     3.6712    37.4698   178.2512     8.6124      .0000 
 2344.5000  2590.9749   225.4503     1.9507     2.6794      .0228     9.4587    13.6273     3.8238    34.5980   176.5721     8.0429      .0000 
 2344.7500  2597.6848   223.8312      .8639     2.6964      .0301    10.6613    14.9144     4.6425    36.4737   179.5320     9.0397      .0000 
 2345.0000  2574.2000   222.9445     -.8495     2.7233      .0378    11.7474    16.0691     5.4276    49.1315   186.9556    11.4007      .0000 
 2345.2500  2560.4749   222.7133    -1.2877     2.7302      .0394    11.9402    16.2733     5.5714    52.6244   188.7674    11.9488      .0000 
 2345.5000  2594.0249   222.1736    -1.4554     2.7328      .0408    11.6889    16.0071     5.3842    48.1678   185.7052    11.0162      .0000 
 2345.7500  2606.5300   221.2099     -.3318     2.7152      .0389    11.0045    15.2801     4.8860    39.9701   179.4361     9.0079      .0000 
 2346.0000  2579.9949   220.7858      .2869     2.7055      .0375    10.8159    15.0792     4.7516    37.6818   177.1183     8.2294      .0000 
 2346.2500  2635.2000   220.2461      .7617     2.6980      .0374    11.2194    15.5087     5.0406    35.9326   175.9855     7.8414      .0000 
 2346.5000  2620.2549   220.1690     -.8288     2.7230      .0460    13.0661    17.4612     6.4369    42.1214   180.1302     9.2371      .0000 
 2346.7500  2639.7749   220.1690    -1.9579     2.7407      .0516    14.2679    18.7203     7.4079    49.1576   182.5740    10.0304      .0000 
 2347.0000  2597.3799   220.1690    -3.1827     2.7600      .0580    14.9416    19.4222     7.9728    53.8545   184.5102    10.6439      .0000 
 2347.2500  2572.0649   220.2847    -3.0233     2.7575      .0579    14.0609    18.5041     7.2372    48.3786   183.8464    10.4351      .0000 
 2347.5000  2626.6599   220.4389    -2.6393     2.7514      .0560    14.0059    18.4466     7.1922    49.4186   185.2533    10.8760      .0000 
 2347.7500  2651.9749   220.7858    -1.8707     2.7394      .0495    14.4329    18.8925     7.5449    61.8995   190.2500    12.3895      .0000 
 2348.0000  2611.7148   220.9015    -1.5510     2.7344      .0461    14.3883    18.8460     7.5078    65.0771   191.8735    12.8642      .0000 
 2348.2500  2615.6799   220.9786    -1.4809     2.7333      .0413    14.0494    18.4921     7.2278    60.4268   191.0719    12.6308      .0000 
 2348.5000  2633.9800   220.9786    -1.6337     2.7356      .0394    14.1721    18.6203     7.3287    52.7927   187.0936    11.4428      .0000 
 2348.7500  2656.8550   221.0171    -1.4700     2.7331      .0380    14.4315    18.8910     7.5437    51.5223   184.9876    10.7933      .0000 
 2349.0000  2622.0850   221.1713     -.6826     2.7207      .0359    14.3479    18.8038     7.4742    49.1376   182.2044     9.9118      .0000 
 2349.2500  2645.2649   221.2869     -.0337     2.7105      .0365    12.7960    17.1769     6.2253    47.3438   182.1757     9.9025      .0000 
 2349.5000  2622.0850   221.3640      .0880     2.7086      .0390    12.2013    16.5495     5.7682    45.1492   181.3806     9.6457      .0000 
 2349.7500  2612.9348   221.3640      .3772     2.7041      .0439    12.7771    17.1571     6.2106    37.6900   177.9571     8.5134      .0000 
 2350.0000  2659.9050   221.4797      .8095     2.6973      .0448    14.9399    19.4204     7.9713    37.7059   180.5841     9.3861      .0000 
 2350.2500  2608.0549   221.9423      .8457     2.6967      .0436    16.0946    20.5946     8.9725    41.8801   184.6750    10.6956      .0000 
 2350.5000  2620.2549   222.7518      .4999     2.7022      .0402    17.3607    21.8607    10.1161    50.3615   191.3944    12.7250      .0000 
 2350.7500  2625.7449   222.9060      .1622     2.7075      .0378    16.7985    21.2985     9.6025    50.8511   190.8903    12.5777      .0000 
 2351.0000  2624.5249   222.6747     -.1804     2.7128      .0317    14.6383    19.1066     7.7167    44.5079   184.6666    10.6930      .0000 
 2351.2500  2638.8599   222.2507     -.0708     2.7111      .0261    14.2193    18.6696     7.3677    40.2643   180.5825     9.3856      .0000 
 2351.5000  2601.9548   222.3278     -.2117     2.7133      .0265    14.4379    18.8977     7.5490    41.0844   182.6616    10.0584      .0000 
 2351.7500  2642.2148   222.4434     -.8939     2.7240      .0289    14.2995    18.7534     7.4341    51.5380   189.1255    12.0558      .0000 
