~Version Information                                                            

 VERS.                1.20:                                                     

 WRAP.                  NO:                                                     

~Well Information Block                                                         

#MNEM.UNIT       Data Type    Information                                       

#---------    -------------   ------------------------------                    

 STRT.M           2170.000:                                                     

 STOP.M           2381.000:                                                     

 STEP.M               1.250:                                                     

 NULL.            -999.000:                                                     

 CN  .             COMPANY:   ZZPNiG ZIELONA GORA                               

 WN  .                WELL:   K O S C I A N - 6                                 

 FN  .               FIELD:   MONOKLINA PRZEDSUDECKA                            

 DATE.                DATE:   95-05-16                                          

 FL  .     LOCATION LINE 1:   SIERAKOW                                          

 LONG.           LONGITUDE:                            .0000                    

 LATI.            LATITUDE:                            .0000                    

 PD  .     PERMANENT DATUM:   POZIOM MORZA                                      

 LMF .       LOG MEAS FROM:   POW. TERENU                                       

 FAPD.      ABOVE PERM DAT:                            .0000                    

 DMF .     DRLNG MEAS FROM:   POW. TERENU                                       

 EPD .          ELEV. P.D.:                          79.0000                    

 EKB .          ELEV. K.B.:                          84.0000                    

 EDF .          ELEV. D.F.:                          84.0000                    

 EGL .          ELEV. G.L.:                          79.0000                    

 DFT .      DR. FLUID TYPE:   SOLNO-SKROB.                                      

 MSS .     MUD SAMPLE SRC.:   OBIEG                                             

 MFSS.      MUD FILT. SRC.:   WYKRES                                            

 MCSS.     MUD CAKE SOURCE:   WYKRES                                            

 TCS .     TIME SINCE CIRC:                                0                    

 TLAB.     TIME LOG ON BTM:                                0                    

 LUN .     LOG UNIT NUMBER:   1A/Kw                                             

 LUL .       LOG UNIT LOC.:   BGW KRAKOW                                        

 ENGI.         RECORDED BY:   J. DUBIS                                          

 WITN.        WITNESSED BY:   K. KRAWIEC                                        

~Parameter Information Block                                                    

#MNEM.UNIT        Value       Description                                       

#---------    -------------   ------------------------------                    

 RUN .               .0000:                           RUN NUMBER                

 DD  .           2381.0000:                      DEPTH - DRILLER                

 DL  .           2379.0000:                       DEPTH - LOGGER                

 BLI .           2379.0000:                  BOTTOM LOG INTERVAL                

 TLI .           2015.0000:                     TOP LOG INTERVAL                

 CS  .              9.6250:                      CASING DIAMETER                

 CSD .           2002.0000:               CASING DEPTH - DRILLER                

 BS  .              8.5000:                             BIT SIZE                

 DFD .              1.3600:               DRILLING FLUID DENSITY                

 DFV .             39.0000:             DRILLING FLUID VISCOSITY                

 DFPH.              9.8000:                    DRILLING FLUID PH                

 DFL .              3.5000:                  DRILLING FLUID LOSS                

 RMS .               .0640:                      MUD RESISTIVITY                

 MST .             16.0000:                 MUD RESISTIVITY TEMP                

 RMF .               .0350:             MUD FILTRATE RESISTIVITY                

 MFST.             16.0000:        MUD FILTRATE RESISTIVITY TEMP                

 RMC .               .1250:                 MUD CAKE RESISTIVITY                

 MCST.             16.0000:            MUD CAKE RESISTIVITY TEMP                

 RMB .               .0160:          BOTTOM HOLE MUD RESISTIVITY                

 BHT .             86.0000:                     BOTTOM HOLE TEMP                

~Curve Information Block                                                        

#MNEM.UNIT     API CODE       Curve Description                                 

#---------    -------------   ------------------------------                    

 DEPT.M                   :                                                     

 TENS.lbs      0   0  0  0:                                                     

 CALM.mm       0   0  0  0:                                                     

 DPHI.ls       0   0  0  0:                                                     

 RHOB.gm/c     0   0  0  0:                                                     

 DRHO.gm/c     0   0  0  0:                                                     

 NPHI.ls       0   0  0  0:                                                     

 NPHS.ss       0   0  0  0:                                                     

 NPHD.dol      0   0  0  0:                                                     

 GR  .API      0   0  0  0:                                                     

 DTM .us/m     0   0  0  0:                                                     

 SPHI.ls       0   0  0  0:                                                     

 ITT .ms       0   0  0  0:                                                     

~A  DEPT        TENS       CALM       DPHI       RHOB       DRHO       NPHI       NPHS       NPHD       GR         DTM        SPHI       ITT   
# ...
 2212.0000  2396.3850   233.9310     1.3692     2.6885      .0259    19.0898    23.5898    11.7512    22.1599   168.9868     5.3292      .0000 
 2212.2500  2469.5850   233.5841     1.4769     2.6868      .0257    19.1721    23.6721    11.8311    19.4198   168.2052     5.0357     2.0000 
 2212.5000  2400.6550   233.3528     1.6106     2.6847      .0248    19.2478    23.7478    11.9047    19.3703   168.0759     4.9868      .0000 
 2212.7500  2417.1250   232.9673     1.7557     2.6824      .0228    19.0480    23.5480    11.7108    23.2497   169.0910     5.3681      .0000 
 2213.0000  2384.1851   232.8131     1.6378     2.6843      .0224    18.7419    23.2419    11.4157    25.4367   169.2002     5.4089      .0000 
 2213.2500  2373.2048   232.6204     1.1338     2.6922      .0235    18.3540    22.8540    11.0454    25.4520   168.3094     5.0750      .0000 
 2213.5000  2359.1750   232.3891      .7480     2.6983      .0247    18.1177    22.6177    10.8219    22.5931   167.2371     4.6683      .0000 
 2213.7500  2464.7048   232.3120      .5817     2.7009      .0254    17.9331    22.4331    10.6483    21.0714   167.1530     4.6362      .0000 
 2214.0000  2400.0449   231.9650      .1938     2.7070      .0279    17.8399    22.3399    10.5611    18.9433   167.5984     4.8059      .0000 
 2214.2500  2429.0200   231.7723     -.1419     2.7122      .0300    17.9150    22.4150    10.6314    20.5930   167.4506     4.7496      .0000 
 2214.5000  2419.5649   231.6952     -.1093     2.7117      .0305    18.0206    22.5206    10.7304    21.1311   167.4036     4.7317      .0000 
 2214.7500  2433.5950   231.5795      .1554     2.7076      .0308    18.5335    23.0335    11.2163    19.6428   168.4792     5.1389      .0000 
 2215.0000  2411.0249   231.3868      .1862     2.7071      .0332    18.6620    23.1620    11.3391    20.7465   169.2187     5.4158      .0000 
 2215.2500  2375.0349   231.2711      .2796     2.7056      .0339    18.4848    22.9848    11.1699    22.2009   168.7313     5.2335      .0000 
 2215.5000  2393.9448   231.1169      .3121     2.7051      .0353    18.3563    22.8563    11.0477    23.3547   168.3515     5.0908      .0000 
 2215.7500  2425.0549   230.8471      .9686     2.6948      .0323    18.8792    23.3792    11.5478    24.1259   169.6792     5.5870      .0000 
 2216.0000  2374.4250   230.7314     1.2918     2.6897      .0309    19.0228    23.5228    11.6864    23.9266   170.1011     5.7430      .0000 
 2216.2500  2414.6851   230.4616     2.3138     2.6737      .0249    18.9660    23.4660    11.6314    22.0262   169.9919     5.7027      .0000 
 2216.5000  2390.2849   230.3459     2.5724     2.6696      .0227    18.8791    23.3791    11.5476    20.7920   169.6372     5.5714      .0000 
 2216.7500  2416.5149   230.0376     2.6062     2.6691      .0198    18.1939    22.6939    10.8938    20.2569   167.9161     4.9264      .0000 
 2217.0000  2446.7100   229.6906     1.5309     2.6860      .0222    16.9932    21.4932     9.7793    20.5304   164.9244     3.7732      .0000 
 2217.2500  2439.6948   229.5364      .9283     2.6954      .0242    16.6381    21.1381     9.4576    21.0490   163.8707     3.3570      .0000 
 2217.5000  2402.7900   229.2666      .5336     2.7016      .0268    16.5492    21.0492     9.3777    22.7313   163.7429     3.3061      .0000 
 2217.7500  2483.9199   229.0352     1.2233     2.6908      .0265    17.1787    21.6787     9.9488    24.0770   166.1228     4.2401      .0000 
 2218.0000  2450.6750   228.9581     1.6862     2.6835      .0262    17.7820    22.2820    10.5069    23.3541   167.7027     4.8455      .0000 
 2218.2500  2424.4448   228.8039     2.0821     2.6773      .0269    19.0771    23.5771    11.7389    21.1406   169.8927     5.6660     1.0000 
 2218.5000  2457.9949   228.7654     2.2975     2.6739      .0273    19.4605    23.9605    12.1122    23.5518   170.5802     5.9193      .0000 
 2218.7500  2409.8049   228.7269     2.4469     2.6716      .0266    19.4741    23.9741    12.1255    24.9001   171.0020     6.0736      .0000 
 2219.0000  2380.5249   228.7269     2.6939     2.6677      .0240    19.1579    23.6579    11.8173    24.7628   172.1399     6.4863      .0000 
 2219.2500  2395.7749   228.7654     2.4545     2.6715      .0237    18.6594    23.1594    11.3366    24.4400   172.0171     6.4420      .0000 
 2219.5000  2398.2148   228.9196      .8121     2.6972      .0282    17.3236    21.8236    10.0819    29.5279   170.0170     5.7120      .0000 
 2219.7500  2459.2148   229.2280     -.7273     2.7214      .0331    16.4344    20.9344     9.2748    34.1845   167.9733     4.9480      .0000 
 2220.0000  2377.1699   229.4207    -1.0186     2.7260      .0342    16.1680    20.6680     9.0375    33.8123   167.8675     4.9080      .0000 
 2220.2500  2432.6799   230.0375     -.6328     2.7199      .0335    16.0762    20.5762     8.9562    32.5592   168.6271     5.1944      .0000 
 2220.5000  2460.7400   230.5387     -.5484     2.7186      .0343    15.7781    20.2781     8.6940    34.2702   168.3565     5.0927      .0000 
 2220.7500  2429.3250   230.8856     -.7403     2.7216      .0349    15.1796    19.6796     8.1758    34.3934   167.5127     4.7733      .0000 
 2221.0000  2450.6750   231.4639    -1.2962     2.7304      .0364    14.3559    18.8121     7.4808    32.2033   165.3462     3.9383      .0000 
 2221.2500  2456.1650   232.4662    -1.7713     2.7378      .0387    15.0940    19.5940     8.1026    36.7431   164.6253     3.6556      .0000 
 2221.5000  2453.7249   233.0444    -1.6978     2.7367      .0398    15.7825    20.2825     8.6978    38.9523   165.3227     3.9291      .0000 
 2221.7500  2479.9548   234.4322    -1.1497     2.7280      .0408    17.0931    21.5931     9.8705    38.9342   168.6707     5.2108      .0000 
 2222.0000  2450.9800   235.2032     -.5709     2.7190      .0405    17.6141    22.1141    10.3506    38.5489   170.4558     5.8736      .0000 
 2222.2500  2453.1150   236.8223      .2233     2.7065      .0414    18.3363    22.8363    11.0287    41.8411   173.7383     7.0568      .0000 
 2222.5000  2434.2048   238.7497     1.1427     2.6921      .0383    19.0889    23.5889    11.7504    45.4332   176.5787     8.0452      .0000 
 2222.7500  2467.7549   239.7906     1.5063     2.6864      .0355    19.4153    23.9153    12.0680    44.9300   177.7335     8.4380      .0000 
 2223.0000  2469.5850   242.2578     1.3562     2.6887      .0306    18.9167    23.4167    11.5839    42.6103   177.3166     8.2968      .0000 
 2223.2500  2470.8049   244.9948    -1.0650     2.7267      .0331    16.6818    21.1818     9.4970    42.4024   171.9920     6.4330      .0000 
 2223.5000  2417.7349   246.5368    -2.9284     2.7560      .0366    14.9775    19.4596     8.0033    41.4145   168.6036     5.1856      .0000 
 2223.7500  2429.3250   249.4280    -6.1543     2.8066      .0437    12.1000    16.4424     5.6916    37.4149   164.1598     3.4717      .0000 
 2224.0000  2421.3950   252.3963    -7.5301     2.8282      .0451    10.4920    14.7338     4.5240    36.7894   164.1496     3.4677      .0000 
 2224.2500  2519.6050   253.8997    -7.8309     2.8329      .0447     9.5673    13.7439     3.8955    37.3074   164.2369     3.5022     1.0000 
 2224.5000  2462.2649   257.3306    -8.4283     2.8423      .0429     6.9453    10.9079     2.2940    38.2704   162.9462     2.9874      .0000 
 2224.7500  2442.1350   261.1856    -9.3936     2.8575      .0425     4.8208     8.5784     1.2038    38.3785   162.0218     2.6136      .0000 
 2225.0000  2490.9351   263.3058    -9.4560     2.8585      .0401     4.1302     7.8150      .8916    35.9696   161.4586     2.3838      .0000 
 2225.2500  2464.7048   267.5463    -9.9852     2.8668      .0359     2.8553     6.3980      .3718    31.2819   160.2115     1.8691      .0000 
 2225.5000  2466.5349   270.0135   -10.6412     2.8771      .0350     2.2568     5.7293      .1536    30.9723   160.4386     1.9634      .0000 
 2225.7500  2471.4150   275.4104   -13.2723     2.9184      .0386      .9937     4.3107     -.2510    27.5655   164.1462     3.4663      .0000 
