~Version Information                                                            

 VERS.                1.20:                                                     

 WRAP.                  NO:                                                     

~Well Information Block                                                         

#MNEM.UNIT       Data Type    Information                                       

#---------    -------------   ------------------------------                    

 STRT.M           2170.000:                                                     

 STOP.M           2381.000:                                                     

 STEP.M               1.250:                                                     

 NULL.            -999.000:                                                     

 CN  .             COMPANY:   ZZPNiG ZIELONA GORA                               

 WN  .                WELL:   K O S C I A N - 6                                 

 FN  .               FIELD:   MONOKLINA PRZEDSUDECKA                            

 DATE.                DATE:   95-05-16                                          

 FL  .     LOCATION LINE 1:   SIERAKOW                                          

 LONG.           LONGITUDE:                            .0000                    

 LATI.            LATITUDE:                            .0000                    

 PD  .     PERMANENT DATUM:   POZIOM MORZA                                      

 LMF .       LOG MEAS FROM:   POW. TERENU                                       

 FAPD.      ABOVE PERM DAT:                            .0000                    

 DMF .     DRLNG MEAS FROM:   POW. TERENU                                       

 EPD .          ELEV. P.D.:                          79.0000                    

 EKB .          ELEV. K.B.:                          84.0000                    

 EDF .          ELEV. D.F.:                          84.0000                    

 EGL .          ELEV. G.L.:                          79.0000                    

 DFT .      DR. FLUID TYPE:   SOLNO-SKROB.                                      

 MSS .     MUD SAMPLE SRC.:   OBIEG                                             

 MFSS.      MUD FILT. SRC.:   WYKRES                                            

 MCSS.     MUD CAKE SOURCE:   WYKRES                                            

 TCS .     TIME SINCE CIRC:                                0                    

 TLAB.     TIME LOG ON BTM:                                0                    

 LUN .     LOG UNIT NUMBER:   1A/Kw                                             

 LUL .       LOG UNIT LOC.:   BGW KRAKOW                                        

 ENGI.         RECORDED BY:   J. DUBIS                                          

 WITN.        WITNESSED BY:   K. KRAWIEC                                        

~Parameter Information Block                                                    

#MNEM.UNIT        Value       Description                                       

#---------    -------------   ------------------------------                    

 RUN .               .0000:                           RUN NUMBER                

 DD  .           2381.0000:                      DEPTH - DRILLER                

 DL  .           2379.0000:                       DEPTH - LOGGER                

 BLI .           2379.0000:                  BOTTOM LOG INTERVAL                

 TLI .           2015.0000:                     TOP LOG INTERVAL                

 CS  .              9.6250:                      CASING DIAMETER                

 CSD .           2002.0000:               CASING DEPTH - DRILLER                

 BS  .              8.5000:                             BIT SIZE                

 DFD .              1.3600:               DRILLING FLUID DENSITY                

 DFV .             39.0000:             DRILLING FLUID VISCOSITY                

 DFPH.              9.8000:                    DRILLING FLUID PH                

 DFL .              3.5000:                  DRILLING FLUID LOSS                

 RMS .               .0640:                      MUD RESISTIVITY                

 MST .             16.0000:                 MUD RESISTIVITY TEMP                

 RMF .               .0350:             MUD FILTRATE RESISTIVITY                

 MFST.             16.0000:        MUD FILTRATE RESISTIVITY TEMP                

 RMC .               .1250:                 MUD CAKE RESISTIVITY                

 MCST.             16.0000:            MUD CAKE RESISTIVITY TEMP                

 RMB .               .0160:          BOTTOM HOLE MUD RESISTIVITY                

 BHT .             86.0000:                     BOTTOM HOLE TEMP                

~Curve Information Block                                                        

#MNEM.UNIT     API CODE       Curve Description                                 

#---------    -------------   ------------------------------                    

 DEPT.M                   :                                                     

 TENS.lbs      0   0  0  0:                                                     

 CALM.mm       0   0  0  0:                                                     

 DPHI.ls       0   0  0  0:                                                     

 RHOB.gm/c     0   0  0  0:                                                     

 DRHO.gm/c     0   0  0  0:                                                     

 NPHI.ls       0   0  0  0:                                                     

 NPHS.ss       0   0  0  0:                                                     

 NPHD.dol      0   0  0  0:                                                     

 GR  .API      0   0  0  0:                                                     

 DTM .us/m     0   0  0  0:                                                     

 SPHI.ls       0   0  0  0:                                                     

 ITT .ms       0   0  0  0:                                                     

~A  DEPT        TENS       CALM       DPHI       RHOB       DRHO       NPHI       NPHS       NPHD       GR         DTM        SPHI       ITT   
# ...
 2254.0000  2501.0000   268.3175   -17.1588     2.9794      .0043     -.2445     2.9102     -.5723     9.5347   169.3851     5.4777      .0000 
 2254.2500  2524.1799   267.7007   -15.7722     2.9576      .0002     -.0870     3.0889     -.5357     8.6917   168.4372     5.1231      .0000 
 2254.5000  2528.7549   266.8911   -14.1993     2.9329     -.0042      .0175     3.2073     -.5107     8.9751   167.6355     4.8200      .0000 
 2254.7500  2496.4250   266.3129   -13.7683     2.9262     -.0050      .0442     3.2376     -.5042     8.9867   167.8069     4.8850      .0000 
 2255.0000  2507.0999   265.3491   -13.8451     2.9274     -.0040      .0910     3.2906     -.4928     8.2097   168.0388     4.9728      .0000 
 2255.2500  2483.0049   264.8480   -14.1778     2.9326     -.0024      .1269     3.3313     -.4839     8.3743   167.8069     4.8850      .0000 
 2255.5000  2491.8499   263.6529   -14.5125     2.9378     -.0001      .2268     3.4444     -.4590    11.2559   166.9867     4.5725      .0000 
 2255.7500  2490.3250   262.1880   -13.7162     2.9253     -.0011      .3504     3.5843     -.4274    13.9771   166.0186     4.1998      .0000 
 2256.0000  2513.2000   261.5327   -13.2961     2.9187     -.0019      .4014     3.6419     -.4142    14.7074   165.7446     4.0935      .0000 
 2256.2500  2520.2148   259.9908   -12.8269     2.9114     -.0014      .4149     3.6572     -.4107    14.3731   164.8000     3.7243      .0000 
 2256.5000  2530.5850   258.4102   -13.2160     2.9175      .0024      .4431     3.6891     -.4033    14.4317   163.4723     3.1982      .0000 
 2256.7500  2447.3198   257.4465   -13.2080     2.9174      .0039      .5079     3.7623     -.3861    15.1614   162.8856     2.9630      .0000 
 2257.0000  2462.8750   255.7503   -12.9949     2.9140      .0045      .6067     3.8740     -.3596    17.2177   162.4016     2.7677      .0000 
 2257.2500  2444.5750   253.9770   -12.4524     2.9055      .0031      .5182     3.7740     -.3834    18.6205   162.4016     2.7677      .0000 
 2257.5000  2528.4500   253.0518   -12.5026     2.9063      .0027      .4437     3.6897     -.4031    19.3644   162.7142     2.8940      .0000 
 2257.7500  2518.9949   250.9701   -12.8647     2.9120      .0028      .3496     3.5833     -.4276    19.0524   163.0974     3.0481      .0000 
 2258.0000  2496.4250   250.0064   -13.0394     2.9147      .0024      .3253     3.5559     -.4339    18.5581   163.1797     3.0811      .0000 
 2258.2500  2516.2500   247.6934   -12.8592     2.9119      .0005      .2026     3.4171     -.4651    18.3272   163.5580     3.2324      .0000 
 2258.5000  2530.8899   245.1877   -12.5834     2.9076     -.0019     -.0354     3.1473     -.5234    17.3445   164.4824     3.5992      .0000 
 2258.7500  2460.7400   243.7228   -12.7596     2.9103     -.0023     -.1425     3.0260     -.5487    16.5484   164.6117     3.6502      .0000 
 2259.0000  2459.5200   241.2171   -13.6719     2.9246     -.0009     -.2319     2.9246     -.5694    14.6187   165.7882     4.1104      .0000 
 2259.2500  2458.3000   238.9041   -15.7088     2.9566      .0139     -.0238     3.1605     -.5206    11.9285   166.6975     4.4616      .0000 
 2259.5000  2514.4199   237.7862   -15.8845     2.9594      .0230      .2713     3.4948     -.4477    10.5155   166.0857     4.2258     1.0000 
 2259.7500  2509.2349   235.4733   -10.3287     2.8722      .0279     1.4852     4.8639     -.1027    11.8697   165.6320     4.0497      .0000 
 2260.0000  2470.8049   233.3916     2.1571     2.6761      .0103     3.9826     7.6516      .8277    17.9971   168.9917     5.3310      .0000 
 2260.2500  2553.7649   232.4279     8.3863     2.5783      .0011     5.3790     9.1932     1.4715    20.1339   169.4622     5.5064      .0000 
 2260.5000  2541.2600   230.9630    15.3386     2.4692     -.0074     5.9744     9.8467     1.7719    22.8095   168.1750     5.0242      .0000 
 2260.7500  2454.9448   230.3462    16.3621     2.4531     -.0086     5.6707     9.5137     1.6168    24.0392   168.8475     5.2771      .0000 
 2261.0000  2476.9050   229.8065    14.4395     2.4833     -.0107     4.0867     7.7668      .8727    26.6727   173.5413     6.9871      .0000 
 2261.2500  2435.4250   229.5366     6.7827     2.6035     -.0003     1.9256     5.3582      .0401    25.7869   169.9799     5.6983      .0000 
 2261.5000  2480.5649   229.4595      .9609     2.6949      .0120     1.2658     4.6170     -.1704    23.8524   166.2372     4.2843      .0000 
 2261.7500  2453.7249   229.1897    -8.8277     2.8486      .0389      .7683     4.0564     -.3152    20.8154   161.7663     2.5095      .0000 
 2262.0000  2462.2649   228.8042   -10.6705     2.8775      .0501      .9954     4.3126     -.2506    20.2843   163.0504     3.0292      .0000 
 2262.2500  2498.2549   228.5729    -7.6011     2.8293      .0443     1.1940     4.5363     -.1920    21.0199   165.4455     3.9770      .0000 
 2262.5000  2488.4949   228.3802      .8066     2.6973      .0252     1.4782     4.8560     -.1049    23.6716   174.9383     7.4783      .0000 
 2262.7500  2508.6250   228.3802     5.1811     2.6287      .0181     1.6015     4.9945     -.0659    24.4181   180.5452     9.3733      .0000 
 2263.0000  2434.2048   228.4573     4.5474     2.6386      .0246     1.5966     4.9890     -.0675    24.6018   179.4998     9.0290      .0000 
 2263.2500  2448.2349   228.6115     3.8639     2.6493      .0288     1.6793     5.0819     -.0409    24.2360   180.6800     9.4175      .0000 
 2263.5000  2479.9548   228.7657     7.0173     2.5998      .0135     2.4074     5.8978      .2069    24.5743   191.4078    12.7288      .0000 
 2263.7500  2421.7000   228.8813     8.1713     2.5817      .0041     2.8102     6.3478      .3548    24.9664   193.5541    13.3473      .0000 
 2264.0000  2469.5850   229.7294     2.8734     2.6649      .0110     2.0482     5.4957      .0815    24.4944   182.9909    10.1636      .0000 
 2264.2500  2475.3799   230.1920    -2.2253     2.7449      .0216     1.3357     4.6957     -.1491    23.4172   175.0746     7.5258      .0000 
 2264.5000  2473.8550   230.9245   -10.5271     2.8753      .0370      .4824     3.7335     -.3929    20.0481   165.4204     3.9672      .0000 
 2264.7500  2425.6650   230.9630   -13.1340     2.9162      .0399      .3252     3.5557     -.4339    18.3371   163.9563     3.3910      .0000 
 2265.0000  2528.7549   230.9630   -13.0592     2.9150      .0384      .3529     3.5871     -.4268    18.4034   163.9378     3.3836      .0000 
 2265.2500  2521.4348   230.9630   -11.4540     2.8898      .0316      .4521     3.6993     -.4009    18.2766   166.0152     4.1985      .0000 
 2265.5000  2515.6399   230.9245    -8.2764     2.8399      .0168      .4916     3.7439     -.3905    19.8510   169.4943     5.5183      .0000 
 2265.7500  2541.5649   230.8474    -7.3516     2.8254      .0125      .4387     3.6841     -.4044    21.1976   170.6894     5.9593      .0000 
 2266.0000  2514.1150   230.4619    -8.2325     2.8393      .0122      .2996     3.5268     -.4405    23.3048   169.2422     5.4245      .0000 
 2266.2500  2475.6851   229.8451   -11.1267     2.8847      .0195      .3188     3.5485     -.4356    23.6336   165.8439     4.1320      .0000 
 2266.5000  2559.8650   229.4210   -12.0596     2.8993      .0214      .3951     3.6348     -.4158    26.3188   164.7765     3.7151      .0000 
 2266.7500  2506.7949   228.4573   -12.8560     2.9118      .0227      .6233     3.8927     -.3551    33.2159   163.7479     3.3081      .0000 
 2267.0000  2535.1599   227.8790   -12.9666     2.9136      .0211      .7234     4.0057     -.3276    37.2154   162.8856     2.9630      .0000 
 2267.2500  2544.6150   226.4912   -13.7397     2.9257      .0204      .7977     4.0896     -.3070    47.7332   161.9191     2.5718      .0000 
 2267.5000  2525.3999   224.9878   -14.0135     2.9300      .0251      .8730     4.1745     -.2857    48.6106   161.5208     2.4092      .0000 
 2267.7500  2476.5999   224.2554   -12.8456     2.9117      .0249     1.0424     4.3655     -.2369    41.1614   161.4100     2.3639      .0000 
