~Version Information                                                            

 VERS.                1.20:                                                     

 WRAP.                  NO:                                                     

~Well Information Block                                                         

#MNEM.UNIT       Data Type    Information                                       

#---------    -------------   ------------------------------                    

 STRT.M           2170.000:                                                     

 STOP.M           2381.000:                                                     

 STEP.M               1.250:                                                     

 NULL.            -999.000:                                                     

 CN  .             COMPANY:   ZZPNiG ZIELONA GORA                               

 WN  .                WELL:   K O S C I A N - 6                                 

 FN  .               FIELD:   MONOKLINA PRZEDSUDECKA                            

 DATE.                DATE:   95-05-16                                          

 FL  .     LOCATION LINE 1:   SIERAKOW                                          

 LONG.           LONGITUDE:                            .0000                    

 LATI.            LATITUDE:                            .0000                    

 PD  .     PERMANENT DATUM:   POZIOM MORZA                                      

 LMF .       LOG MEAS FROM:   POW. TERENU                                       

 FAPD.      ABOVE PERM DAT:                            .0000                    

 DMF .     DRLNG MEAS FROM:   POW. TERENU                                       

 EPD .          ELEV. P.D.:                          79.0000                    

 EKB .          ELEV. K.B.:                          84.0000                    

 EDF .          ELEV. D.F.:                          84.0000                    

 EGL .          ELEV. G.L.:                          79.0000                    

 DFT .      DR. FLUID TYPE:   SOLNO-SKROB.                                      

 MSS .     MUD SAMPLE SRC.:   OBIEG                                             

 MFSS.      MUD FILT. SRC.:   WYKRES                                            

 MCSS.     MUD CAKE SOURCE:   WYKRES                                            

 TCS .     TIME SINCE CIRC:                                0                    

 TLAB.     TIME LOG ON BTM:                                0                    

 LUN .     LOG UNIT NUMBER:   1A/Kw                                             

 LUL .       LOG UNIT LOC.:   BGW KRAKOW                                        

 ENGI.         RECORDED BY:   J. DUBIS                                          

 WITN.        WITNESSED BY:   K. KRAWIEC                                        

~Parameter Information Block                                                    

#MNEM.UNIT        Value       Description                                       

#---------    -------------   ------------------------------                    

 RUN .               .0000:                           RUN NUMBER                

 DD  .           2381.0000:                      DEPTH - DRILLER                

 DL  .           2379.0000:                       DEPTH - LOGGER                

 BLI .           2379.0000:                  BOTTOM LOG INTERVAL                

 TLI .           2015.0000:                     TOP LOG INTERVAL                

 CS  .              9.6250:                      CASING DIAMETER                

 CSD .           2002.0000:               CASING DEPTH - DRILLER                

 BS  .              8.5000:                             BIT SIZE                

 DFD .              1.3600:               DRILLING FLUID DENSITY                

 DFV .             39.0000:             DRILLING FLUID VISCOSITY                

 DFPH.              9.8000:                    DRILLING FLUID PH                

 DFL .              3.5000:                  DRILLING FLUID LOSS                

 RMS .               .0640:                      MUD RESISTIVITY                

 MST .             16.0000:                 MUD RESISTIVITY TEMP                

 RMF .               .0350:             MUD FILTRATE RESISTIVITY                

 MFST.             16.0000:        MUD FILTRATE RESISTIVITY TEMP                

 RMC .               .1250:                 MUD CAKE RESISTIVITY                

 MCST.             16.0000:            MUD CAKE RESISTIVITY TEMP                

 RMB .               .0160:          BOTTOM HOLE MUD RESISTIVITY                

 BHT .             86.0000:                     BOTTOM HOLE TEMP                

~Curve Information Block                                                        

#MNEM.UNIT     API CODE       Curve Description                                 

#---------    -------------   ------------------------------                    

 DEPT.M                   :                                                     

 TENS.lbs      0   0  0  0:                                                     

 CALM.mm       0   0  0  0:                                                     

 DPHI.ls       0   0  0  0:                                                     

 RHOB.gm/c     0   0  0  0:                                                     

 DRHO.gm/c     0   0  0  0:                                                     

 NPHI.ls       0   0  0  0:                                                     

 NPHS.ss       0   0  0  0:                                                     

 NPHD.dol      0   0  0  0:                                                     

 GR  .API      0   0  0  0:                                                     

 DTM .us/m     0   0  0  0:                                                     

 SPHI.ls       0   0  0  0:                                                     

 ITT .ms       0   0  0  0:                                                     

~A  DEPT        TENS       CALM       DPHI       RHOB       DRHO       NPHI       NPHS       NPHD       GR         DTM        SPHI       ITT   
# ...
 2240.0000  2548.2749   291.7170   -15.8954     2.9596      .0011     -.3160     2.8291     -.5885     8.3011   168.7749     5.2499      .0000 
 2240.2500  2525.0950   292.8735   -15.5350     2.9539      .0002     -.2766     2.8738     -.5796     7.7268   168.0388     4.9728      .0000 
 2240.5000  2541.8699   294.0685   -16.5183     2.9693      .0033     -.2095     2.9500     -.5643     7.3530   168.5414     5.1623      .0000 
 2240.7500  2454.9448   294.7239   -17.1259     2.9789      .0048     -.1673     2.9978     -.5545     8.2985   169.0910     5.3681      .0000 
 2241.0000  2481.7849   295.7647   -17.2829     2.9813      .0042     -.1023     3.0715     -.5393     9.3185   169.6978     5.5939      .0000 
 2241.2500  2541.2600   296.8441   -16.3209     2.9662     -.0011     -.0831     3.0933     -.5347     8.7644   170.7079     5.9661      .0000 
 2241.5000  2475.0750   297.3838   -15.9844     2.9610     -.0034     -.0838     3.0925     -.5349     8.3296   171.3432     6.1979      .0000 
 2241.7500  2520.2148   298.4632   -15.6302     2.9554     -.0063     -.0985     3.0759     -.5384     9.0230   171.1112     6.1135     1.0000 
 2242.0000  2495.2048   299.3884   -14.8829     2.9437     -.0093     -.1111     3.0616     -.5413     9.0017   169.1297     5.3826      .0000 
 2242.2500  2536.6848   299.7353   -14.5477     2.9384     -.0104     -.1104     3.0624     -.5412     8.4668   168.6642     5.2084      .0000 
 2242.5000  2509.5400   300.1594   -15.1966     2.9486     -.0081     -.1060     3.0674     -.5402     7.5785   168.9868     5.3292      .0000 
 2242.7500  2521.7400   300.3136   -16.5261     2.9695     -.0031     -.1249     3.0459     -.5446     7.7596   169.3381     5.4602      .0000 
 2243.0000  2503.7449   300.3522   -16.8663     2.9748     -.0014     -.1381     3.0309     -.5477     8.2277   169.5515     5.5396      .0000 
 2243.2500  2490.9351   300.4293   -16.7776     2.9734     -.0001     -.1461     3.0218     -.5496     7.7155   170.0591     5.7275      .0000 
 2243.5000  2497.0349   300.3907   -16.7650     2.9732      .0005     -.1328     3.0370     -.5464     7.0724   169.9919     5.7027      .0000 
 2243.7500  2493.0698   300.2365   -16.5988     2.9706      .0003     -.1113     3.0613     -.5414     7.7718   170.0776     5.7343      .0000 
 2244.0000  2495.8149   299.8125   -16.4219     2.9678     -.0011     -.1161     3.0559     -.5425     9.8203   170.3096     5.8198      .0000 
 2244.2500  2487.5798   299.6198   -16.3382     2.9665     -.0020     -.1356     3.0338     -.5471     9.9401   170.3717     5.8427      .0000 
 2244.5000  2507.4050   299.0800   -16.3886     2.9673     -.0032     -.1892     2.9730     -.5596     9.2810   170.2053     5.7814      .0000 
 2244.7500  2501.9150   298.3861   -16.7305     2.9727     -.0028     -.2014     2.9591     -.5624     8.7104   169.9919     5.7027      .0000 
 2245.0000  2470.5000   298.0006   -16.7561     2.9731     -.0030     -.1769     2.9870     -.5567     8.2116   170.0776     5.7343      .0000 
 2245.2500  2469.5850   297.2682   -16.6746     2.9718     -.0026     -.1486     3.0190     -.5502     8.2914   170.4995     5.8896      .0000 
 2245.5000  2472.6350   296.4587   -16.2439     2.9650     -.0034     -.2011     2.9595     -.5623     8.7484   170.0154     5.7114      .0000 
 2245.7500  2530.5850   296.0732   -16.0198     2.9615     -.0037     -.2450     2.9097     -.5724     9.3825   169.6557     5.5783      .0000 
 2246.0000  2518.3850   295.2250   -15.6490     2.9557     -.0049     -.3021     2.8448     -.5854    10.0769   169.5936     5.5552      .0000 
 2246.2500  2465.3149   294.8396   -15.5217     2.9537     -.0053     -.3058     2.8406     -.5862     9.7060   170.1818     5.7728      .0000 
 2246.5000  2495.2048   294.2999   -15.0290     2.9460     -.0069     -.2558     2.8974     -.5749     8.2263   171.0676     6.0976      .0000 
 2246.7500  2504.9648   293.8373   -14.1182     2.9317     -.0085     -.1807     2.9826     -.5576     8.7442   171.7366     6.3406      .0000 
 2247.0000  2509.8450   293.6445   -13.6641     2.9245     -.0093     -.1529     3.0141     -.5512     9.1043   172.1399     6.4863      .0000 
 2247.2500  2520.8250   292.9892   -13.5652     2.9230     -.0078     -.1361     3.0333     -.5472     8.6633   173.1500     6.8481      .0000 
 2247.5000  2520.5200   292.1797   -14.4972     2.9376     -.0043     -.1538     3.0131     -.5514     8.7093   172.9415     6.7737     1.0000 
 2247.7500  2485.1399   291.6400   -14.9822     2.9452     -.0024     -.1529     3.0141     -.5512     8.9155   172.3904     6.5764      .0000 
 2248.0000  2472.6350   290.5605   -15.7434     2.9572      .0001     -.1344     3.0352     -.5468     8.8330   171.6323     6.3029      .0000 
 2248.2500  2483.6150   289.3655   -15.7973     2.9580      .0002     -.0627     3.1165     -.5299    10.4263   171.2340     6.1582      .0000 
 2248.5000  2526.3149   288.7873   -15.6639     2.9559     -.0006      .0230     3.2136     -.5093    13.3496   170.7515     5.9821      .0000 
 2248.7500  2501.6099   287.4766   -15.2946     2.9501     -.0023      .1783     3.3895     -.4712    23.4936   168.8590     5.2814      .0000 
 2249.0000  2502.8298   286.7827   -15.2325     2.9492     -.0029      .1797     3.3911     -.4708    25.2219   167.9918     4.9550      .0000 
 2249.2500  2501.6099   285.4720   -14.7191     2.9411     -.0053      .0613     3.2570     -.5000    17.9817   167.2001     4.6541      .0000 
 2249.5000  2506.7949   284.2770   -14.6539     2.9401     -.0065     -.0735     3.1042     -.5325    11.4989   167.4472     4.7484      .0000 
 2249.7500  2456.1650   283.6217   -14.7360     2.9414     -.0066     -.0979     3.0765     -.5383    11.4844   167.8675     4.9080      .0000 
 2250.0000  2447.9299   282.3881   -15.7019     2.9565     -.0047     -.0565     3.1234     -.5284    10.3195   168.7548     5.2423      .0000 
 2250.2500  2452.5049   281.1930   -16.0736     2.9624     -.0041      .0215     3.2118     -.5097     8.9051   168.9212     5.3047      .0000 
 2250.5000  2530.5850   280.6919   -16.0323     2.9617     -.0044      .0655     3.2618     -.4990     9.1817   169.1095     5.3750      .0000 
 2250.7500  2527.5349   279.5739   -15.3925     2.9517     -.0063      .0999     3.3007     -.4906    10.4425   169.2994     5.4458      .0000 
 2251.0000  2528.1450   278.2632   -14.9405     2.9446     -.0074      .0152     3.2048     -.5112     9.3039   169.2574     5.4302      .0000 
 2251.2500  2493.9849   277.5693   -14.8297     2.9428     -.0078     -.0242     3.1601     -.5207     8.7055   169.4036     5.4846      .0000 
 2251.5000  2488.4949   276.2201   -15.1777     2.9483     -.0075     -.0576     3.1223     -.5287     8.3668   170.0340     5.7182      .0000 
 2251.7500  2514.1150   274.8708   -16.0645     2.9622     -.0067     -.0784     3.0986     -.5336     8.9383   170.4373     5.8668      .0000 
 2252.0000  2494.5950   274.0998   -16.6070     2.9707     -.0058     -.0841     3.0922     -.5350     9.7441   170.4138     5.8582      .0000 
 2252.2500  2458.6050   272.5964   -17.3346     2.9822     -.0037     -.0649     3.1140     -.5304    10.7635   169.9718     5.6953      .0000 
 2252.5000  2506.1851   271.8640   -17.5418     2.9854     -.0026     -.0460     3.1354     -.5259    10.9480   169.9313     5.6803      .0000 
 2252.7500  2537.5999   270.5533   -17.7924     2.9893      .0006     -.0232     3.1612     -.5205    10.1233   170.1011     5.7430      .0000 
 2253.0000  2530.8899   269.6281   -17.9403     2.9917      .0040     -.1231     3.0479     -.5442    10.9111   169.8692     5.6573      .0000 
 2253.2500  2460.7400   269.3197   -18.1728     2.9953      .0060     -.1746     2.9895     -.5562    11.9438   169.6121     5.5621      .0000 
 2253.5000  2493.6799   268.9342   -18.0402     2.9932      .0068     -.2935     2.8546     -.5835    11.9545   169.5314     5.5321     1.0000 
 2253.7500  2509.8450   268.5102   -17.8333     2.9900      .0065     -.3028     2.8440     -.5856    10.0274   169.6557     5.5783      .0000 
