~Version Information                                                            

 VERS.                1.20:                                                     

 WRAP.                  NO:                                                     

~Well Information Block                                                         

#MNEM.UNIT       Data Type    Information                                       

#---------    -------------   ------------------------------                    

 STRT.M           2170.000:                                                     

 STOP.M           2381.000:                                                     

 STEP.M               1.250:                                                     

 NULL.            -999.000:                                                     

 CN  .             COMPANY:   ZZPNiG ZIELONA GORA                               

 WN  .                WELL:   K O S C I A N - 6                                 

 FN  .               FIELD:   MONOKLINA PRZEDSUDECKA                            

 DATE.                DATE:   95-05-16                                          

 FL  .     LOCATION LINE 1:   SIERAKOW                                          

 LONG.           LONGITUDE:                            .0000                    

 LATI.            LATITUDE:                            .0000                    

 PD  .     PERMANENT DATUM:   POZIOM MORZA                                      

 LMF .       LOG MEAS FROM:   POW. TERENU                                       

 FAPD.      ABOVE PERM DAT:                            .0000                    

 DMF .     DRLNG MEAS FROM:   POW. TERENU                                       

 EPD .          ELEV. P.D.:                          79.0000                    

 EKB .          ELEV. K.B.:                          84.0000                    

 EDF .          ELEV. D.F.:                          84.0000                    

 EGL .          ELEV. G.L.:                          79.0000                    

 DFT .      DR. FLUID TYPE:   SOLNO-SKROB.                                      

 MSS .     MUD SAMPLE SRC.:   OBIEG                                             

 MFSS.      MUD FILT. SRC.:   WYKRES                                            

 MCSS.     MUD CAKE SOURCE:   WYKRES                                            

 TCS .     TIME SINCE CIRC:                                0                    

 TLAB.     TIME LOG ON BTM:                                0                    

 LUN .     LOG UNIT NUMBER:   1A/Kw                                             

 LUL .       LOG UNIT LOC.:   BGW KRAKOW                                        

 ENGI.         RECORDED BY:   J. DUBIS                                          

 WITN.        WITNESSED BY:   K. KRAWIEC                                        

~Parameter Information Block                                                    

#MNEM.UNIT        Value       Description                                       

#---------    -------------   ------------------------------                    

 RUN .               .0000:                           RUN NUMBER                

 DD  .           2381.0000:                      DEPTH - DRILLER                

 DL  .           2379.0000:                       DEPTH - LOGGER                

 BLI .           2379.0000:                  BOTTOM LOG INTERVAL                

 TLI .           2015.0000:                     TOP LOG INTERVAL                

 CS  .              9.6250:                      CASING DIAMETER                

 CSD .           2002.0000:               CASING DEPTH - DRILLER                

 BS  .              8.5000:                             BIT SIZE                

 DFD .              1.3600:               DRILLING FLUID DENSITY                

 DFV .             39.0000:             DRILLING FLUID VISCOSITY                

 DFPH.              9.8000:                    DRILLING FLUID PH                

 DFL .              3.5000:                  DRILLING FLUID LOSS                

 RMS .               .0640:                      MUD RESISTIVITY                

 MST .             16.0000:                 MUD RESISTIVITY TEMP                

 RMF .               .0350:             MUD FILTRATE RESISTIVITY                

 MFST.             16.0000:        MUD FILTRATE RESISTIVITY TEMP                

 RMC .               .1250:                 MUD CAKE RESISTIVITY                

 MCST.             16.0000:            MUD CAKE RESISTIVITY TEMP                

 RMB .               .0160:          BOTTOM HOLE MUD RESISTIVITY                

 BHT .             86.0000:                     BOTTOM HOLE TEMP                

~Curve Information Block                                                        

#MNEM.UNIT     API CODE       Curve Description                                 

#---------    -------------   ------------------------------                    

 DEPT.M                   :                                                     

 TENS.lbs      0   0  0  0:                                                     

 CALM.mm       0   0  0  0:                                                     

 DPHI.ls       0   0  0  0:                                                     

 RHOB.gm/c     0   0  0  0:                                                     

 DRHO.gm/c     0   0  0  0:                                                     

 NPHI.ls       0   0  0  0:                                                     

 NPHS.ss       0   0  0  0:                                                     

 NPHD.dol      0   0  0  0:                                                     

 GR  .API      0   0  0  0:                                                     

 DTM .us/m     0   0  0  0:                                                     

 SPHI.ls       0   0  0  0:                                                     

 ITT .ms       0   0  0  0:                                                     

~A  DEPT        TENS       CALM       DPHI       RHOB       DRHO       NPHI       NPHS       NPHD       GR         DTM        SPHI       ITT   
# ...
 2268.0000  2465.3149   222.8676    -7.3918     2.8261      .0221     1.8240     5.2444      .0064    22.7511   164.5968     3.6444      .0000 
 2268.2500  2494.8999   221.5570      .8930     2.6960      .0147     3.6112     7.2394      .6710    19.8683   178.4597     8.6824      .0000 
 2268.5000  2505.8799   220.8631     4.8695     2.6335      .0141     5.1803     8.9745     1.3746    21.7580   189.0466    12.0323      .0000 
 2268.7500  2450.9800   219.5524    11.6018     2.5279      .0112     8.1990    12.2693     3.0257    25.3727   208.4274    17.2830      .0000 
 2269.0000  2517.1650   218.5887    15.5498     2.4659      .0108    10.1138    14.3296     4.2631    29.7833   218.7053    19.6899      .0000 
 2269.2500  2486.6650   218.2803    16.2802     2.4544      .0116    10.6502    14.9026     4.6347    31.3358   220.6665    20.1237      .0000 
 2269.5000  2466.8398   218.0490    16.2665     2.4546      .0147    10.9804    15.2544     4.8687    31.1957   220.7407    20.1399      .0000 
 2269.7500  2419.2600   218.0490    16.1696     2.4561      .0145    10.9461    15.2180     4.8443    30.4208   220.6516    20.1204      .0000 
 2270.0000  2434.5100   217.9718    16.1591     2.4563      .0149    10.6957    14.9512     4.6667    30.1670   221.1490    20.2292      .0000 
 2270.2500  2461.9600   218.2031    16.3531     2.4533      .0124    10.5687    14.8157     4.5776    30.9664   220.2953    20.0422      .0000 
 2270.5000  2461.3499   218.2802    16.2349     2.4551      .0119    10.4833    14.7245     4.5179    31.2958   220.0634    19.9911      .0000 
 2270.7500  2465.3149   218.5501    15.7078     2.4634      .0112    10.2446    14.4694     4.3527    31.9055   220.7457    20.1410     2.0000 
 2271.0000  2382.3550   218.5501    15.8212     2.4616      .0104    10.1936    14.4149     4.3177    32.7182   219.2701    19.8156      .0000 
 2271.2500  2544.0049   218.5886    16.1699     2.4561      .0091    10.4341    14.6719     4.4837    30.7882   219.1525    19.7895      .0000 
 2271.5000  2410.7200   218.7814    16.7437     2.4471      .0089    11.4348    15.7376     5.1973    27.8245   221.6484    20.3380      .0000 
 2271.7500  2480.8699   218.9742    16.3345     2.4535      .0117    12.5573    16.9254     6.0404    28.4634   225.8654    21.2372      .0000 
 2272.0000  2451.8950   219.0127    15.9423     2.4597      .0132    12.7950    17.1759     6.2245    29.0266   228.2033    21.7214      .0000 
 2272.2500  2373.2048   219.7451    15.1574     2.4720      .0135    12.2296    16.5795     5.7897    28.7492   232.9595    22.6764      .0000 
 2272.5000  2571.4548   221.8654    14.1958     2.4871      .0155    11.4126    15.7140     5.1811    31.0517   223.8045    20.8020      .0000 
 2272.7500  2500.0850   222.0196    13.7313     2.4944      .0173    10.8738    15.1410     4.7928    31.5942   215.0700    18.8648      .0000 
 2273.0000  2457.0798   221.5184    15.1880     2.4715      .0138     9.4627    13.6316     3.8265    30.2824   205.6209    16.5839      .0000 
 2273.2500  2332.9448   220.7474    16.8573     2.4453      .0080     8.9897    13.1228     3.5194    28.9870   205.2960    16.5017      .0000 
 2273.5000  2572.9800   219.8607    19.5381     2.4033     -.0020     8.7620    12.8775     3.3747    27.5636   203.7094    16.0968      .0000 
 2273.7500  2487.8850   219.9379    17.2805     2.4387      .0038     8.5028    12.5977     3.2124    24.7627   202.3570    15.7465      .0000 
 2274.0000  2486.9700   219.9379    15.5504     2.4659      .0094     8.1653    12.2328     3.0051    24.2153   202.8517    15.8752      .0000 
 2274.2500  2540.0400   219.8607    15.7284     2.4631      .0094     7.6567    11.6816     2.7013    24.1329   203.1900    15.9628      .0000 
 2274.5000  2515.3350   219.8222    20.5423     2.3875     -.0022     9.2107    13.3608     3.6618    25.7674   215.6164    18.9906      .0000 
 2274.7500  2469.8899   219.7837    22.4323     2.3578     -.0062    10.6178    14.8680     4.6120    27.8195   230.9443    22.2766      .0000 
 2275.0000  2523.2649   219.8607    21.8876     2.3664     -.0015    12.5413    16.9085     6.0280    30.6632   243.0913    24.5863      .0000 
 2275.2500  2422.3101   220.0535    19.8304     2.3987      .0029    13.4520    17.8665     6.7435    31.2836   241.7258    24.3382     1.0000 
 2275.5000  2428.7148   220.1306    19.4384     2.4048      .0019    13.9044    18.3405     7.1092    31.6118   244.0190    24.7533      .0000 
 2275.7500  2421.3950   220.2077    18.7286     2.4160     -.0014    14.5494    19.0140     7.6422    30.1796   249.1688    25.6574      .0000 
 2276.0000  2459.2148   220.2463    17.2168     2.4397      .0009    14.4974    18.9598     7.5987    27.2346   244.9636    24.9220      .0000 
 2276.2500  2444.8799   220.4005    12.5448     2.5130      .0140    13.4223    17.8353     6.7197    20.5767   230.5564    22.1988      .0000 
 2276.5000  2470.1948   220.5547    11.2129     2.5340      .0190    12.5075    16.8729     6.0020    20.3319   221.0685    20.2117      .0000 
 2276.7500  2393.0300   220.5932    12.4873     2.5139      .0161    12.4453    16.8072     5.9543    22.4138   220.0247    19.9826      .0000 
 2277.0000  2429.9351   220.5547    15.1724     2.4718      .0090    12.9334    17.3216     6.3326    24.0335   219.3573    19.8350      .0000 
 2277.2500  2453.4199   220.5547    14.4204     2.4836      .0114    12.8309    17.2137     6.2525    21.6583   216.7439    19.2482      .0000 
 2277.5000  2513.5049   220.5547    13.4468     2.4989      .0134    12.1060    16.4488     5.6961    20.9111   215.6497    18.9983      .0000 
 2277.7500  2423.8350   220.5547    12.4757     2.5141      .0139     9.7905    13.9833     4.0443    21.0820   214.2462    18.6740      .0000 
 2278.0000  2422.0049   220.6703    11.8853     2.5234      .0151     7.9062    11.9522     2.8491    25.2834   209.8544    17.6312      .0000 
 2278.2500  2483.6150   220.6703    11.4188     2.5307      .0168     7.2526    11.2425     2.4674    28.1579   206.3333    16.7631      .0000 
 2278.5000  2497.0349   220.5932    10.4661     2.5457      .0205     6.3801    10.2909     1.9853    32.2709   199.5615    15.0076      .0000 
 2278.7500  2464.7048   220.4390    10.5353     2.5446      .0203     6.1450    10.0336     1.8607    33.3095   197.6471    14.4894      .0000 
 2279.0000  2585.4849   220.0921    11.6774     2.5267      .0195     6.2960    10.1989     1.9404    32.9236   195.9816    14.0304      .0000 
 2279.2500  2474.4648   219.7066    14.5432     2.4817      .0154     7.7863    11.8222     2.7777    34.2341   202.9333    15.8963      .0000 
 2279.5000  2526.6199   219.5524    16.9619     2.4437      .0107     8.9958    13.1294     3.5233    36.2180   210.3906    17.7609      .0000 
 2279.7500  2497.6450   219.2440    23.1932     2.3459     -.0036    11.7395    16.0608     5.4218    40.5547   225.8602    21.2361      .0000 
 2280.0000  2495.8149   218.8970    27.6332     2.2762     -.0138    15.2691    19.7691     8.2526    43.2010   234.4001    22.9581      .0000 
 2280.2500  2429.0200   218.6657    28.2229     2.2669     -.0143    17.0928    21.5928     9.8702    43.7251   236.7870    23.4171      .0000 
 2280.5000  2439.6948   218.3573    26.8403     2.2886     -.0090    18.7511    23.2511    11.4246    40.2133   240.6495    24.1407      .0000 
 2280.7500  2498.2549   218.0875    25.9695     2.3023     -.0065    18.1409    22.6409    10.8437    33.1450   250.6027    25.9026      .0000 
 2281.0000  2391.5049   218.0875    25.6194     2.3078     -.0065    18.1431    22.6431    10.8458    33.6042   254.4565    26.5477      .0000 
 2281.2500  2434.8149   218.0875    23.0246     2.3485     -.0011    16.6187    21.1187     9.4402    40.7380   259.0535    27.2922      .0000 
 2281.5000  2451.8950   218.2802    17.7851     2.4308      .0145    13.0001    17.3918     6.3849    38.8168   255.9975    26.8002      .0000 
 2281.7500  2415.5999   218.2802    15.8201     2.4616      .0212    11.8586    16.1869     5.5104    34.6881   248.3635    25.5185      .0000 
