~Version Information                                                            

 VERS.                1.20:                                                     

 WRAP.                  NO:                                                     

~Well Information Block                                                         

#MNEM.UNIT       Data Type    Information                                       

#---------    -------------   ------------------------------                    

 STRT.M           2170.000:                                                     

 STOP.M           2381.000:                                                     

 STEP.M               1.250:                                                     

 NULL.            -999.000:                                                     

 CN  .             COMPANY:   ZZPNiG ZIELONA GORA                               

 WN  .                WELL:   K O S C I A N - 6                                 

 FN  .               FIELD:   MONOKLINA PRZEDSUDECKA                            

 DATE.                DATE:   95-05-16                                          

 FL  .     LOCATION LINE 1:   SIERAKOW                                          

 LONG.           LONGITUDE:                            .0000                    

 LATI.            LATITUDE:                            .0000                    

 PD  .     PERMANENT DATUM:   POZIOM MORZA                                      

 LMF .       LOG MEAS FROM:   POW. TERENU                                       

 FAPD.      ABOVE PERM DAT:                            .0000                    

 DMF .     DRLNG MEAS FROM:   POW. TERENU                                       

 EPD .          ELEV. P.D.:                          79.0000                    

 EKB .          ELEV. K.B.:                          84.0000                    

 EDF .          ELEV. D.F.:                          84.0000                    

 EGL .          ELEV. G.L.:                          79.0000                    

 DFT .      DR. FLUID TYPE:   SOLNO-SKROB.                                      

 MSS .     MUD SAMPLE SRC.:   OBIEG                                             

 MFSS.      MUD FILT. SRC.:   WYKRES                                            

 MCSS.     MUD CAKE SOURCE:   WYKRES                                            

 TCS .     TIME SINCE CIRC:                                0                    

 TLAB.     TIME LOG ON BTM:                                0                    

 LUN .     LOG UNIT NUMBER:   1A/Kw                                             

 LUL .       LOG UNIT LOC.:   BGW KRAKOW                                        

 ENGI.         RECORDED BY:   J. DUBIS                                          

 WITN.        WITNESSED BY:   K. KRAWIEC                                        

~Parameter Information Block                                                    

#MNEM.UNIT        Value       Description                                       

#---------    -------------   ------------------------------                    

 RUN .               .0000:                           RUN NUMBER                

 DD  .           2381.0000:                      DEPTH - DRILLER                

 DL  .           2379.0000:                       DEPTH - LOGGER                

 BLI .           2379.0000:                  BOTTOM LOG INTERVAL                

 TLI .           2015.0000:                     TOP LOG INTERVAL                

 CS  .              9.6250:                      CASING DIAMETER                

 CSD .           2002.0000:               CASING DEPTH - DRILLER                

 BS  .              8.5000:                             BIT SIZE                

 DFD .              1.3600:               DRILLING FLUID DENSITY                

 DFV .             39.0000:             DRILLING FLUID VISCOSITY                

 DFPH.              9.8000:                    DRILLING FLUID PH                

 DFL .              3.5000:                  DRILLING FLUID LOSS                

 RMS .               .0640:                      MUD RESISTIVITY                

 MST .             16.0000:                 MUD RESISTIVITY TEMP                

 RMF .               .0350:             MUD FILTRATE RESISTIVITY                

 MFST.             16.0000:        MUD FILTRATE RESISTIVITY TEMP                

 RMC .               .1250:                 MUD CAKE RESISTIVITY                

 MCST.             16.0000:            MUD CAKE RESISTIVITY TEMP                

 RMB .               .0160:          BOTTOM HOLE MUD RESISTIVITY                

 BHT .             86.0000:                     BOTTOM HOLE TEMP                

~Curve Information Block                                                        

#MNEM.UNIT     API CODE       Curve Description                                 

#---------    -------------   ------------------------------                    

 DEPT.M                   :                                                     

 TENS.lbs      0   0  0  0:                                                     

 CALM.mm       0   0  0  0:                                                     

 DPHI.ls       0   0  0  0:                                                     

 RHOB.gm/c     0   0  0  0:                                                     

 DRHO.gm/c     0   0  0  0:                                                     

 NPHI.ls       0   0  0  0:                                                     

 NPHS.ss       0   0  0  0:                                                     

 NPHD.dol      0   0  0  0:                                                     

 GR  .API      0   0  0  0:                                                     

 DTM .us/m     0   0  0  0:                                                     

 SPHI.ls       0   0  0  0:                                                     

 ITT .ms       0   0  0  0:                                                     

~A  DEPT        TENS       CALM       DPHI       RHOB       DRHO       NPHI       NPHS       NPHD       GR         DTM        SPHI       ITT   
 2170.0000  2339.6550   591.0152    41.6800     2.0556      .0280      .5603     3.8216     -.3721    10.6528   225.1190    21.0805      .0000 
 2170.2500  2360.3950   588.5095    41.3705     2.0605      .0287      .6783     3.9549     -.3401    11.1663   224.7359    20.9997      .0000 
 2170.5000  2334.7749   582.3417    40.8053     2.0694      .0296     1.0926     4.4221     -.2221    11.6343   224.7762    21.0082      .0000 
 2170.7500  2313.4250   576.5977    40.6606     2.0716      .0297     1.5050     4.8862     -.0965    12.4226   225.3493    21.1289      .0000 
 2171.0000  2415.2949   574.7860    40.7698     2.0699      .0296     1.6398     5.0376     -.0536    12.4285   225.0988    21.0762      .0000 
 2171.2500  2366.8000   572.2032    41.0224     2.0659      .0308     1.8435     5.2662      .0128    11.0643   224.6064    20.9723      .0000 
 2171.5000  2378.6948   570.6613    41.0400     2.0657      .0321     1.9600     5.3969      .0517    10.2530   225.2587    21.1099      .0000 
 2171.7500  2411.0249   566.2666    41.3477     2.0608      .0339     2.4507     5.9462      .2224    10.2400   225.9545    21.2558      .0000 
 2172.0000  2417.1250   561.8335    42.2744     2.0463      .0325     2.7390     6.2682      .3281    11.1581   226.3327    21.3348      .0000 
 2172.2500  2328.3699   558.9037    42.7061     2.0395      .0325     2.5467     6.0535      .2572    11.2871   226.7442    21.4204      .0000 
 2172.5000  2344.5349   552.8514    42.9694     2.0354      .0336     2.2278     5.6969      .1435    10.9459   226.7948    21.4309      .0000 
 2172.7500  2344.5349   547.4930    42.8392     2.0374      .0348     2.2133     5.6806      .1384    10.2601   228.1647    21.7135      .0000 
 2173.0000  2348.8049   544.3704    42.9361     2.0359      .0338     2.1375     5.5958      .1121    10.5683   229.2419    21.9333      .0000 
 2173.2500  2307.9351   537.7399    43.1275     2.0329      .0315     2.0288     5.4739      .0749    10.6373   228.8856    21.8608      .0000 
 2173.5000  2346.3650   534.6559    42.6521     2.0404      .0328     2.6014     6.1146      .2772    11.3152   226.5880    21.3879      .0000 
 2173.7500  2367.7148   535.3499    41.9844     2.0508      .0389     3.2682     6.8581      .5320    12.3001   225.3898    21.1375      .0000 
 2174.0000  2345.7549   543.1368    42.0497     2.0498      .0452     6.3000    10.2033     1.9426    12.0261   225.0032    21.0561      .0000 
 2174.2500  2392.7249   549.7288    44.2742     2.0149      .0356     8.0774    12.1376     2.9519    10.8602   229.0392    21.8921      .0000 
 2174.5000  2433.5950   531.9575    48.8256     1.9434     -.0017    12.4071    16.7669     5.9250     9.5721   234.3294    22.9443      .0000 
 2174.7500  2344.2300   475.0198    42.9061     2.0364     -.0297    15.4594    19.9594     8.4167    10.3735   211.3316    17.9868      .0000 
 2175.0000  2395.7749   441.3661    30.1999     2.2359     -.0174    14.4918    18.9539     7.5940    11.1499   192.3585    13.0045      .0000 
 2175.2500  2411.0249   401.7372     4.0893     2.6458      .0001     9.7641    13.9550     4.0266    14.0405   173.7222     7.0511      .0000 
 2175.5000  2412.8550   393.9502   -13.3862     2.9202      .0088     5.6852     9.5296     1.6241    15.6812   175.7989     7.7770      .0000 
 2175.7500  2380.8298   390.1723   -14.6994     2.9408     -.0008     4.2776     7.9783      .9565    15.5380   176.3467     7.9657      .0000 
 2176.0000  2398.5200   383.2719   -16.7328     2.9727     -.0032     2.8169     6.3552      .3573    13.8541   176.5351     8.0302      .0000 
 2176.2500  2409.8049   377.1040   -18.6059     3.0021     -.0049     2.5710     6.0806      .2660    11.6070   177.6057     8.3948      .0000 
 2176.5000  2421.3950   373.8273   -19.5058     3.0162     -.0047     2.5402     6.0463      .2548    10.3816   178.2847     8.6237      .0000 
 2176.7500  2395.4700   367.7751   -20.0930     3.0255     -.0057     2.2350     5.7050      .1460     9.6481   178.9536     8.8475      .0000 
 2177.0000  2389.0649   361.9155   -19.6956     3.0192     -.0054     1.9123     5.3433      .0357     9.5089   178.2175     8.6011      .0000 
 2177.2500  2431.4600   359.3713   -19.3547     3.0139     -.0044     1.7474     5.1584     -.0188     9.5859   177.7116     8.4306      .0000 
 2177.5000  2429.9351   354.0129   -18.4054     2.9990     -.0020     1.2534     4.6031     -.1741     9.7445   176.2224     7.9229      .0000 
 2177.7500  2392.1150   351.0831   -17.7432     2.9886     -.0017      .9576     4.2699     -.2615     9.5393   175.5435     7.6887     1.0000 
 2178.0000  2394.5549   345.8018   -16.0523     2.9620     -.0032      .5438     3.8029     -.3766     8.4783   173.7552     7.0628      .0000 
 2178.2500  2403.0950   340.9060   -15.1940     2.9485     -.0054      .3462     3.5795     -.4285     8.1954   172.7451     6.7035      .0000 
 2178.5000  2418.9548   338.7472   -15.0117     2.9457     -.0071      .2601     3.4821     -.4506     8.1959   172.5819     6.6451      .0000 
 2178.7500  2428.4099   334.0442   -15.3484     2.9510     -.0103      .1223     3.3261     -.4851     8.1885   173.2542     6.8851      .0000 
 2179.0000  2420.1750   329.6496   -16.7013     2.9722     -.0101      .0392     3.2320     -.5054     8.7005   173.6139     7.0128      .0000 
 2179.2500  2408.8899   327.4908   -17.6421     2.9870     -.0079      .0115     3.2005     -.5121     8.9028   173.3584     6.9222      .0000 
 2179.5000  2417.7349   323.7129   -19.0459     3.0090     -.0022     -.0217     3.1629     -.5201     8.4028   173.0829     6.8241      .0000 
 2179.7500  2414.6851   320.0121   -18.3317     2.9978      .0011     -.0216     3.1630     -.5201     7.3666   173.6325     7.0194      .0000 
 2180.0000  2419.5649   318.2389   -17.6000     2.9863      .0020     -.0249     3.1593     -.5209     7.1309   173.7383     7.0568      .0000 
 2180.2500  2420.1750   314.6538   -16.0394     2.9618      .0024     -.0789     3.0981     -.5338     7.0623   173.0878     6.8259      .0000 
 2180.5000  2409.1948   312.8034   -15.8423     2.9587      .0033     -.1000     3.0742     -.5387     7.3144   172.6424     6.6668      .0000 
 2180.7500  2408.5850   309.5267   -15.9772     2.9608      .0054     -.0905     3.0850     -.5365     7.4618   171.6744     6.3181      .0000 
 2181.0000  2403.7048   306.4813   -16.1363     2.9633      .0053     -.1127     3.0597     -.5417     7.0635   171.2760     6.1735      .0000 
 2181.2500  2427.8000   304.9778   -16.1482     2.9635      .0053     -.1399     3.0289     -.5481     6.7965   171.0877     6.1049      .0000 
 2181.5000  2416.5149   301.9325   -16.0772     2.9624      .0052     -.1581     3.0082     -.5524     6.2349   170.8356     6.0128      .0000 
 2181.7500  2412.8550   298.9256   -15.9237     2.9600      .0061     -.1234     3.0476     -.5442     6.5907   170.5180     5.8964      .0000 
 2182.0000  2422.9199   297.5378   -15.7855     2.9578      .0064     -.1012     3.0728     -.5390     6.5922   170.5802     5.9193      .0000 
 2182.2500  2425.0549   294.8779   -15.2731     2.9498      .0070     -.0668     3.1118     -.5309     6.4186   174.3817     7.2835      .0000 
 2182.5000  2421.7000   292.2951   -15.4084     2.9519      .0102     -.0373     3.1453     -.5238     6.6294   174.9044     7.4665      .0000 
 2182.7500  2399.4351   290.9844   -15.4643     2.9528      .0121     -.0087     3.1777     -.5170     6.9362   173.3654     6.9247      .0000 
 2183.0000  2404.3149   288.5172   -15.5909     2.9548      .0150      .0222     3.2127     -.5095     6.7339   171.5046     6.2566      .0000 
 2183.2500  2429.3250   287.2836   -15.5262     2.9538      .0160      .0082     3.1968     -.5129     6.5891   171.4239     6.2273      .0000 
 2183.5000  2418.9548   284.9706   -15.9229     2.9600      .0189     -.0237     3.1606     -.5206     7.6456   171.8222     6.3716     1.0000 
 2183.7500  2434.2048   282.6191   -16.4267     2.9679      .0214      .0055     3.1937     -.5136     8.1892   173.9722     7.1394      .0000 
