~Version Information                                                            

 VERS.                1.20:                                                     

 WRAP.                  NO:                                                     

~Well Information Block                                                         

#MNEM.UNIT       Data Type    Information                                       

#---------    -------------   ------------------------------                    

 STRT.M           2170.000:                                                     

 STOP.M           2381.000:                                                     

 STEP.M               1.250:                                                     

 NULL.            -999.000:                                                     

 CN  .             COMPANY:   ZZPNiG ZIELONA GORA                               

 WN  .                WELL:   K O S C I A N - 6                                 

 FN  .               FIELD:   MONOKLINA PRZEDSUDECKA                            

 DATE.                DATE:   95-05-16                                          

 FL  .     LOCATION LINE 1:   SIERAKOW                                          

 LONG.           LONGITUDE:                            .0000                    

 LATI.            LATITUDE:                            .0000                    

 PD  .     PERMANENT DATUM:   POZIOM MORZA                                      

 LMF .       LOG MEAS FROM:   POW. TERENU                                       

 FAPD.      ABOVE PERM DAT:                            .0000                    

 DMF .     DRLNG MEAS FROM:   POW. TERENU                                       

 EPD .          ELEV. P.D.:                          79.0000                    

 EKB .          ELEV. K.B.:                          84.0000                    

 EDF .          ELEV. D.F.:                          84.0000                    

 EGL .          ELEV. G.L.:                          79.0000                    

 DFT .      DR. FLUID TYPE:   SOLNO-SKROB.                                      

 MSS .     MUD SAMPLE SRC.:   OBIEG                                             

 MFSS.      MUD FILT. SRC.:   WYKRES                                            

 MCSS.     MUD CAKE SOURCE:   WYKRES                                            

 TCS .     TIME SINCE CIRC:                                0                    

 TLAB.     TIME LOG ON BTM:                                0                    

 LUN .     LOG UNIT NUMBER:   1A/Kw                                             

 LUL .       LOG UNIT LOC.:   BGW KRAKOW                                        

 ENGI.         RECORDED BY:   J. DUBIS                                          

 WITN.        WITNESSED BY:   K. KRAWIEC                                        

~Parameter Information Block                                                    

#MNEM.UNIT        Value       Description                                       

#---------    -------------   ------------------------------                    

 RUN .               .0000:                           RUN NUMBER                

 DD  .           2381.0000:                      DEPTH - DRILLER                

 DL  .           2379.0000:                       DEPTH - LOGGER                

 BLI .           2379.0000:                  BOTTOM LOG INTERVAL                

 TLI .           2015.0000:                     TOP LOG INTERVAL                

 CS  .              9.6250:                      CASING DIAMETER                

 CSD .           2002.0000:               CASING DEPTH - DRILLER                

 BS  .              8.5000:                             BIT SIZE                

 DFD .              1.3600:               DRILLING FLUID DENSITY                

 DFV .             39.0000:             DRILLING FLUID VISCOSITY                

 DFPH.              9.8000:                    DRILLING FLUID PH                

 DFL .              3.5000:                  DRILLING FLUID LOSS                

 RMS .               .0640:                      MUD RESISTIVITY                

 MST .             16.0000:                 MUD RESISTIVITY TEMP                

 RMF .               .0350:             MUD FILTRATE RESISTIVITY                

 MFST.             16.0000:        MUD FILTRATE RESISTIVITY TEMP                

 RMC .               .1250:                 MUD CAKE RESISTIVITY                

 MCST.             16.0000:            MUD CAKE RESISTIVITY TEMP                

 RMB .               .0160:          BOTTOM HOLE MUD RESISTIVITY                

 BHT .             86.0000:                     BOTTOM HOLE TEMP                

~Curve Information Block                                                        

#MNEM.UNIT     API CODE       Curve Description                                 

#---------    -------------   ------------------------------                    

 DEPT.M                   :                                                     

 TENS.lbs      0   0  0  0:                                                     

 CALM.mm       0   0  0  0:                                                     

 DPHI.ls       0   0  0  0:                                                     

 RHOB.gm/c     0   0  0  0:                                                     

 DRHO.gm/c     0   0  0  0:                                                     

 NPHI.ls       0   0  0  0:                                                     

 NPHS.ss       0   0  0  0:                                                     

 NPHD.dol      0   0  0  0:                                                     

 GR  .API      0   0  0  0:                                                     

 DTM .us/m     0   0  0  0:                                                     

 SPHI.ls       0   0  0  0:                                                     

 ITT .ms       0   0  0  0:                                                     

~A  DEPT        TENS       CALM       DPHI       RHOB       DRHO       NPHI       NPHS       NPHD       GR         DTM        SPHI       ITT   
# ...
 2310.0000  2576.9448   226.7995     1.4517     2.6872      .0449     6.3785    10.2891     1.9844    49.5638   183.8448    10.4346      .0000 
 2310.2500  2564.1350   228.2259     -.1534     2.7124      .0544    10.0516    14.2630     4.2207    65.1135   192.1561    12.9460     1.0000 
 2310.5000  2558.3398   229.3053    -1.5211     2.7339      .0630    13.4384    17.8522     6.7325    92.3796   200.6772    15.3050      .0000 
 2310.7500  2580.3000   229.8450    -1.1255     2.7277      .0609    13.6718    18.0970     6.9203    97.1078   199.4385    14.9746      .0000 
 2311.0000  2584.2649   230.8087      .6256     2.7002      .0522    11.4062    15.7072     5.1764    76.0197   189.3645    12.1271      .0000 
 2311.2500  2616.8999   232.6205      .4473     2.7030      .0528    10.1396    14.3572     4.2807    62.8414   189.1595    12.0660      .0000 
 2311.5000  2545.8350   233.5071    -1.0271     2.7261      .0667    10.6311    14.8822     4.6213    71.0900   194.2485    13.5444      .0000 
 2311.7500  2556.8149   235.2033    -1.7579     2.7376      .0828    11.9224    16.2545     5.5580    88.8179   200.1511    15.1651      .0000 
 2312.0000  2573.2849   236.0514     -.2587     2.7141      .0834    11.3204    15.6160     5.1139    85.8563   197.9310    14.5669      .0000 
 2312.2500  2593.4150   238.3258     3.8229     2.6500      .0699     9.5960    13.7747     3.9145    63.3204   190.5444    12.4762      .0000 
 2312.5000  2605.9199   241.2941     3.4516     2.6558      .0701    11.3706    15.6693     5.1504    60.9734   190.9174    12.5856      .0000 
 2312.7500  2569.0149   242.9132     1.8972     2.6802      .0701    13.5020    17.9189     6.7835    68.0205   193.6132    13.3641      .0000 
 2313.0000  2578.1650   245.8815    -1.8321     2.7388      .0807    16.4637    20.9637     9.3010    80.2945   200.2169    15.1827      .0000 
 2313.2500  2602.2600   248.4258    -1.1528     2.7281      .0793    15.9522    20.4522     8.8468    86.1483   204.2472    16.2347      .0000 
 2313.5000  2618.7300   249.6594      .1265     2.7080      .0828    14.3788    18.8361     7.4999    87.2910   202.5817    15.8050      .0000 
 2313.7500  2577.5549   252.3579     4.5021     2.6393      .0765    10.9745    15.2482     4.8646    72.3207   192.2352    12.9689      .0000 
 2314.0000  2591.5850   253.9770     5.3781     2.6256      .0817    10.2642    14.4904     4.3662    52.6611   187.8268    11.6655      .0000 
 2314.2500  2606.5300   254.6709     4.5125     2.6392      .0861    10.7342    14.9921     4.6938    52.2573   190.5408    12.4751      .0000 
 2314.5000  2666.0049   255.1720     2.4599     2.6714      .0861    11.3741    15.6731     5.1530    70.5432   196.8468    14.2698      .0000 
 2314.7500  2626.3550   255.8659     2.3210     2.6736      .0784    10.8908    15.1591     4.8049    73.4909   195.9158    14.0121      .0000 
 2315.0000  2612.3250   256.9067     2.4739     2.6712      .0632     9.8456    14.0423     4.0813    59.6695   189.2888    12.1045      .0000 
 2315.2500  2624.2200   257.9090     1.8975     2.6802      .0498    11.0049    15.2805     4.8863    56.3718   187.4433    11.5493      .0000 
 2315.5000  2561.0850   258.2945      .9784     2.6946      .0453    12.6167    16.9880     6.0862    62.5590   189.7156    12.2314     2.0000 
 2315.7500  2607.1399   258.8342    -1.7334     2.7372      .0414    16.6050    21.1050     9.4279    79.4362   197.2908    14.3919      .0000 
 2316.0000  2616.5950   259.0655    -4.1992     2.7759      .0376    19.6807    24.1807    12.3284    94.5774   204.6390    16.3348      .0000 
 2316.2500  2610.4949   258.9113    -4.8804     2.7866      .0342    20.3507    24.8507    12.9936   101.4275   206.4895    16.8023      .0000 
 2316.5000  2583.0449   258.2174    -5.0323     2.7890      .0271    19.7984    24.2984    12.4444   108.2406   206.9249    16.9111      .0000 
 2316.7500  2561.0850   257.2151    -4.3675     2.7786      .0275    16.9863    21.4863     9.7731   103.6047   204.9532    16.4148      .0000 
 2317.0000  2579.0798   256.7140    -3.7956     2.7696      .0284    15.2979    19.7979     8.2773    98.1254   202.1363    15.6889      .0000 
 2317.2500  2574.5049   255.5190    -1.4212     2.7323      .0260    11.6120    15.9256     5.3274    83.3464   193.5646    13.3503      .0000 
 2317.5000  2574.2000   254.4010     1.2859     2.6898      .0240     7.8110    11.8490     2.7924    59.8402   186.6231    11.2990      .0000 
 2317.7500  2547.0549   253.8999     2.3422     2.6732      .0239     6.4035    10.3164     1.9977    49.4480   185.0078    10.7995      .0000 
 2318.0000  2559.2549   253.0133     3.0237     2.6625      .0269     4.9923     8.7675     1.2846    44.7123   184.3153    10.5828      .0000 
 2318.2500  2553.7649   252.5892     3.1486     2.6606      .0270     4.7502     8.5004     1.1709    47.9266   184.8599    10.7534      .0000 
 2318.5000  2556.2048   251.4713     3.1106     2.6612      .0263     4.5030     8.2275     1.0575    51.2415   186.7137    11.3267      .0000 
 2318.7500  2570.2349   250.5461     3.0880     2.6615      .0224     4.1613     7.8495      .9052    48.5253   187.3490    11.5206      .0000 
 2319.0000  2587.9250   250.0449     2.8023     2.6660      .0213     4.1080     7.7904      .8819    48.9677   186.5053    11.2628      .0000 
 2319.2500  2586.7048   249.2354     2.4190     2.6720      .0197     4.4382     8.1559     1.0282    52.0089   183.7456    10.4032      .0000 
 2319.5000  2581.2148   248.6186     2.7345     2.6671      .0209     4.6951     8.4397     1.1454    51.4457   183.1960    10.2289      .0000 
 2319.7500  2561.0850   248.4259     3.3335     2.6577      .0202     4.7906     8.5450     1.1897    51.9014   184.2296    10.5558      .0000 
 2320.0000  2559.5598   247.8862     4.0295     2.6467      .0192     5.7141     9.5613     1.6387    52.8778   188.2079    11.7806      .0000 
 2320.2500  2565.0500   247.3079     2.8240     2.6657      .0220     8.2392    12.3128     3.0502    52.5143   191.9106    12.8750      .0000 
 2320.5000  2559.8650   246.8068     1.6026     2.6848      .0261     9.8563    14.0539     4.0885    57.9423   193.1712    13.2380      .0000 
 2320.7500  2587.9250   245.8816      .0989     2.7084      .0307    11.8357    16.1627     5.4933    75.6314   193.6973    13.3881      .0000 
 2321.0000  2585.4849   245.3805      .1912     2.7070      .0313    11.3849    15.6845     5.1608    79.7355   193.0249    13.1961      .0000 
 2321.2500  2594.9399   244.0698     1.7079     2.6832      .0296     8.1575    12.2243     3.0004    68.3166   190.6315    12.5017      .0000 
 2321.5000  2593.1099   242.7591     3.5390     2.6544      .0285     4.9948     8.7702     1.2858    52.2650   186.3120    11.2035      .0000 
 2321.7500  2595.8550   242.1038     4.0294     2.6467      .0289     4.1047     7.7868      .8805    47.9100   184.6230    10.6793      .0000 
 2322.0000  2583.6550   241.1015     3.6135     2.6533      .0363     3.9892     7.6588      .8305    45.3464   183.6228    10.3643      .0000 
 2322.2500  2584.2649   240.2919     2.2843     2.6741      .0448     5.9021     9.7675     1.7346    49.8928   185.6146    10.9882      .0000 
 2322.5000  2566.5750   241.2557     1.4462     2.6873      .0485     7.4278    11.4330     2.5680    55.0066   188.2635    11.7974      .0000 
 2322.7500  2590.9749   243.2217     -.0751     2.7112      .0508    10.9493    15.2214     4.8465    69.2185   196.2621    14.1083      .0000 
 2323.0000  2606.8350   243.0290     -.7288     2.7214      .0457    13.4114    17.8239     6.7110    77.4123   200.1445    15.1634      .0000 
 2323.2500  2620.2549   240.9473     -.4901     2.7177      .0406    13.2960    17.7027     6.6189    78.0303   198.9984    14.8562      .0000 
 2323.5000  2612.3250   236.5141      .6326     2.7001      .0296    11.2877    15.5814     5.0902    76.1431   195.0571    13.7723      .0000 
 2323.7500  2629.4050   234.8565     1.1057     2.6926      .0267     9.8643    14.0624     4.0939    75.7235   194.0350    13.4840      .0000 
