~Version Information                                                            

 VERS.                1.20:                                                     

 WRAP.                  NO:                                                     

~Well Information Block                                                         

#MNEM.UNIT       Data Type    Information                                       

#---------    -------------   ------------------------------                    

 STRT.M           2170.000:                                                     

 STOP.M           2381.000:                                                     

 STEP.M               1.250:                                                     

 NULL.            -999.000:                                                     

 CN  .             COMPANY:   ZZPNiG ZIELONA GORA                               

 WN  .                WELL:   K O S C I A N - 6                                 

 FN  .               FIELD:   MONOKLINA PRZEDSUDECKA                            

 DATE.                DATE:   95-05-16                                          

 FL  .     LOCATION LINE 1:   SIERAKOW                                          

 LONG.           LONGITUDE:                            .0000                    

 LATI.            LATITUDE:                            .0000                    

 PD  .     PERMANENT DATUM:   POZIOM MORZA                                      

 LMF .       LOG MEAS FROM:   POW. TERENU                                       

 FAPD.      ABOVE PERM DAT:                            .0000                    

 DMF .     DRLNG MEAS FROM:   POW. TERENU                                       

 EPD .          ELEV. P.D.:                          79.0000                    

 EKB .          ELEV. K.B.:                          84.0000                    

 EDF .          ELEV. D.F.:                          84.0000                    

 EGL .          ELEV. G.L.:                          79.0000                    

 DFT .      DR. FLUID TYPE:   SOLNO-SKROB.                                      

 MSS .     MUD SAMPLE SRC.:   OBIEG                                             

 MFSS.      MUD FILT. SRC.:   WYKRES                                            

 MCSS.     MUD CAKE SOURCE:   WYKRES                                            

 TCS .     TIME SINCE CIRC:                                0                    

 TLAB.     TIME LOG ON BTM:                                0                    

 LUN .     LOG UNIT NUMBER:   1A/Kw                                             

 LUL .       LOG UNIT LOC.:   BGW KRAKOW                                        

 ENGI.         RECORDED BY:   J. DUBIS                                          

 WITN.        WITNESSED BY:   K. KRAWIEC                                        

~Parameter Information Block                                                    

#MNEM.UNIT        Value       Description                                       

#---------    -------------   ------------------------------                    

 RUN .               .0000:                           RUN NUMBER                

 DD  .           2381.0000:                      DEPTH - DRILLER                

 DL  .           2379.0000:                       DEPTH - LOGGER                

 BLI .           2379.0000:                  BOTTOM LOG INTERVAL                

 TLI .           2015.0000:                     TOP LOG INTERVAL                

 CS  .              9.6250:                      CASING DIAMETER                

 CSD .           2002.0000:               CASING DEPTH - DRILLER                

 BS  .              8.5000:                             BIT SIZE                

 DFD .              1.3600:               DRILLING FLUID DENSITY                

 DFV .             39.0000:             DRILLING FLUID VISCOSITY                

 DFPH.              9.8000:                    DRILLING FLUID PH                

 DFL .              3.5000:                  DRILLING FLUID LOSS                

 RMS .               .0640:                      MUD RESISTIVITY                

 MST .             16.0000:                 MUD RESISTIVITY TEMP                

 RMF .               .0350:             MUD FILTRATE RESISTIVITY                

 MFST.             16.0000:        MUD FILTRATE RESISTIVITY TEMP                

 RMC .               .1250:                 MUD CAKE RESISTIVITY                

 MCST.             16.0000:            MUD CAKE RESISTIVITY TEMP                

 RMB .               .0160:          BOTTOM HOLE MUD RESISTIVITY                

 BHT .             86.0000:                     BOTTOM HOLE TEMP                

~Curve Information Block                                                        

#MNEM.UNIT     API CODE       Curve Description                                 

#---------    -------------   ------------------------------                    

 DEPT.M                   :                                                     

 TENS.lbs      0   0  0  0:                                                     

 CALM.mm       0   0  0  0:                                                     

 DPHI.ls       0   0  0  0:                                                     

 RHOB.gm/c     0   0  0  0:                                                     

 DRHO.gm/c     0   0  0  0:                                                     

 NPHI.ls       0   0  0  0:                                                     

 NPHS.ss       0   0  0  0:                                                     

 NPHD.dol      0   0  0  0:                                                     

 GR  .API      0   0  0  0:                                                     

 DTM .us/m     0   0  0  0:                                                     

 SPHI.ls       0   0  0  0:                                                     

 ITT .ms       0   0  0  0:                                                     

~A  DEPT        TENS       CALM       DPHI       RHOB       DRHO       NPHI       NPHS       NPHD       GR         DTM        SPHI       ITT   
# ...
 2282.0000  2432.6799   218.3573    15.4964     2.4667      .0236    11.4007    15.7014     5.1724    32.0792   228.3434    21.7501      .0000 
 2282.2500  2445.7949   218.3188    17.0124     2.4429      .0190    11.6659    15.9827     5.3672    33.1382   224.5662    20.9638      .0000 
 2282.5000  2456.7749   218.8585    20.2415     2.3922      .0083    12.8115    17.1933     6.2374    38.2316   246.0681    25.1176      .0000 
 2282.7500  2407.3650   219.3982    22.1106     2.3629      .0022    14.7161    19.1876     7.7821    43.7299   303.8510    33.3675      .0000 
 2283.0000  2505.5750   219.4752    21.9900     2.3648      .0031    15.7614    20.2614     8.6793    45.2298   314.4995    34.5571      .0000 
 2283.2500  2415.2949   219.1668    22.5334     2.3562      .0026    17.1079    21.6079     9.8840    44.6269   270.9048    29.0949      .0000 
 2283.5000  2619.0349   218.8199    26.7456     2.2901     -.0058    17.2862    21.7862    10.0475    43.3479   242.0028    24.3888      .0000 
 2283.7500  2549.4949   218.8199    29.6953     2.2438     -.0119    17.4272    21.9272    10.1775    42.3820   247.3519    25.3427      .0000 
 2284.0000  2456.4700   218.8584    34.6841     2.1655     -.0225    17.7898    22.2898    10.5142    44.4311   263.6532    28.0111      .0000 
 2284.2500  2520.8250   218.8199    36.2124     2.1415     -.0286    18.6079    23.1079    11.2873    44.6272   295.4131    32.3641      .0000 
 2284.5000  2450.6750   218.8585    35.4124     2.1540     -.0283    19.7294    24.2294    12.3763    42.9884   302.5689    33.2187      .0000 
 2284.7500  2431.7649   218.8970    30.5842     2.2298     -.0158    21.3465    25.8465    14.0026    38.9474   283.4108    30.8337      .0000 
 2285.0000  2442.4399   218.9355    28.0722     2.2693     -.0081    21.1223    25.6223    13.7734    37.6226   275.4460    29.7446      .0000 
 2285.2500  2453.1150   219.1283    28.2483     2.2665     -.0128    20.4828    24.9828    13.1261    33.8076   278.5507    30.1765      .0000 
 2285.5000  2434.2048   219.3981    33.0108     2.1917     -.0350    21.1768    25.6768    13.8290    30.5521   251.9602    26.1321      .0000 
 2285.7500  2447.6250   219.6294    33.3039     2.1871     -.0408    20.8330    25.3330    13.4793    28.8291   230.4951    22.1865      .0000 
 2286.0000  2444.2700   219.9378    24.7084     2.3221     -.0235    17.8206    22.3206    10.5430    26.1279   200.7529    15.3250      .0000 
 2286.2500  2447.0149   220.1691    13.4179     2.4993      .0065    14.8326    19.3088     7.8804    21.1188   199.9847    15.1207      .0000 
 2286.5000  2428.1050   220.1691    11.0564     2.5364      .0161    14.3296    18.7847     7.4590    18.3706   203.6936    16.0927      .0000 
 2286.7500  2527.8398   220.2462    15.2507     2.4706      .0125    15.1370    19.6370     8.1393    15.9271   209.2724    17.4898      .0000 
 2287.0000  2485.4448   220.2848    22.1235     2.3627      .0009    17.0996    21.5996     9.8764    18.1234   206.0274    16.6863      .0000 
 2287.2500  2504.6599   220.2848    23.1767     2.3461     -.0014    17.6734    22.1734    10.4057    18.4099   204.7654    16.3670      .0000 
 2287.5000  2486.0549   220.1691    20.3694     2.3902      .0064    17.6049    22.1049    10.3421    18.7367   209.2528    17.4850      .0000 
 2287.7500  2496.4250   220.0920    18.5614     2.4186      .0093    17.2460    21.7460    10.0106    19.6757   211.2694    17.9719      .0000 
 2288.0000  2530.2800   219.9378    16.3241     2.4537      .0073    16.1672    20.6672     9.0368    20.0867   212.4561    18.2542     1.0000 
 2288.2500  2480.5649   219.8607    13.0185     2.5056      .0111    14.9081    19.3874     7.9444    18.3600   208.1196    17.2072      .0000 
 2288.5000  2504.6599   219.8222    10.0940     2.5515      .0192    14.4205    18.8795     7.5345    18.2510   203.4641    16.0336      .0000 
 2288.7500  2512.8950   219.5523     5.4581     2.6243      .0356    13.5984    18.0200     6.8610    19.6823   193.5883    13.3571      .0000 
 2289.0000  2488.4949   219.0898     7.4625     2.5928      .0325    14.5347    18.9986     7.6299    19.2546   200.6440    15.2962      .0000 
 2289.2500  2490.3250   218.9355     9.9064     2.5545      .0284    15.9637    20.4637     8.8569    18.5917   209.6409    17.5794      .0000 
 2289.5000  2510.1499   218.6657    14.0626     2.4892      .0223    18.4019    22.9019    11.0909    18.2371   225.6904    21.2006      .0000 
 2289.7500  2491.5449   218.5115    15.2285     2.4709      .0253    20.3500    24.8500    12.9928    18.6774   232.7531    22.6358      .0000 
 2290.0000  2414.6851   218.3573    15.9048     2.4603      .0231    21.7592    26.2592    14.4278    19.1566   234.2690    22.9326      .0000 
 2290.2500  2434.8149   218.2416    16.8493     2.4455      .0191    24.2263    28.7263    17.0480    19.1843   234.6522    23.0070      .0000 
 2290.5000  2462.5698   218.2416    15.3999     2.4682      .0195    25.0573    29.5573    17.9588    18.4304   227.6049    21.5984      .0000 
 2290.7500  2436.0349   218.2416    13.1989     2.5028      .0249    24.5346    29.0346    17.3843    18.2360   221.7474    20.3595      .0000 
 2291.0000  2437.5601   218.2416     8.4653     2.5771      .0333    22.6963    27.1963    15.4075    20.7249   212.3688    18.2335      .0000 
 2291.2500  2434.8149   218.2031     6.6288     2.6059      .0360    22.0587    26.5587    14.7388    21.1295   209.2005    17.4723      .0000 
 2291.5000  2446.4050   218.2031     4.3475     2.6417      .0360    21.7193    26.2193    14.3865    19.4836   202.0002    15.6534      .0000 
 2291.7500  2452.5049   218.1645     2.6924     2.6677      .0362    20.8977    25.3977    13.5449    16.6501   197.7043    14.5051      .0000 
 2292.0000  2427.1899   218.2030     1.8066     2.6816      .0387    20.2997    24.7997    12.9425    15.4733   197.7563    14.5192      .0000 
 2292.2500  2438.4749   218.2030      .9841     2.6946      .0438    20.0112    24.5112    12.6551    12.5952   199.3262    14.9444      .0000 
 2292.5000  2437.5601   218.2801     3.1188     2.6610      .0413    21.6256    26.1256    14.2897    13.3036   203.9802    16.1663      .0000 
 2292.7500  2439.6948   218.2801     5.2401     2.6277      .0354    22.6856    27.1856    15.3962    15.2440   207.7265    17.1102     1.0000 
 2293.0000  2448.2349   218.5114     9.6726     2.5581      .0203    23.7982    28.2982    16.5840    19.2613   211.9352    18.1307      .0000 
 2293.2500  2463.4849   218.6656     9.5947     2.5594      .0170    22.6735    27.1735    15.3834    17.2549   208.6173    17.3296      .0000 
 2293.5000  2430.5449   218.7813     7.7758     2.5879      .0215    21.3197    25.8197    13.9752    15.2753   202.8572    15.8766      .0000 
 2293.7500  2409.8049   218.8584     3.7717     2.6508      .0335    18.8283    23.3283    11.4987    13.4750   191.0000    12.6098      .0000 
 2294.0000  2465.6199   218.8584     3.3063     2.6581      .0363    18.3600    22.8600    11.0511    13.7334   190.2840    12.3995      .0000 
 2294.2500  2468.0601   218.8198     5.9345     2.6168      .0331    20.2073    24.7073    12.8502    12.0524   204.5651    16.3160      .0000 
 2294.5000  2505.5750   218.7042     9.6714     2.5582      .0284    24.2436    28.7436    17.0667    11.8873   223.5759    20.7532      .0000 
 2294.7500  2460.4351   218.7042    10.6300     2.5431      .0285    25.6206    30.1206    18.5837    12.4237   229.5645    21.9988      .0000 
 2295.0000  2504.9648   218.7813    11.0292     2.5368      .0295    26.7193    31.2193    19.8190    11.3732   233.8505    22.8510      .0000 
 2295.2500  2441.5249   218.8584    10.6679     2.5425      .0276    26.4672    30.9672    19.5337     9.3983   231.4084    22.3693      .0000 
 2295.5000  2447.3198   218.8969    10.5596     2.5442      .0255    25.7479    30.2479    18.7257     8.7765   228.8151    21.8465      .0000 
 2295.7500  2443.0500   219.0126    10.0475     2.5523      .0234    24.5791    29.0791    17.4330     9.1923   223.8316    20.8078      .0000 
