~Version Information                                                            

 VERS.                1.20:                                                     

 WRAP.                  NO:                                                     

~Well Information Block                                                         

#MNEM.UNIT       Data Type    Information                                       

#---------    -------------   ------------------------------                    

 STRT.M           2170.000:                                                     

 STOP.M           2381.000:                                                     

 STEP.M               1.250:                                                     

 NULL.            -999.000:                                                     

 CN  .             COMPANY:   ZZPNiG ZIELONA GORA                               

 WN  .                WELL:   K O S C I A N - 6                                 

 FN  .               FIELD:   MONOKLINA PRZEDSUDECKA                            

 DATE.                DATE:   95-05-16                                          

 FL  .     LOCATION LINE 1:   SIERAKOW                                          

 LONG.           LONGITUDE:                            .0000                    

 LATI.            LATITUDE:                            .0000                    

 PD  .     PERMANENT DATUM:   POZIOM MORZA                                      

 LMF .       LOG MEAS FROM:   POW. TERENU                                       

 FAPD.      ABOVE PERM DAT:                            .0000                    

 DMF .     DRLNG MEAS FROM:   POW. TERENU                                       

 EPD .          ELEV. P.D.:                          79.0000                    

 EKB .          ELEV. K.B.:                          84.0000                    

 EDF .          ELEV. D.F.:                          84.0000                    

 EGL .          ELEV. G.L.:                          79.0000                    

 DFT .      DR. FLUID TYPE:   SOLNO-SKROB.                                      

 MSS .     MUD SAMPLE SRC.:   OBIEG                                             

 MFSS.      MUD FILT. SRC.:   WYKRES                                            

 MCSS.     MUD CAKE SOURCE:   WYKRES                                            

 TCS .     TIME SINCE CIRC:                                0                    

 TLAB.     TIME LOG ON BTM:                                0                    

 LUN .     LOG UNIT NUMBER:   1A/Kw                                             

 LUL .       LOG UNIT LOC.:   BGW KRAKOW                                        

 ENGI.         RECORDED BY:   J. DUBIS                                          

 WITN.        WITNESSED BY:   K. KRAWIEC                                        

~Parameter Information Block                                                    

#MNEM.UNIT        Value       Description                                       

#---------    -------------   ------------------------------                    

 RUN .               .0000:                           RUN NUMBER                

 DD  .           2381.0000:                      DEPTH - DRILLER                

 DL  .           2379.0000:                       DEPTH - LOGGER                

 BLI .           2379.0000:                  BOTTOM LOG INTERVAL                

 TLI .           2015.0000:                     TOP LOG INTERVAL                

 CS  .              9.6250:                      CASING DIAMETER                

 CSD .           2002.0000:               CASING DEPTH - DRILLER                

 BS  .              8.5000:                             BIT SIZE                

 DFD .              1.3600:               DRILLING FLUID DENSITY                

 DFV .             39.0000:             DRILLING FLUID VISCOSITY                

 DFPH.              9.8000:                    DRILLING FLUID PH                

 DFL .              3.5000:                  DRILLING FLUID LOSS                

 RMS .               .0640:                      MUD RESISTIVITY                

 MST .             16.0000:                 MUD RESISTIVITY TEMP                

 RMF .               .0350:             MUD FILTRATE RESISTIVITY                

 MFST.             16.0000:        MUD FILTRATE RESISTIVITY TEMP                

 RMC .               .1250:                 MUD CAKE RESISTIVITY                

 MCST.             16.0000:            MUD CAKE RESISTIVITY TEMP                

 RMB .               .0160:          BOTTOM HOLE MUD RESISTIVITY                

 BHT .             86.0000:                     BOTTOM HOLE TEMP                

~Curve Information Block                                                        

#MNEM.UNIT     API CODE       Curve Description                                 

#---------    -------------   ------------------------------                    

 DEPT.M                   :                                                     

 TENS.lbs      0   0  0  0:                                                     

 CALM.mm       0   0  0  0:                                                     

 DPHI.ls       0   0  0  0:                                                     

 RHOB.gm/c     0   0  0  0:                                                     

 DRHO.gm/c     0   0  0  0:                                                     

 NPHI.ls       0   0  0  0:                                                     

 NPHS.ss       0   0  0  0:                                                     

 NPHD.dol      0   0  0  0:                                                     

 GR  .API      0   0  0  0:                                                     

 DTM .us/m     0   0  0  0:                                                     

 SPHI.ls       0   0  0  0:                                                     

 ITT .ms       0   0  0  0:                                                     

~A  DEPT        TENS       CALM       DPHI       RHOB       DRHO       NPHI       NPHS       NPHD       GR         DTM        SPHI       ITT   
# ...
 2352.0000  2625.4399   222.5590    -1.3681     2.7315      .0282    13.4840    17.9000     6.7691    58.2416   188.7810    11.9528      .0000 
 2352.2500  2608.0549   222.5590    -1.2559     2.7297      .0259    13.2571    17.6619     6.5880    54.7139   185.9727    11.0989      .0000 
 2352.5000  2624.5249   222.6361     -.6439     2.7201      .0210    13.4016    17.8136     6.7031    46.9342   183.6113    10.3607      .0000 
 2352.7500  2660.5149   222.9445     -.3895     2.7161      .0181    14.5418    19.0061     7.6358    51.2129   188.0130    11.7218      .0000 
 2353.0000  2591.5850   223.2144     -.8153     2.7228      .0192    15.2479    19.7479     8.2343    53.8817   190.9005    12.5806      .0000 
 2353.2500  2654.4150   223.5228    -1.7685     2.7378      .0235    16.4322    20.9322     9.2728    60.9638   195.1107    13.7873      .0000 
 2353.5000  2635.5049   223.5228    -2.0282     2.7418      .0259    16.2428    20.7428     9.1038    63.7304   194.6938    13.6702      .0000 
 2353.7500  2632.7600   222.9060     -.9539     2.7250      .0256    13.6366    18.0600     6.8919    61.6864   188.9861    12.0142      .0000 
 2354.0000  2605.9199   222.4048      .7766     2.6978      .0230    11.1780    15.4647     5.0107    49.4097   181.8732     9.8051      .0000 
 2354.2500  2638.5549   222.2507     1.3774     2.6884      .0226    10.7709    15.0313     4.7198    43.4103   180.1236     9.2350      .0000 
 2354.5000  2627.5750   222.1350     1.6964     2.6834      .0246    10.4453    14.6839     4.4915    37.0098   178.7671     8.7853      .0000 
 2354.7500  2597.0750   222.0965     1.4581     2.6871      .0265    10.3623    14.5953     4.4339    33.7348   177.9200     8.5009      .0000 
 2355.0000  2658.6848   222.0579     1.2403     2.6905      .0271    10.6524    14.9050     4.6363    32.3944   177.2074     8.2597      .0000 
 2355.2500  2637.3350   222.0579      .3969     2.7038      .0291    12.4806    16.8444     5.9813    35.3449   178.1049     8.5632      .0000 
 2355.5000  2617.2048   222.4433     -.6471     2.7202      .0301    15.6423    20.1423     8.5754    41.7089   183.4951    10.3239      .0000 
 2355.7500  2639.1650   222.7903    -1.2932     2.7303      .0308    16.7879    21.2879     9.5929    46.8571   187.2213    11.4817      .0000 
 2356.0000  2664.1750   222.9059    -1.9479     2.7406      .0302    16.1952    20.6952     9.0616    54.0288   189.6667    12.2169      .0000 
 2356.2500  2624.5249   222.3662    -1.6874     2.7365      .0281    13.4221    17.8351     6.7195    50.4105   184.7121    10.7072      .0000 
 2356.5000  2619.6450   221.9808    -1.0787     2.7269      .0254    12.4757    16.8393     5.9776    46.9001   181.8312     9.7915      .0000 
 2356.7500  2607.4448   221.9808      .0103     2.7098      .0217    11.8953    16.2258     5.5378    42.1370   180.9018     9.4899      .0000 
 2357.0000  2628.1848   221.9808      .4215     2.7034      .0206    12.0112    16.3485     5.6247    42.9447   182.7169    10.0761     1.0000 
 2357.2500  2582.4348   221.4796      .7999     2.6974      .0198    11.6894    16.0077     5.3846    46.1256   185.2732    10.8822      .0000 
 2357.5000  2619.0349   220.2846      .7333     2.6985      .0221    10.2955    14.5239     4.3878    41.2868   180.2563     9.2786      .0000 
 2357.7500  2630.0149   219.9376      .7529     2.6982      .0247     9.7734    13.9649     4.0328    36.3024   176.6544     8.0711      .0000 
 2358.0000  2673.3250   220.3231      .6432     2.6999      .0330    10.3336    14.5646     4.4141    31.4993   174.2980     7.2541      .0000 
 2358.2500  2608.6650   222.4819      .6412     2.6999      .0382    13.1538    17.5534     6.5061    36.3347   179.8344     9.1397      .0000 
 2358.5000  2613.5449   223.7926      .3333     2.7048      .0397    15.2007    19.7007     8.1938    41.6674   185.3575    10.9084      .0000 
 2358.7500  2654.4150   225.8742     -.5887     2.7192      .0398    18.6034    23.1034    11.2830    54.1181   196.1947    14.0896      .0000 
 2359.0000  2673.9348   226.5682    -1.1685     2.7283      .0345    17.7980    22.2980    10.5219    58.1552   197.7999    14.5312      .0000 
 2359.2500  2672.1050   226.5682    -1.0628     2.7267      .0304    16.7020    21.2020     9.5152    55.4090   195.5597    13.9129      .0000 
 2359.5000  2678.8149   227.0307    -1.1081     2.7274      .0317    15.7679    20.2679     8.6851    52.5613   194.0721    13.4945      .0000 
 2359.7500  2609.8850   227.2235    -1.1293     2.7277      .0364    15.7970    20.2970     8.7105    54.6130   194.8722    13.7203      .0000 
 2360.0000  2621.7800   229.9605    -1.1941     2.7287      .0467    15.6138    20.1138     8.5506    58.4912   204.1534    16.2107      .0000 
 2360.2500  2652.5850   232.1193    -1.3698     2.7315      .0527    17.8669    22.3669    10.5863    57.4143   223.7641    20.7934      .0000 
 2360.5000  2677.2900   231.1941    -1.9749     2.7410      .0552    20.0113    24.5113    12.6552    56.6357   231.7192    22.4312      .0000 
 2360.7500  2613.2400   226.9922    -3.9555     2.7721      .0574    21.5810    26.0810    14.2438    56.2096   233.8505    22.8510      .0000 
 2361.0000  2679.4250   222.8289    -5.3032     2.7933      .0508    19.7310    24.2310    12.3779    56.2010   225.9326    21.2512      .0000 
 2361.2500  2639.7749   222.7903    -5.3488     2.7940      .0452    19.1928    23.6928    11.8512    55.0472   222.5896    20.5416      .0000 
 2361.5000  2628.4900   222.7903    -5.0343     2.7890      .0372    19.0730    23.5730    11.7349    53.6114   217.3742    19.3910      .0000 
 2361.7500  2620.2549   222.8289    -4.6314     2.7827      .0327    18.8730    23.3730    11.5418    53.5574   213.9034    18.5942      .0000 
 2362.0000  2610.4949   222.8674    -4.5642     2.7817      .0312    18.6082    23.1082    11.2876    50.4829   213.4395    18.4857     1.0000 
 2362.2500  2626.9648   222.8674    -4.6468     2.7830      .0323    18.1137    22.6137    10.8181    27.2805   215.3169    18.9218      .0000 
 2362.5000  2653.1948   222.8674    -4.8314     2.7859      .0346    17.8268    22.3268    10.5488    13.6162   216.2698    19.1402      .0000 
 2362.7500  2668.7500   222.8674    -4.8429     2.7860      .0377    17.2043    21.7043     9.9723      .0000   211.7082    18.0767      .0000 
 2363.0000  2658.3799   223.0987    -4.5117     2.7808      .0389    16.1771    20.6771     9.0455      .0000   204.0677    16.1888      .0000 
 2363.2500  2634.2849   223.2529    -4.4467     2.7798      .0400    15.9303    20.4303     8.8275      .0000   203.7754    16.1137      .0000 
 2363.5000  2637.6399   223.8697    -4.5262     2.7811      .0416    17.2310    21.7310     9.9968      .0000   210.6090    17.8135      .0000 
 2363.7500  2588.5349   224.4865    -4.5847     2.7820      .0409    19.6790    24.1790    12.3267      .0000   212.5099    18.2669      .0000 
 2364.0000  2674.5449   224.5636    -4.4878     2.7805      .0394    20.3940    24.8940    13.0370      .0000   209.5148    17.5488      .0000 
 2364.2500  2683.6948   224.4480    -3.9967     2.7727      .0359    20.3217    24.8217    12.9646      .0000   202.9197    15.8928      .0000 
 2364.5000  2628.1848   224.2167    -3.2625     2.7612      .0316    19.2926    23.7926    11.9483      .0000   202.0893    15.6767      .0000 
 2364.7500  2609.2749   224.5636    -2.9667     2.7566      .0296    18.9627    23.4627    11.6282      .0000   202.7196    15.8409      .0000 
 2365.0000  2669.9700   225.5274    -3.4091     2.7635      .0309    19.2232    23.7232    11.8808      .0000   202.9280    15.8950      .0000 
 2365.2500  2628.1848   226.2213    -4.4544     2.7799      .0364    19.2912    23.7912    11.9469      .0000   203.0945    15.9381      .0000 
 2365.5000  2639.7749   226.0671    -4.7409     2.7844      .0386    19.0899    23.5899    11.7513      .0000   203.2036    15.9663      .0000 
 2365.7500  2668.4448   225.2190    -4.4808     2.7803      .0412    18.7386    23.2386    11.4125      .0000   203.1801    15.9602      .0000 
