~Version Information                                                            

 VERS.                1.20:                                                     

 WRAP.                  NO:                                                     

~Well Information Block                                                         

#MNEM.UNIT       Data Type    Information                                       

#---------    -------------   ------------------------------                    

 STRT.M           2170.000:                                                     

 STOP.M           2381.000:                                                     

 STEP.M               1.250:                                                     

 NULL.            -999.000:                                                     

 CN  .             COMPANY:   ZZPNiG ZIELONA GORA                               

 WN  .                WELL:   K O S C I A N - 6                                 

 FN  .               FIELD:   MONOKLINA PRZEDSUDECKA                            

 DATE.                DATE:   95-05-16                                          

 FL  .     LOCATION LINE 1:   SIERAKOW                                          

 LONG.           LONGITUDE:                            .0000                    

 LATI.            LATITUDE:                            .0000                    

 PD  .     PERMANENT DATUM:   POZIOM MORZA                                      

 LMF .       LOG MEAS FROM:   POW. TERENU                                       

 FAPD.      ABOVE PERM DAT:                            .0000                    

 DMF .     DRLNG MEAS FROM:   POW. TERENU                                       

 EPD .          ELEV. P.D.:                          79.0000                    

 EKB .          ELEV. K.B.:                          84.0000                    

 EDF .          ELEV. D.F.:                          84.0000                    

 EGL .          ELEV. G.L.:                          79.0000                    

 DFT .      DR. FLUID TYPE:   SOLNO-SKROB.                                      

 MSS .     MUD SAMPLE SRC.:   OBIEG                                             

 MFSS.      MUD FILT. SRC.:   WYKRES                                            

 MCSS.     MUD CAKE SOURCE:   WYKRES                                            

 TCS .     TIME SINCE CIRC:                                0                    

 TLAB.     TIME LOG ON BTM:                                0                    

 LUN .     LOG UNIT NUMBER:   1A/Kw                                             

 LUL .       LOG UNIT LOC.:   BGW KRAKOW                                        

 ENGI.         RECORDED BY:   J. DUBIS                                          

 WITN.        WITNESSED BY:   K. KRAWIEC                                        

~Parameter Information Block                                                    

#MNEM.UNIT        Value       Description                                       

#---------    -------------   ------------------------------                    

 RUN .               .0000:                           RUN NUMBER                

 DD  .           2381.0000:                      DEPTH - DRILLER                

 DL  .           2379.0000:                       DEPTH - LOGGER                

 BLI .           2379.0000:                  BOTTOM LOG INTERVAL                

 TLI .           2015.0000:                     TOP LOG INTERVAL                

 CS  .              9.6250:                      CASING DIAMETER                

 CSD .           2002.0000:               CASING DEPTH - DRILLER                

 BS  .              8.5000:                             BIT SIZE                

 DFD .              1.3600:               DRILLING FLUID DENSITY                

 DFV .             39.0000:             DRILLING FLUID VISCOSITY                

 DFPH.              9.8000:                    DRILLING FLUID PH                

 DFL .              3.5000:                  DRILLING FLUID LOSS                

 RMS .               .0640:                      MUD RESISTIVITY                

 MST .             16.0000:                 MUD RESISTIVITY TEMP                

 RMF .               .0350:             MUD FILTRATE RESISTIVITY                

 MFST.             16.0000:        MUD FILTRATE RESISTIVITY TEMP                

 RMC .               .1250:                 MUD CAKE RESISTIVITY                

 MCST.             16.0000:            MUD CAKE RESISTIVITY TEMP                

 RMB .               .0160:          BOTTOM HOLE MUD RESISTIVITY                

 BHT .             86.0000:                     BOTTOM HOLE TEMP                

~Curve Information Block                                                        

#MNEM.UNIT     API CODE       Curve Description                                 

#---------    -------------   ------------------------------                    

 DEPT.M                   :                                                     

 TENS.lbs      0   0  0  0:                                                     

 CALM.mm       0   0  0  0:                                                     

 DPHI.ls       0   0  0  0:                                                     

 RHOB.gm/c     0   0  0  0:                                                     

 DRHO.gm/c     0   0  0  0:                                                     

 NPHI.ls       0   0  0  0:                                                     

 NPHS.ss       0   0  0  0:                                                     

 NPHD.dol      0   0  0  0:                                                     

 GR  .API      0   0  0  0:                                                     

 DTM .us/m     0   0  0  0:                                                     

 SPHI.ls       0   0  0  0:                                                     

 ITT .ms       0   0  0  0:                                                     

~A  DEPT        TENS       CALM       DPHI       RHOB       DRHO       NPHI       NPHS       NPHD       GR         DTM        SPHI       ITT   
# ...
 2324.0000  2554.3750   233.5844     1.5133     2.6862      .0276     6.8281    10.7801     2.2289    67.8979   190.1458    12.3587      .0000 
 2324.2500  2566.5750   233.0447     1.4594     2.6871      .0329     4.8389     8.5983     1.2123    54.2902   184.7693    10.7251      .0000 
 2324.5000  2605.3098   232.9676     1.3588     2.6887      .0356     4.5131     8.2387     1.0621    51.1540   183.5758    10.3495      .0000 
 2324.7500  2581.2148   232.9676     1.1410     2.6921      .0390     4.8226     8.5804     1.2047    52.1570   184.0447    10.4976      .0000 
 2325.0000  2589.1450   233.2759     1.0260     2.6939      .0403     5.3584     9.1705     1.4614    52.4493   183.7691    10.4106      .0000 
 2325.2500  2580.3000   233.4687      .8080     2.6973      .0412     5.4731     9.2966     1.5179    52.7079   183.7842    10.4154      .0000 
 2325.5000  2576.6399   234.3168      .7026     2.6990      .0420     5.6863     9.5308     1.6247    60.1976   185.6229    10.9908      .0000 
 2325.7500  2592.8049   235.3961     1.6046     2.6848      .0390     5.6584     9.5002     1.6106    61.2499   186.6952    11.3211      .0000 
 2326.0000  2574.5049   236.2057     2.2238     2.6751      .0375     5.4127     9.2302     1.4881    57.6551   186.3104    11.2030     1.0000 
 2326.2500  2619.0349   237.6706     2.8186     2.6657      .0373     5.1200     8.9082     1.3456    53.5026   186.9222    11.3905      .0000 
 2326.5000  2559.8650   238.4801     2.6980     2.6676      .0389     5.1591     8.9512     1.3644    52.7716   187.4347    11.5467      .0000 
 2326.7500  2581.5200   240.2534     2.0043     2.6785      .0436     5.4695     9.2927     1.5162    49.7839   187.8482    11.6720      .0000 
 2327.0000  2594.0249   242.5278     1.5264     2.6860      .0491     5.9308     9.7991     1.7494    53.9628   188.7776    11.9518      .0000 
 2327.2500  2602.5649   243.8385     1.5334     2.6859      .0511     6.1916    10.0847     1.8852    57.6331   189.4483    12.1520      .0000 
 2327.5000  2594.0249   246.6526     1.8371     2.6812      .0550     6.5391    10.4647     2.0707    57.5122   188.9845    12.0137      .0000 
 2327.7500  2613.5449   249.5053     1.8957     2.6802      .0594     6.8763    10.8327     2.2556    51.3606   188.3928    11.8363      .0000 
 2328.0000  2590.0598   250.9316     1.6663     2.6838      .0627     7.2376    11.2262     2.4589    51.0847   189.0030    12.0192      .0000 
 2328.2500  2607.1399   254.0156     1.6554     2.6840      .0647     8.4315    12.5207     3.1683    57.6853   194.3749    13.5802      .0000 
 2328.5000  2588.5349   257.2152     2.1568     2.6761      .0638     9.2191    13.3697     3.6673    60.9816   199.1346    14.8929      .0000 
 2328.7500  2611.4099   258.7186     2.6321     2.6687      .0622     9.4463    13.6140     3.8157    60.2484   198.6905    14.7730      .0000 
 2329.0000  2614.1550   262.0339     3.5875     2.6537      .0586     9.8470    14.0439     4.0822    54.7115   195.7933    13.9780      .0000 
 2329.2500  2615.3750   265.3877     4.7999     2.6346      .0512    10.4442    14.6828     4.4908    48.0878   200.1733    15.1710      .0000 
 2329.5000  2617.2048   267.2381     5.0484     2.6307      .0483    10.9416    15.2132     4.8410    46.6419   203.3549    16.0054      .0000 
 2329.7500  2605.6150   270.2450     4.2109     2.6439      .0484    12.3992    16.7585     5.9189    49.4195   207.5181    17.0585      .0000 
 2330.0000  2608.6650   271.5556     3.4903     2.6552      .0495    12.7290    17.1064     6.1732    53.0510   207.3752    17.0231      .0000 
 2330.2500  2626.6599   273.7530     2.8425     2.6654      .0477    12.1637    16.5098     5.7397    60.4101   201.6909    15.5723      .0000 
 2330.5000  2636.7249   275.7961     3.3626     2.6572      .0398    11.3649    15.6633     5.1463    54.8707   194.2657    13.5493      .0000 
 2330.7500  2622.6948   276.8369     3.4704     2.6555      .0360    11.3763    15.6754     5.1546    51.4345   194.9362    13.7383      .0000 
 2331.0000  2638.8599   278.6488     2.3225     2.6735      .0334    12.4968    16.8616     5.9938    55.6808   206.2995    16.7547      .0000 
 2331.2500  2602.2600   280.2679      .7923     2.6976      .0335    14.0469    18.4895     7.2258    68.5918   214.6377    18.7649      .0000 
 2331.5000  2608.6650   280.9232      .6056     2.7005      .0323    14.0768    18.5207     7.2503    73.8002   214.0192    18.6211      .0000 
 2331.7500  2625.1350   282.3110     1.7739     2.6821      .0263    13.2855    17.6917     6.6105    73.3796   210.3436    17.7496      .0000 
 2332.0000  2578.7749   283.3518     2.3979     2.6724      .0230    13.8367    18.2696     7.0540    66.1214   212.9555    18.3720      .0000 
 2332.2500  2630.6250   283.6987     2.2113     2.6753      .0230    14.6849    19.1552     7.7559    64.6072   215.4697    18.9569      .0000 
 2332.5000  2617.2048   284.2770     1.4622     2.6870      .0240    15.5649    20.0649     8.5081    68.3155   216.7118    19.2409      .0000 
 2332.7500  2606.8350   284.4698     1.4390     2.6874      .0232    15.2442    19.7442     8.2312    70.9960   215.2077    18.8966      .0000 
 2333.0000  2602.8699   284.6239     1.6792     2.6836      .0211    14.2805    18.7335     7.4183    71.2949   212.8764    18.3534      .0000 
 2333.2500  2583.0449   284.6239     1.8518     2.6809      .0200    12.6835    17.0585     6.1379    67.9163   208.9736    17.4168      .0000 
 2333.5000  2593.4150   284.6624     2.0479     2.6778      .0187    11.5991    15.9119     5.3179    63.7333   205.2189    16.4822      .0000 
 2333.7500  2612.0200   284.1998     2.0359     2.6780      .0166    10.6581    14.9110     4.6403    61.7008   198.3952    14.6931      .0000 
 2334.0000  2602.5649   283.3131     1.3023     2.6896      .0168    12.0478    16.3872     5.6522    70.2052   200.3582    15.2203      .0000 
 2334.2500  2565.6599   282.6578      .8599     2.6965      .0173    13.1829    17.5839     6.5291    73.4838   203.5633    16.0592      .0000 
 2334.5000  2591.2800   281.6941     1.2658     2.6901      .0154    14.1694    18.6175     7.3265    71.6992   207.4794    17.0490      .0000 
 2334.7500  2593.4150   280.7303     2.8429     2.6654      .0115    12.0572    16.3971     5.6593    62.4657   202.9330    15.8963      .0000 
 2335.0000  2592.8049   280.3063     3.5249     2.6547      .0105    10.7768    15.0376     4.7240    56.4990   198.4673    14.7126      .0000 
 2335.2500  2569.0149   279.5353     3.8927     2.6489      .0114     9.4504    13.6184     3.8184    45.1034   191.3124    12.7010      .0000 
 2335.5000  2589.7549   279.2269     3.7239     2.6515      .0121     9.5784    13.7558     3.9029    42.8418   190.3645    12.4232      .0000 
 2335.7500  2574.5049   278.5330     3.0312     2.6624      .0130    11.1168    15.3996     4.9666    53.2905   196.3580    14.1349      .0000 
 2336.0000  2580.6050   277.7620     1.9988     2.6786      .0146    14.2776    18.7305     7.4160    66.5780   208.2576    17.2412     1.0000 
 2336.2500  2579.3850   277.4151     1.5100     2.6863      .0160    15.7833    20.2833     8.6985    69.5617   212.6342    18.2963      .0000 
 2336.5000  2601.6499   276.6826     1.0731     2.6932      .0200    16.3346    20.8346     9.1856    71.9581   213.3688    18.4691      .0000 
 2336.7500  2637.9448   275.8731     1.6763     2.6837      .0228    14.8670    19.3447     7.9095    64.7027   206.6258    16.8364      .0000 
 2337.0000  2569.0149   275.4490     2.0432     2.6779      .0246    14.4754    18.9368     7.5803    57.7900   204.3652    16.2649      .0000 
 2337.2500  2606.8350   274.6780     2.4031     2.6723      .0281    14.0309    18.4728     7.2127    54.4068   206.9249    16.9111      .0000 
 2337.5000  2579.3850   274.0998     2.7810     2.6663      .0299    12.9093    17.2962     6.3137    59.4131   209.9401    17.6520      .0000 
 2337.7500  2590.3650   273.8685     3.3243     2.6578      .0285    11.9490    16.2827     5.5780    58.4252   209.0880    17.4448      .0000 
