~Version Information

VERS.                     1.20: CWLS log ASCII Standard - VERSION  1.20

WRAP.                       NO: One line per depth step

~Well Information Block

#MNEM.UNIT           Data Type   Information

#컴컴컴컴컴        컴컴컴컴컴�   컴컴컴컴컴컴컴�

STRT.M               1295.000 :

STOP.M               1895.000 :

STEP.M                  0.250 :

NULL.                 999.000 :

COMP.                  COMPANY:  Zaklad Geofizyka Krakow

WELL.                     WELL:  

FLD .                    FIELD:  

LOC .                 LOCATION:  Nieznany

PROV.                 PROVINCE:  Nieznany

CNTY.                   COUNTY:   

STAT.                    STATE:   

CTRY.                  COUNTRY:  Poland   

SRVC.          SERVICE COMPANY:  Zaklad Geofizyka Krakow   

DATE.                 LOG DATE:  Nieznany

UWI .           UNIQUE WELL ID:   

~Curve Information Block

#MNEM.UNIT         API CODE      Curve Description

#컴컴컴컴컴        컴컴컴컴컴�   컴컴컴컴컴컴컴�

DEPTH.M                       :   1    DEPTH

GR.C/MN                       :   2    Gamma Naturalne

NEGR.C/MN                     :   3    Neutron-Gamma

EL02.OHMM                     :   4    Gradientowa spagowa   0.55m

EL03.OHMM                     :   5    Gradientowa spagowa   1.05m

EL09.OHMM                     :   6    Gradientowa spagowa  2.625m

EL14.OHMM                     :   7    Gradientowa spagowa   4.25m

EL28.OHMM                     :   8    Gradientowa spagowa    8.5m

CALI.MM                       :   9    Srednica otworu

~Parameter Information Block

#MNEM.UNIT             Value      Description

#컴컴컴컴컴        컴컴컴컴컴�   컴컴컴컴컴컴컴�

DD  .M                 -1.000 :  Depth Driller

DL  .M                 -1.000 :  Depth Logger

BS  .MM                    -1 :  Bit Size

BS1 .                         :  Bit Size1

BS2 .                         :  Bit Size2

BS3 .                         :  Bit Size3

CBD .M                 -1.000 :  Casing Bottom Driller

CBL .M                 -1.000 :  Casing Bottom Logger

CSIZ.IN                       :  Casing Size

CSIN.MM                    -1 :  Internal Casing Size

CS1 .                         :  Casing Size 1

CS2 .                         :  Casing Size 2

CS3 .                         :  Casing Size 3

CAST.                         :  Casing Thickness

FD  .G/C3              -1.000 :  Mud Fluid Density

DFTH.                         :  Drilling Fluid Thixotropy

DFL .C3                    -1 :  Mud Fluid Loss

DFV .S/1500C3              -1 :  Mud Fluid Viscosity

DFPH.                         :  Drilling Fluid Ph

SALI.G/L               -1.000 :  Salinity of the Mud

RMS .OHMM              -1.000 :  Resistivity of Mud Sample

MST .DEGC              -1.000 :  Mud Sample Temperature

RMC .OHMM                     :  Mud Cake Resistivity

MCST.                         :  Mud Cake Sample Temperature

RMFS.                         :  Mud Filtrate Resistivity

MFST.                         :  Mud Filtrate Sample Temperature

MRT .                         :  Maximum Recorded Temperature

BHT .DEGC                     :  Bottom Hole Temperature

MST .                         :  Mean Surface Temperature

TGRD.                         :  Temperature Gradient

MDEN.                         :  Matrix Density

DTM .                         :  Delta-T Matrix

FDEN.                         :  Fluid Density

DTF .                         :  Delta-T Fluid

MATR.                         :  Matrix (0=LIME,1=SAND,2=DOLO)

FNUM.                         :  Tortuosity  Constant Archie's (a)

FEXP.                         :  Cementation Exponent Archie's (m)

SEXP.                         :  Saturation Exponent Archie's (n)

LATI.                         :  Latitude

LONG.                         :  Longitude

PDEV.M                 -1.000 :  Elevation of Permanent Datum

EGL .M                 -1.000 :  Elevation of Ground Level

EDF .M                        :  Elevation of Derrick Floor

EKB .M                 -1.000 :  Elevation of Kelly Bushing

~Other Information

#MNEM.UNIT           DATA Type   Information

#컴컴컴컴컴        컴컴컴컴컴�   컴컴컴컴컴컴컴�

COM1.               COMMENT #1:

COM2.               COMMENT #2:

COM3.               COMMENT #3:

COM4.               COMMENT #4:

OSRV.           OTHER SERVICES:   

IDGR.      GROUP IDENTIFICATOR:  Nieznany

LU  .             LOGGING UNIT:  Nieznany

CABL.               CABLE TYPE:  Nieznany

ENGI.          ENGINEER'S NAME:  Nieznany

OPER.          OPERATOR'S NAME:  Nieznany

ELAB.            ELABORATED BY:  Nieznany

VERY.              VERYFIED BY:  Nieznany

CASX.              CASING TYPE:   

DFT .      DRILLING FLUID TYPE:  Nieznany

MSS .        MUD SAMPLE SOURCE:   

MCSS.          MUD CAKE SOURCE:   

MFSS.      MUD FILTRATE SOURCE:   

LMF .        LOG MEASURED FROM:  ground level   

PDAT.          PERMANENT DATUM:  ground level   

~A DEPTH       GR         NEGR        EL02        EL03        EL09        EL14        EL28        CALI    
# ...
  1426.250    1753.031   19424.678      48.091     191.823     256.669     146.352      86.750     216.508
  1426.500    1753.416   19549.492      43.253     164.890     235.155     139.069      75.298     215.773
  1426.750    1778.606   19674.246      45.305     140.283     213.652     142.481      71.814     214.670
  1427.000    1747.175   19799.063      47.358     115.663     192.138     145.364      68.009     213.676
  1427.250    1723.676   19023.414      48.899      91.056     170.634     140.586      64.206     214.756
  1427.500    1779.066   19203.934      46.303      77.937     149.120     136.449      60.401     215.738
  1427.750    1840.039   18927.439      43.524      72.490     127.617     132.315      59.722     215.875
  1428.000    1901.043   17487.125      40.745      67.040     106.103     131.496      65.777     214.198
  1428.250    1956.537   16220.985      37.966      61.740      93.294     134.384      71.298     215.080
  1428.500    1859.904   16613.549      35.186      56.600      97.000     137.273      76.823     215.973
  1428.750    1870.460   17305.113      32.408      51.463     100.471     137.084      82.344     216.010
  1429.000    1880.682   17997.016      29.729      50.853      97.726     129.956      87.869     215.438
  1429.250    1791.651   18688.582      33.960      55.817      93.251     123.466      93.390     214.867
  1429.500    1803.995   19380.484      38.045      60.784      88.774     116.973      94.369     214.295
  1429.750    1800.170   19905.551      42.129      65.748      84.300     110.483      91.888     214.073
  1430.000    1744.450   19488.006      42.810      70.715      84.275     103.990      89.406     214.031
  1430.250    1811.391   19056.883      41.066      76.087      95.044     105.685      88.915     213.993
  1430.500    1878.887   18625.549      39.320      74.273     105.818     115.702      95.117     213.965
  1430.750    1858.041   18492.758      37.576      69.222     116.587     125.715     101.160     213.941
  1431.000    1856.999   19026.123      35.830      64.168     127.361     130.931     107.206     213.917
  1431.250    1910.502   19517.934      39.023      64.927     138.454     126.137     113.622     213.893
  1431.500    1958.675   20009.984      46.926      73.983     132.626     121.340     118.338     214.033
  1431.750    1833.813   20501.793      54.824      83.034     121.408     116.372     123.462     214.318
  1432.000    1719.817   20993.846      64.084      92.089     111.758     112.046     128.588     214.604
  1432.250    1684.048   21037.012      57.234     101.087     114.556     107.660     126.504     214.890
  1432.500    1649.857   20027.418      48.957      99.883     117.011     103.272     121.724     215.176
  1432.750    1685.860   19098.156      44.947     100.846     116.578      98.886     116.946     215.454
  1433.000    1721.880   18168.439      46.831     101.810     108.609      94.497     112.166     215.727
  1433.250    1757.882   17239.176      47.776      83.885     101.192      90.111     107.388     216.000
  1433.500    1728.563   16190.553      43.672      61.984      93.771      85.723     102.608     216.273
  1433.750    1656.717   16512.387      39.416      51.380      86.354      81.337      97.830     215.256
  1434.000    1679.792   16881.627      35.157      43.756      78.933      76.949      93.050     210.923
  1434.250    1589.055   17250.686      30.901      38.530      73.382      76.550      88.272     206.898
  1434.500    1600.127   17619.926      26.626      41.836      75.982      80.079      83.835     206.239
  1434.750    1609.764   17825.754      31.528      49.171      78.601      83.608      88.407     206.524
  1435.000    1518.625   17303.742      32.256      56.509      81.504      87.138      92.676     206.810
  1435.250    1519.518   17534.621      31.692      63.844      76.104      89.678      96.942     207.096
  1435.500    1478.263   17821.871      31.237      71.183      70.048      83.744     101.808     207.427
  1435.750    1499.924   18108.980      38.078      78.518      63.995      77.337      97.325     212.700
  1436.000    1566.492   18355.984      43.549      85.856      57.939      70.927      92.109     218.981
  1436.250    1633.028   17500.188      33.156      81.494      54.391      66.206      86.895     225.259
  1436.500    1699.596   16749.234      23.195      72.757      57.657      67.409      81.679     232.193
  1436.750    1732.688   15974.451      20.847      64.025      60.948      68.702      76.466     227.131
  1437.000    1676.203   16313.183      23.240      55.288      64.254      67.929      71.374     221.478
  1437.250    1712.829   17010.232      25.632      46.555      67.870      66.143      74.968     215.828
  1437.500    1747.524   17707.623      28.025      46.030      71.488      64.342      78.480     210.854
  1437.750    1743.767   18404.674      30.417      54.542      74.895      72.470      81.989     211.602
  1438.000    1669.534   19102.064      32.810      63.058      81.212      80.666      85.501     212.270
  1438.250    1677.611   19289.840      35.020      69.358      87.547      88.857      88.829     212.968
  1438.500    1685.499   19050.316      33.056      65.578      93.884      97.053      94.935     213.446
  1438.750    1645.707   18827.164      30.683      61.753     105.434     105.244     101.114     213.910
  1439.000    1661.579   19628.662      28.308      71.573     139.044     113.440     107.295     215.482
  1439.250    1678.250   20518.500      25.934      92.281     173.188     121.632     113.474     217.559
  1439.500    1575.377   21408.775      31.131     112.998     207.349     129.827     119.655     219.636
  1439.750    1583.379   22298.617      48.891     133.706     253.344     138.019     126.315     219.076
  1440.000    1591.385   23188.891      66.659     154.423     302.550     146.215     133.027     218.207
  1440.250    1475.002   24078.730      84.418     191.361     351.733     162.563     140.136     217.702
  1440.500    1525.938   24969.006     102.187     235.685     400.555     186.337     146.758     217.191
  1440.750    1579.532   25858.846     119.946     279.987     338.080     210.100     152.117     217.258
  1441.000    1641.502   26770.416     137.714     324.310     410.010     233.874     157.478     217.325
  1441.250    1630.872   25455.863     145.383     368.612     424.384     255.383     156.946     217.393
  1441.500    1631.652   24108.422     128.177     380.706     412.635     252.324     153.534     217.462
  1441.750    1659.820   22761.639     112.014     343.640     409.427     249.065     150.124     217.595
  1442.000    1655.391   21414.197      95.842     306.556     413.034     245.804     146.712     217.731
  1442.250    1622.749   20152.102      79.679     269.490     409.706     254.175     143.302     217.867
  1442.500    1596.355   20264.746      61.566     232.405     359.887     267.259     139.890     218.003
  1442.750    1649.176   20386.355      64.232     195.339     316.385     280.337     136.480     218.139
  1443.000    1637.904   20508.025      63.644     158.255     273.386     293.422     133.068     218.223
  1443.250    1648.600   19411.324      62.124     119.259     230.409     306.500     129.658     218.149
  1443.500    1684.158   19499.377      60.604     119.054     207.398     319.584     126.314     218.076
  1443.750    1719.698   18853.332      59.084     118.850     204.078     324.415     130.154     218.002
  1444.000    1761.939   18915.529      57.720     118.645     200.756     311.453     133.920     217.929
  1444.250    1700.287   18980.287      56.560     115.718     197.435     312.041     137.684     217.855
  1444.500    1612.789   19045.078      55.400     110.847     194.366     312.588     141.044     217.769
  1444.750    1684.057   18895.805      55.347     108.748     163.929     309.289     128.953     219.614
