~Version Information

VERS.                     1.20: CWLS log ASCII Standard - VERSION  1.20

WRAP.                       NO: One line per depth step

~Well Information Block

#MNEM.UNIT           Data Type   Information

#컴컴컴컴컴        컴컴컴컴컴�   컴컴컴컴컴컴컴�

STRT.M               1295.000 :

STOP.M               1895.000 :

STEP.M                  0.250 :

NULL.                 999.000 :

COMP.                  COMPANY:  Zaklad Geofizyka Krakow

WELL.                     WELL:  

FLD .                    FIELD:  

LOC .                 LOCATION:  Nieznany

PROV.                 PROVINCE:  Nieznany

CNTY.                   COUNTY:   

STAT.                    STATE:   

CTRY.                  COUNTRY:  Poland   

SRVC.          SERVICE COMPANY:  Zaklad Geofizyka Krakow   

DATE.                 LOG DATE:  Nieznany

UWI .           UNIQUE WELL ID:   

~Curve Information Block

#MNEM.UNIT         API CODE      Curve Description

#컴컴컴컴컴        컴컴컴컴컴�   컴컴컴컴컴컴컴�

DEPTH.M                       :   1    DEPTH

GR.C/MN                       :   2    Gamma Naturalne

NEGR.C/MN                     :   3    Neutron-Gamma

EL02.OHMM                     :   4    Gradientowa spagowa   0.55m

EL03.OHMM                     :   5    Gradientowa spagowa   1.05m

EL09.OHMM                     :   6    Gradientowa spagowa  2.625m

EL14.OHMM                     :   7    Gradientowa spagowa   4.25m

EL28.OHMM                     :   8    Gradientowa spagowa    8.5m

CALI.MM                       :   9    Srednica otworu

~Parameter Information Block

#MNEM.UNIT             Value      Description

#컴컴컴컴컴        컴컴컴컴컴�   컴컴컴컴컴컴컴�

DD  .M                 -1.000 :  Depth Driller

DL  .M                 -1.000 :  Depth Logger

BS  .MM                    -1 :  Bit Size

BS1 .                         :  Bit Size1

BS2 .                         :  Bit Size2

BS3 .                         :  Bit Size3

CBD .M                 -1.000 :  Casing Bottom Driller

CBL .M                 -1.000 :  Casing Bottom Logger

CSIZ.IN                       :  Casing Size

CSIN.MM                    -1 :  Internal Casing Size

CS1 .                         :  Casing Size 1

CS2 .                         :  Casing Size 2

CS3 .                         :  Casing Size 3

CAST.                         :  Casing Thickness

FD  .G/C3              -1.000 :  Mud Fluid Density

DFTH.                         :  Drilling Fluid Thixotropy

DFL .C3                    -1 :  Mud Fluid Loss

DFV .S/1500C3              -1 :  Mud Fluid Viscosity

DFPH.                         :  Drilling Fluid Ph

SALI.G/L               -1.000 :  Salinity of the Mud

RMS .OHMM              -1.000 :  Resistivity of Mud Sample

MST .DEGC              -1.000 :  Mud Sample Temperature

RMC .OHMM                     :  Mud Cake Resistivity

MCST.                         :  Mud Cake Sample Temperature

RMFS.                         :  Mud Filtrate Resistivity

MFST.                         :  Mud Filtrate Sample Temperature

MRT .                         :  Maximum Recorded Temperature

BHT .DEGC                     :  Bottom Hole Temperature

MST .                         :  Mean Surface Temperature

TGRD.                         :  Temperature Gradient

MDEN.                         :  Matrix Density

DTM .                         :  Delta-T Matrix

FDEN.                         :  Fluid Density

DTF .                         :  Delta-T Fluid

MATR.                         :  Matrix (0=LIME,1=SAND,2=DOLO)

FNUM.                         :  Tortuosity  Constant Archie's (a)

FEXP.                         :  Cementation Exponent Archie's (m)

SEXP.                         :  Saturation Exponent Archie's (n)

LATI.                         :  Latitude

LONG.                         :  Longitude

PDEV.M                 -1.000 :  Elevation of Permanent Datum

EGL .M                 -1.000 :  Elevation of Ground Level

EDF .M                        :  Elevation of Derrick Floor

EKB .M                 -1.000 :  Elevation of Kelly Bushing

~Other Information

#MNEM.UNIT           DATA Type   Information

#컴컴컴컴컴        컴컴컴컴컴�   컴컴컴컴컴컴컴�

COM1.               COMMENT #1:

COM2.               COMMENT #2:

COM3.               COMMENT #3:

COM4.               COMMENT #4:

OSRV.           OTHER SERVICES:   

IDGR.      GROUP IDENTIFICATOR:  Nieznany

LU  .             LOGGING UNIT:  Nieznany

CABL.               CABLE TYPE:  Nieznany

ENGI.          ENGINEER'S NAME:  Nieznany

OPER.          OPERATOR'S NAME:  Nieznany

ELAB.            ELABORATED BY:  Nieznany

VERY.              VERYFIED BY:  Nieznany

CASX.              CASING TYPE:   

DFT .      DRILLING FLUID TYPE:  Nieznany

MSS .        MUD SAMPLE SOURCE:   

MCSS.          MUD CAKE SOURCE:   

MFSS.      MUD FILTRATE SOURCE:   

LMF .        LOG MEASURED FROM:  ground level   

PDAT.          PERMANENT DATUM:  ground level   

~A DEPTH       GR         NEGR        EL02        EL03        EL09        EL14        EL28        CALI    
# ...
  1632.500    2166.628   16327.769      25.261      34.752      31.534      22.412      17.379     216.563
  1632.750    2040.133   16167.797      22.220      36.535      31.463      22.765      17.602     216.047
  1633.000    2056.161   15858.374      23.797      33.465      30.331      23.119      17.824     215.511
  1633.250    2025.504   15568.889      25.342      31.510      29.300      23.087      18.043     214.976
  1633.500    1958.392   15621.700      24.315      32.601      28.269      22.862      18.792     214.457
  1633.750    1975.386   15723.889      23.172      33.631      27.238      22.714      19.649     214.983
  1634.000    1990.715   15832.666      23.995      33.108      26.207      23.234      20.507     215.492
  1634.250    1857.408   15238.998      22.687      27.668      25.814      23.800      21.364     216.002
  1634.500    1873.573   14622.098      20.482      22.227      26.304      24.365      22.222     216.511
  1634.750    1825.256   14918.451      18.278      23.577      26.793      24.931      23.079     216.328
  1635.000    1887.082   15206.920      27.078      28.427      27.283      25.496      23.992     215.516
  1635.250    1953.255   15495.247      45.293      33.274      27.489      25.408      25.006     214.704
  1635.500    1836.186   15783.715      32.620      38.124      26.307      24.822      26.021     213.891
  1635.750    1857.493   16072.043      24.282      38.258      25.014      24.237      27.035     213.192
  1636.000    1769.113   16360.511      27.813      36.967      26.219      23.651      28.050     212.438
  1636.250    1777.882   16608.875      31.130      35.615      28.506      23.457      28.615     211.749
  1636.500    1787.426   16413.041      34.448      37.957      30.794      24.049      27.850     211.033
  1636.750    1660.231   16265.236      36.718      41.736      33.080      24.587      27.630     211.196
  1637.000    1651.278   16363.951      36.164      45.517      35.368      25.125      28.037     211.366
  1637.250    1606.177   16462.234      37.627      49.296      37.655      25.663      28.445     211.536
  1637.500    1556.714   16560.566      39.034      53.077      39.943      26.189      28.852     211.706
  1637.750    1590.877   16658.848      40.441      56.856      42.229      26.083      29.290     211.876
  1638.000    1628.696   16757.180      40.855      60.637      43.576      25.978      28.588     212.132
  1638.250    1667.862   16855.465      38.197      64.416      42.451      25.874      27.339     212.459
  1638.500    1663.967   16886.025      35.536      68.727      42.353      27.103      26.090     212.787
  1638.750    1646.360   16675.361      33.074      64.096      44.477      28.672      24.842     213.115
  1639.000    1669.974   16695.936      34.433      58.709      46.601      30.242      23.573     213.329
  1639.250    1734.806   16776.781      36.220      54.169      48.725      31.812      24.696     213.147
  1639.500    1799.669   16857.666      38.007      57.532      50.850      33.382      25.838     212.965
  1639.750    1862.570   16938.512      39.794      61.130      52.974      34.951      26.979     212.793
  1640.000    1837.352   17019.396      41.581      64.730      55.099      36.521      28.121     214.096
  1640.250    1802.202   16997.746      43.367      68.329      57.172      38.094      29.253     215.560
  1640.500    1853.293   16814.836      39.688      71.929      54.948      36.871      28.544     217.024
  1640.750    1909.413   16876.137      33.064      75.342      51.886      34.936      27.406     218.488
  1641.000    1965.560   16889.846      26.284      68.338      48.822      33.001      26.268     219.952
  1641.250    2016.747   16848.506      21.017      60.001      45.760      31.066      25.130     221.416
  1641.500    1926.653   16807.145      21.689      51.660      42.697      29.130      23.992     221.921
  1641.750    1853.483   16856.641      22.306      43.322      39.635      27.129      22.854     221.748
  1642.000    1882.538   17165.893      22.923      34.981      36.571      28.794      21.716     221.755
  1642.250    1911.579   17455.881      21.867      29.583      33.509      31.689      21.120     221.763
  1642.500    1924.595   17746.012      20.098      30.547      33.920      34.584      23.663     221.802
  1642.750    1877.970   18036.000      26.244      31.391      37.699      37.478      26.322     221.970
  1643.000    1860.176   18326.131      33.016      29.556      41.479      40.374      28.983     222.138
  1643.250    1921.162   18616.119      39.783      38.920      45.257      43.268      31.643     222.305
  1643.500    1994.122   18906.250      46.555      49.192      49.038      45.967      34.304     222.473
  1643.750    1885.180   19196.238      53.322      59.458      48.682      43.030      36.963     222.632
  1644.000    1862.111   19486.369      60.715      69.730      44.624      40.279      38.486     222.782
  1644.250    1880.592   19632.727      44.153      77.053      40.569      37.529      36.411     222.931
  1644.500    1800.774   18949.783      35.720      70.518      36.511      34.778      34.334     223.081
  1644.750    1839.388   18235.619      37.104      63.880      32.456      32.028      32.258     223.573
  1645.000    1920.587   17521.107      35.721      62.314      28.285      29.277      30.182     226.062
  1645.250    2001.746   16806.943      28.346      55.125      30.951      26.527      28.106     228.732
  1645.500    2068.002   16092.432      20.968      37.124      33.696      25.293      26.030     231.403
  1645.750    2035.809   15383.850      21.054      29.669      36.438      27.402      25.514     234.073
  1646.000    2012.632   15564.344      25.061      30.628      39.182      29.513      28.236     235.637
  1646.250    2051.118   15953.683      29.363      28.805      41.925      31.622      30.714     232.887
  1646.500    1959.887   16343.212      29.573      30.576      43.921      33.733      33.193     230.312
  1646.750    1883.754   16732.551      28.306      33.970      43.133      35.842      35.399     231.454
  1647.000    1905.761   17122.080      30.444      37.366      42.344      37.953      36.123     232.528
  1647.250    1911.099   17511.418      32.907      40.760      41.750      40.063      36.860     233.601
  1647.500    1818.090   17900.947      35.371      44.156      42.991      42.173      37.597     234.675
  1647.750    1814.311   18109.742      35.195      47.550      44.339      44.283      38.334     234.368
  1648.000    1867.770   17164.234      37.508      50.946      45.688      46.393      38.805     232.488
  1648.250    1924.947   17273.195      39.614      54.340      47.037      45.755      38.576     230.609
  1648.500    1913.299   17390.512      41.721      57.736      48.386      43.188      38.346     228.729
  1648.750    1874.276   16779.129      41.777      57.687      49.600      40.623      37.717     227.128
  1649.000    1895.132   16116.997      34.376      56.507      46.727      38.056      35.658     229.423
  1649.250    1930.544   15455.189      35.035      58.668      43.720      35.491      33.659     231.961
  1649.500    1903.039   14793.059      35.798      45.670      40.712      32.925      31.660     234.500
  1649.750    1921.452   14131.251      30.209      38.499      37.705      30.359      29.661     236.069
  1650.000    1966.852   13469.120      23.996      25.692      34.696      27.793      27.661     234.335
  1650.250    2012.229   13310.252      17.785      14.405      31.689      25.228      25.662     232.633
  1650.500    2031.323   13792.231      11.572      15.227      28.680      22.271      23.663     230.930
  1650.750    2009.774   14273.976      10.755      16.052      25.673      23.705      23.888     229.228
  1651.000    2044.627   14755.955      15.421      14.868      23.632      25.396      25.574     227.525
