~Version Information

VERS.                     1.20: CWLS log ASCII Standard - VERSION  1.20

WRAP.                       NO: One line per depth step

~Well Information Block

#MNEM.UNIT           Data Type   Information

#컴컴컴컴컴        컴컴컴컴컴�   컴컴컴컴컴컴컴�

STRT.M               1295.000 :

STOP.M               1895.000 :

STEP.M                  0.250 :

NULL.                 999.000 :

COMP.                  COMPANY:  Zaklad Geofizyka Krakow

WELL.                     WELL:  

FLD .                    FIELD:  

LOC .                 LOCATION:  Nieznany

PROV.                 PROVINCE:  Nieznany

CNTY.                   COUNTY:   

STAT.                    STATE:   

CTRY.                  COUNTRY:  Poland   

SRVC.          SERVICE COMPANY:  Zaklad Geofizyka Krakow   

DATE.                 LOG DATE:  Nieznany

UWI .           UNIQUE WELL ID:   

~Curve Information Block

#MNEM.UNIT         API CODE      Curve Description

#컴컴컴컴컴        컴컴컴컴컴�   컴컴컴컴컴컴컴�

DEPTH.M                       :   1    DEPTH

GR.C/MN                       :   2    Gamma Naturalne

NEGR.C/MN                     :   3    Neutron-Gamma

EL02.OHMM                     :   4    Gradientowa spagowa   0.55m

EL03.OHMM                     :   5    Gradientowa spagowa   1.05m

EL09.OHMM                     :   6    Gradientowa spagowa  2.625m

EL14.OHMM                     :   7    Gradientowa spagowa   4.25m

EL28.OHMM                     :   8    Gradientowa spagowa    8.5m

CALI.MM                       :   9    Srednica otworu

~Parameter Information Block

#MNEM.UNIT             Value      Description

#컴컴컴컴컴        컴컴컴컴컴�   컴컴컴컴컴컴컴�

DD  .M                 -1.000 :  Depth Driller

DL  .M                 -1.000 :  Depth Logger

BS  .MM                    -1 :  Bit Size

BS1 .                         :  Bit Size1

BS2 .                         :  Bit Size2

BS3 .                         :  Bit Size3

CBD .M                 -1.000 :  Casing Bottom Driller

CBL .M                 -1.000 :  Casing Bottom Logger

CSIZ.IN                       :  Casing Size

CSIN.MM                    -1 :  Internal Casing Size

CS1 .                         :  Casing Size 1

CS2 .                         :  Casing Size 2

CS3 .                         :  Casing Size 3

CAST.                         :  Casing Thickness

FD  .G/C3              -1.000 :  Mud Fluid Density

DFTH.                         :  Drilling Fluid Thixotropy

DFL .C3                    -1 :  Mud Fluid Loss

DFV .S/1500C3              -1 :  Mud Fluid Viscosity

DFPH.                         :  Drilling Fluid Ph

SALI.G/L               -1.000 :  Salinity of the Mud

RMS .OHMM              -1.000 :  Resistivity of Mud Sample

MST .DEGC              -1.000 :  Mud Sample Temperature

RMC .OHMM                     :  Mud Cake Resistivity

MCST.                         :  Mud Cake Sample Temperature

RMFS.                         :  Mud Filtrate Resistivity

MFST.                         :  Mud Filtrate Sample Temperature

MRT .                         :  Maximum Recorded Temperature

BHT .DEGC                     :  Bottom Hole Temperature

MST .                         :  Mean Surface Temperature

TGRD.                         :  Temperature Gradient

MDEN.                         :  Matrix Density

DTM .                         :  Delta-T Matrix

FDEN.                         :  Fluid Density

DTF .                         :  Delta-T Fluid

MATR.                         :  Matrix (0=LIME,1=SAND,2=DOLO)

FNUM.                         :  Tortuosity  Constant Archie's (a)

FEXP.                         :  Cementation Exponent Archie's (m)

SEXP.                         :  Saturation Exponent Archie's (n)

LATI.                         :  Latitude

LONG.                         :  Longitude

PDEV.M                 -1.000 :  Elevation of Permanent Datum

EGL .M                 -1.000 :  Elevation of Ground Level

EDF .M                        :  Elevation of Derrick Floor

EKB .M                 -1.000 :  Elevation of Kelly Bushing

~Other Information

#MNEM.UNIT           DATA Type   Information

#컴컴컴컴컴        컴컴컴컴컴�   컴컴컴컴컴컴컴�

COM1.               COMMENT #1:

COM2.               COMMENT #2:

COM3.               COMMENT #3:

COM4.               COMMENT #4:

OSRV.           OTHER SERVICES:   

IDGR.      GROUP IDENTIFICATOR:  Nieznany

LU  .             LOGGING UNIT:  Nieznany

CABL.               CABLE TYPE:  Nieznany

ENGI.          ENGINEER'S NAME:  Nieznany

OPER.          OPERATOR'S NAME:  Nieznany

ELAB.            ELABORATED BY:  Nieznany

VERY.              VERYFIED BY:  Nieznany

CASX.              CASING TYPE:   

DFT .      DRILLING FLUID TYPE:  Nieznany

MSS .        MUD SAMPLE SOURCE:   

MCSS.          MUD CAKE SOURCE:   

MFSS.      MUD FILTRATE SOURCE:   

LMF .        LOG MEASURED FROM:  ground level   

PDAT.          PERMANENT DATUM:  ground level   

~A DEPTH       GR         NEGR        EL02        EL03        EL09        EL14        EL28        CALI    
# ...
  1388.750    2150.149    9806.594       5.159       5.866       7.543       7.204      11.034     277.996
  1389.000    2107.157    9770.985       4.873       5.880       7.460       7.229      11.043     276.668
  1389.250    2054.982    9733.396       4.688       5.895       7.376       7.254      10.449     279.152
  1389.500    2067.481    9758.447       4.570       5.849       7.292       7.280       9.854     281.598
  1389.750    1994.426    9808.100       4.452       5.750       7.208       7.305       9.882     283.886
  1390.000    2010.920    9857.775       4.334       5.651       7.243       7.331      10.091     280.592
  1390.250    2022.896    9907.428       4.270       5.552       7.364       7.356      10.299     276.686
  1390.500    1998.844    9957.103       4.460       5.564       7.486       7.385      10.508     274.803
  1390.750    2004.108   10006.754       4.653       5.683       7.607       7.474      10.600     275.049
  1391.000    2051.875   10068.998       4.846       5.802       7.728       7.577      10.557     275.324
  1391.250    2099.619   10139.725       5.039       5.927       7.850       7.680      10.514     274.232
  1391.500    2147.385   10210.485       5.232       6.116       7.953       7.783      10.471     272.989
  1391.750    2195.129   10257.025       5.429       6.345       7.904       7.885      10.428     271.748
  1392.000    2173.097   10157.023       5.544       6.574       7.862       7.988      10.385     270.317
  1392.250    2151.117   10052.449       5.638       6.804       7.821       7.941      10.342     273.786
  1392.500    2170.980    9983.232       5.733       7.033       7.779       7.815      10.299     277.880
  1392.750    2159.120   10019.154       5.828       7.266       7.737       7.690      10.256     281.971
  1393.000    2146.221   10055.094       5.952       7.280       7.695       7.564      10.213     286.065
  1393.250    2162.286   10091.016       6.167       7.233       7.623       7.438      10.159     290.156
  1393.500    2178.360   10126.956       6.383       7.186       7.524       7.301      10.063     294.249
  1393.750    2188.167    9991.961       6.598       7.140       7.425       7.482       9.962     298.341
  1394.000    2140.220    9871.213       6.814       7.167       7.326       7.681       9.862     302.434
  1394.250    2103.792    9921.652       6.958       7.258       7.428       7.879       9.761     298.911
  1394.500    2110.004    9972.115       6.864       7.348       7.670       8.078       9.660     290.551
  1394.750    2107.475   10022.555       6.772       7.446       7.912       8.276       9.593     282.195
  1395.000    2051.808   10021.289       6.679       7.462       8.154       8.474       9.670     274.769
  1395.250    2033.889    9942.404       6.587       7.445       8.259       8.692       9.747     277.420
  1395.500    2040.035    9863.482       6.495       7.428       8.325       8.592       9.825     279.805
  1395.750    1992.702    9820.007       6.403       7.411       8.392       8.331       9.902     279.533
  1396.000    1945.347    9894.461       6.311       7.395       8.458       8.070       9.980     275.586
  1396.250    2008.006    9967.279       6.219       7.379       8.525       7.809      10.019     271.601
  1396.500    2072.234   10050.340       6.195       7.277       8.580       7.548       9.977     271.263
  1396.750    2132.323   10019.605       6.222       7.167       8.341       7.306       9.939     271.894
  1397.000    2117.268    9983.845       6.249       7.057       8.135       7.350       9.901     272.417
  1397.250    2091.647    9948.100       6.276       6.947       7.929       7.432       9.863     270.620
  1397.500    2082.029    9916.634       6.307       6.973       7.723       7.513       9.831     269.086
  1397.750    2088.938    9917.054       6.425       7.231       7.517       7.594       9.665     267.553
  1398.000    2078.061    9917.430       6.564       7.488       7.293       7.676       9.519     266.019
  1398.250    2054.513    9917.806       6.702       7.738       7.338       7.658       9.373     264.700
  1398.500    2030.955    9918.182       6.841       7.762       7.389       7.581       9.227     266.087
  1398.750    2018.539    9927.271       6.777       7.738       7.439       7.505       9.081     267.604
  1399.000    2031.400    9942.383       6.160       7.715       7.489       7.429       8.935     269.122
  1399.250    2043.850    9957.486       5.768       7.690       7.539       7.353       8.789     270.639
  1399.500    2013.643    9972.598       6.129       7.451       7.590       7.277       8.747     271.962
  1399.750    2014.585    9987.702       6.491       7.134       7.641       7.261       8.955     269.073
  1400.000    2060.909   10002.813       6.854       6.817       7.692       7.309       9.162     266.510
  1400.250    2107.211   10017.918       6.942       6.499       7.743       7.356       9.382     263.948
  1400.500    2151.681    9979.882       6.633       6.184       7.794       7.403       9.308     261.385
  1400.750    2095.432    9880.439       6.324       6.273       7.884       7.450       9.122     260.437
  1401.000    2115.246    9771.817       6.014       6.361       8.139       7.498       8.937     260.676
  1401.250    2145.990    9812.983       6.152       6.448       8.398       7.662       8.751     260.916
  1401.500    2176.748    9858.333       6.431       6.537       8.657       7.958       8.539     260.499
  1401.750    2155.219    9903.660       6.710       6.497       8.917       8.254       8.397     258.937
  1402.000    2114.136    9949.010       6.989       6.456       9.176       8.550       8.232     257.374
  1402.250    2087.190    9988.232       7.279       6.416       9.366       8.845       8.108     255.840
  1402.500    2098.550    9940.663       7.712       6.596       8.972       9.141       8.207     256.534
  1402.750    2003.360    9950.883       8.112       7.156       8.547       9.003       8.309     257.704
  1403.000    2014.013   10004.394       7.968       7.717       8.123       8.552       8.411     258.837
  1403.250    1956.112   10057.879       7.423       8.277       7.698       8.100       8.512     256.685
  1403.500    1894.974   10113.480       6.878       8.750       7.273       7.648       8.614     254.198
  1403.750    1936.095   10177.400       6.333       8.175       6.849       7.197       8.556     254.252
  1404.000    1977.236   10241.351       6.008       7.678       6.424       6.745       8.437     254.318
  1404.250    1957.473   10305.270       6.014       7.164       5.999       6.335       8.318     251.703
  1404.500    1932.090   10369.221       6.020       6.737       5.574       6.656       8.199     248.415
  1404.750    1945.004   10433.141       6.026       6.314       6.032       7.031       8.074     245.128
  1405.000    1935.709   10497.092       5.550       5.890       6.969       7.407       8.251     242.770
  1405.250    1951.278   10561.012       5.007       5.467       7.905       7.783       8.546     241.154
  1405.500    2002.364   10449.060       4.464       5.045       8.843       8.159       8.841     239.537
  1405.750    2053.424   10658.497       5.780      11.192       9.779       8.534       9.137     237.922
  1406.000    2104.510   10891.352       9.709      11.728      10.533       8.910       9.432     236.305
  1406.250    2081.119   11124.092      13.636      12.264       9.635       9.286       9.727     233.635
  1406.500    2024.536   11219.209      17.516      12.800       8.884       9.655       9.693     226.785
  1406.750    1967.980   10999.275      15.570      13.337       8.133       8.905       9.205     220.142
  1407.000    1946.768   10779.233      13.647      13.927       7.381       8.165       8.789     222.563
  1407.250    1960.389   10559.299      11.724      14.043       6.631       7.426       8.373     226.797
