~Version Information

VERS.                     1.20: CWLS log ASCII Standard - VERSION  1.20

WRAP.                       NO: One line per depth step

~Well Information Block

#MNEM.UNIT           Data Type   Information

#컴컴컴컴컴        컴컴컴컴컴�   컴컴컴컴컴컴컴�

STRT.M               1295.000 :

STOP.M               1895.000 :

STEP.M                  0.250 :

NULL.                 999.000 :

COMP.                  COMPANY:  Zaklad Geofizyka Krakow

WELL.                     WELL:  

FLD .                    FIELD:  

LOC .                 LOCATION:  Nieznany

PROV.                 PROVINCE:  Nieznany

CNTY.                   COUNTY:   

STAT.                    STATE:   

CTRY.                  COUNTRY:  Poland   

SRVC.          SERVICE COMPANY:  Zaklad Geofizyka Krakow   

DATE.                 LOG DATE:  Nieznany

UWI .           UNIQUE WELL ID:   

~Curve Information Block

#MNEM.UNIT         API CODE      Curve Description

#컴컴컴컴컴        컴컴컴컴컴�   컴컴컴컴컴컴컴�

DEPTH.M                       :   1    DEPTH

GR.C/MN                       :   2    Gamma Naturalne

NEGR.C/MN                     :   3    Neutron-Gamma

EL02.OHMM                     :   4    Gradientowa spagowa   0.55m

EL03.OHMM                     :   5    Gradientowa spagowa   1.05m

EL09.OHMM                     :   6    Gradientowa spagowa  2.625m

EL14.OHMM                     :   7    Gradientowa spagowa   4.25m

EL28.OHMM                     :   8    Gradientowa spagowa    8.5m

CALI.MM                       :   9    Srednica otworu

~Parameter Information Block

#MNEM.UNIT             Value      Description

#컴컴컴컴컴        컴컴컴컴컴�   컴컴컴컴컴컴컴�

DD  .M                 -1.000 :  Depth Driller

DL  .M                 -1.000 :  Depth Logger

BS  .MM                    -1 :  Bit Size

BS1 .                         :  Bit Size1

BS2 .                         :  Bit Size2

BS3 .                         :  Bit Size3

CBD .M                 -1.000 :  Casing Bottom Driller

CBL .M                 -1.000 :  Casing Bottom Logger

CSIZ.IN                       :  Casing Size

CSIN.MM                    -1 :  Internal Casing Size

CS1 .                         :  Casing Size 1

CS2 .                         :  Casing Size 2

CS3 .                         :  Casing Size 3

CAST.                         :  Casing Thickness

FD  .G/C3              -1.000 :  Mud Fluid Density

DFTH.                         :  Drilling Fluid Thixotropy

DFL .C3                    -1 :  Mud Fluid Loss

DFV .S/1500C3              -1 :  Mud Fluid Viscosity

DFPH.                         :  Drilling Fluid Ph

SALI.G/L               -1.000 :  Salinity of the Mud

RMS .OHMM              -1.000 :  Resistivity of Mud Sample

MST .DEGC              -1.000 :  Mud Sample Temperature

RMC .OHMM                     :  Mud Cake Resistivity

MCST.                         :  Mud Cake Sample Temperature

RMFS.                         :  Mud Filtrate Resistivity

MFST.                         :  Mud Filtrate Sample Temperature

MRT .                         :  Maximum Recorded Temperature

BHT .DEGC                     :  Bottom Hole Temperature

MST .                         :  Mean Surface Temperature

TGRD.                         :  Temperature Gradient

MDEN.                         :  Matrix Density

DTM .                         :  Delta-T Matrix

FDEN.                         :  Fluid Density

DTF .                         :  Delta-T Fluid

MATR.                         :  Matrix (0=LIME,1=SAND,2=DOLO)

FNUM.                         :  Tortuosity  Constant Archie's (a)

FEXP.                         :  Cementation Exponent Archie's (m)

SEXP.                         :  Saturation Exponent Archie's (n)

LATI.                         :  Latitude

LONG.                         :  Longitude

PDEV.M                 -1.000 :  Elevation of Permanent Datum

EGL .M                 -1.000 :  Elevation of Ground Level

EDF .M                        :  Elevation of Derrick Floor

EKB .M                 -1.000 :  Elevation of Kelly Bushing

~Other Information

#MNEM.UNIT           DATA Type   Information

#컴컴컴컴컴        컴컴컴컴컴�   컴컴컴컴컴컴컴�

COM1.               COMMENT #1:

COM2.               COMMENT #2:

COM3.               COMMENT #3:

COM4.               COMMENT #4:

OSRV.           OTHER SERVICES:   

IDGR.      GROUP IDENTIFICATOR:  Nieznany

LU  .             LOGGING UNIT:  Nieznany

CABL.               CABLE TYPE:  Nieznany

ENGI.          ENGINEER'S NAME:  Nieznany

OPER.          OPERATOR'S NAME:  Nieznany

ELAB.            ELABORATED BY:  Nieznany

VERY.              VERYFIED BY:  Nieznany

CASX.              CASING TYPE:   

DFT .      DRILLING FLUID TYPE:  Nieznany

MSS .        MUD SAMPLE SOURCE:   

MCSS.          MUD CAKE SOURCE:   

MFSS.      MUD FILTRATE SOURCE:   

LMF .        LOG MEASURED FROM:  ground level   

PDAT.          PERMANENT DATUM:  ground level   

~A DEPTH       GR         NEGR        EL02        EL03        EL09        EL14        EL28        CALI    
# ...
  1745.000    2155.409   10838.883       8.189      11.345       7.538       8.347      10.638     236.239
  1745.250    2183.761   10943.240       8.105      12.261       7.832       8.424      10.947     234.179
  1745.500    2216.668   11052.643       8.032      11.417       8.125       8.390      11.257     231.715
  1745.750    2115.189   10946.676       8.178      10.184       8.419       8.339      11.307     231.197
  1746.000    2124.452   10835.329       8.309      10.728       8.432       8.289      10.519     234.778
  1746.250    2119.939   10724.036       8.440      12.088       8.194       8.238       9.755     237.836
  1746.500    2101.237   10612.689       8.571      13.448       7.957       8.084       9.138     234.021
  1746.750    2106.287   10501.396       8.701      13.417       7.719       7.755       8.817     234.250
  1747.000    2111.340   10390.050       8.832      12.325       7.525       7.426       8.497     239.565
  1747.250    2116.240   10341.866       8.963      11.235       8.292       7.097       8.176     237.243
  1747.500    2089.220   10433.103       9.038      10.923       8.939       6.768       7.856     234.681
  1747.750    2058.933   10418.947       8.911      12.330       9.586       6.439       8.014     236.265
  1748.000    2068.855   10372.859       8.783      13.738      10.233       6.611       8.172     238.088
  1748.250    2079.708   10325.129       8.655      14.278      10.880       7.283       8.330     235.611
  1748.500    2071.955   10338.858       8.528      12.795      11.528       7.956       8.487     233.101
  1748.750    2044.968   10372.648       8.461      11.797      12.125       8.629       8.555     230.593
  1749.000    2065.860   10406.457       8.688      13.344      12.737       9.301       8.248     228.084
  1749.250    2087.886   10440.248       8.921      14.837      13.294       9.974       7.940     225.576
  1749.500    2109.923   10470.276       9.153      14.182      13.852      10.681       7.632     233.597
  1749.750    2119.863   10427.748       9.386      13.468      14.410      11.106       7.324     238.997
  1750.000    2081.437   10389.479       9.626      12.754      14.968      11.554       7.310     234.599
  1750.250    2056.319   10351.228       9.692      12.103      15.247      12.002       7.811     230.202
  1750.500    2073.224   10312.958       9.761      11.300      14.432      12.450       8.312     228.716
  1750.750    2010.821   10289.699       9.829      10.560      13.618      12.898       8.813     229.055
  1751.000    2015.962   10335.601       9.898       9.924      12.804      13.346       9.315     226.099
  1751.250    2021.021   10382.231       9.710      12.465      11.991      13.453       9.816     223.353
  1751.500    2025.981   10428.884       9.388      11.996      11.177      12.778      10.365     223.793
  1751.750    1998.862   10475.515       9.112      12.458      10.522      12.156      10.951     224.967
  1752.000    1997.503   10522.168       9.192      14.065      11.340      11.533      11.537     217.870
  1752.250    2035.274   10509.128       9.277      15.604      12.222      11.684      12.123     219.550
  1752.500    2076.531   10424.840       9.362      13.749      13.104      12.351      12.710     224.494
  1752.750    2001.555   10340.593       9.447      11.362      13.519      13.017      13.296     227.945
  1753.000    1966.696   10309.495       9.432       8.945      12.746      13.665      13.882     223.828
  1753.250    1988.789   10393.574       9.264      10.513      12.017      12.982      13.715     220.381
  1753.500    2010.893   10477.693       9.095      12.101      11.287      12.317      12.707     222.592
  1753.750    1990.906   10561.772       8.926      12.723      10.557      11.653      12.057     224.918
  1754.000    1951.739   10583.578       8.746      12.033       9.827      10.988      12.085     227.245
  1754.250    2009.504   10467.080       9.025      11.343       9.097      10.324      12.112     229.422
  1754.500    2025.970   10476.031       9.325      10.652       8.367       9.660      12.138     228.209
  1754.750    1965.099   10529.023       9.624       9.962       8.170       9.026      12.165     226.561
  1755.000    1979.226   10582.040       9.924      10.079       8.651       9.278      12.191     227.762
  1755.250    1936.992   10635.031      10.129      11.632       9.132       9.675      12.125     231.812
  1755.500    1873.473   10688.048      10.055      13.185       9.613       9.976      11.712     232.613
  1755.750    1907.269   10691.522       9.983      14.738      10.093       9.897      11.303     222.650
  1756.000    1836.100   10580.564       9.912      15.574      10.574       9.817      10.894     220.184
  1756.250    1888.865   10622.055      10.058      14.854      10.928       9.738      10.545     224.009
  1756.500    1952.314   10664.948      10.337      14.133      10.721       9.658      10.680     224.575
  1756.750    2015.734   10707.820      10.615      13.413      10.512       9.579      10.822     219.638
  1757.000    2079.184   10750.715      10.893      13.416      10.302       9.499      10.979     219.390
  1757.250    2142.603   10766.263      11.172      14.685      10.086      10.969      10.692     225.726
  1757.500    2204.287   10654.764      11.450      15.955      12.800      13.267      10.369     232.065
  1757.750    2089.081   10596.254      11.360      15.534      16.531      15.565      10.045     238.400
  1758.000    1992.650   10735.197      10.838      13.946      20.264      17.863      10.722     241.279
  1758.250    2008.090   10872.166      10.317      14.032      23.994      20.161      13.148     233.167
  1758.500    2021.639   11009.203      10.843      22.563      27.727      22.459      15.575     233.751
  1758.750    2034.287   11146.173      14.230      29.459      30.064      24.543      18.001     235.379
  1759.000    1966.148   11283.209      17.619      24.968      26.715      22.839      20.428     229.368
  1759.250    1975.586   11420.180      21.006      20.321      23.360      20.954      20.926     232.101
  1759.500    1985.028   11557.216      22.032      16.395      20.003      19.068      19.008     234.835
  1759.750    1957.432   11694.186      19.571      15.537      16.648      17.183      17.090     234.480
  1760.000    1902.197   11831.222      17.109       9.430      13.291      15.297      15.172     231.924
  1760.250    1966.807   11968.191      14.648      10.692       9.936      13.412      13.254     234.097
  1760.500    2034.698   11531.521      12.185      12.160       7.405      11.526      11.336     236.272
  1760.750    2102.557   10709.860       9.551      13.627       7.946       9.505       9.334     238.498
  1761.000    2170.448   10626.258       9.157      13.956       8.488       8.724       8.936     237.936
  1761.250    2233.435   10698.564       9.565      13.163       9.029       8.316       9.036     236.541
  1761.500    2208.912   10770.907       9.974      12.506       9.613       7.907       9.135     238.006
  1761.750    2250.540   10843.215      10.188      12.599      10.234       7.499       9.235     243.361
  1762.000    2233.226   10915.557      10.063      12.678      10.854       7.462       9.325     248.719
  1762.250    2188.969   10987.863       9.950      12.757      11.475       7.992       9.487     250.213
  1762.500    2176.649   11056.145       9.837      12.836      12.096       8.522       9.634     247.650
  1762.750    2186.741   10876.908       9.890      12.797      11.939       9.052       9.781     245.343
  1763.000    2196.838   10707.121       9.996      12.662      11.572       9.582       9.929     246.417
  1763.250    2195.121   10578.046      10.102      12.517      11.205      10.083      10.076     247.581
  1763.500    2143.022   10611.506      10.209      12.740      10.889      10.656      10.224     236.681
