~Version Information

VERS.                     1.20: CWLS log ASCII Standard - VERSION  1.20

WRAP.                       NO: One line per depth step

~Well Information Block

#MNEM.UNIT           Data Type   Information

#컴컴컴컴컴        컴컴컴컴컴�   컴컴컴컴컴컴컴�

STRT.M               1295.000 :

STOP.M               1895.000 :

STEP.M                  0.250 :

NULL.                 999.000 :

COMP.                  COMPANY:  Zaklad Geofizyka Krakow

WELL.                     WELL:  

FLD .                    FIELD:  

LOC .                 LOCATION:  Nieznany

PROV.                 PROVINCE:  Nieznany

CNTY.                   COUNTY:   

STAT.                    STATE:   

CTRY.                  COUNTRY:  Poland   

SRVC.          SERVICE COMPANY:  Zaklad Geofizyka Krakow   

DATE.                 LOG DATE:  Nieznany

UWI .           UNIQUE WELL ID:   

~Curve Information Block

#MNEM.UNIT         API CODE      Curve Description

#컴컴컴컴컴        컴컴컴컴컴�   컴컴컴컴컴컴컴�

DEPTH.M                       :   1    DEPTH

GR.C/MN                       :   2    Gamma Naturalne

NEGR.C/MN                     :   3    Neutron-Gamma

EL02.OHMM                     :   4    Gradientowa spagowa   0.55m

EL03.OHMM                     :   5    Gradientowa spagowa   1.05m

EL09.OHMM                     :   6    Gradientowa spagowa  2.625m

EL14.OHMM                     :   7    Gradientowa spagowa   4.25m

EL28.OHMM                     :   8    Gradientowa spagowa    8.5m

CALI.MM                       :   9    Srednica otworu

~Parameter Information Block

#MNEM.UNIT             Value      Description

#컴컴컴컴컴        컴컴컴컴컴�   컴컴컴컴컴컴컴�

DD  .M                 -1.000 :  Depth Driller

DL  .M                 -1.000 :  Depth Logger

BS  .MM                    -1 :  Bit Size

BS1 .                         :  Bit Size1

BS2 .                         :  Bit Size2

BS3 .                         :  Bit Size3

CBD .M                 -1.000 :  Casing Bottom Driller

CBL .M                 -1.000 :  Casing Bottom Logger

CSIZ.IN                       :  Casing Size

CSIN.MM                    -1 :  Internal Casing Size

CS1 .                         :  Casing Size 1

CS2 .                         :  Casing Size 2

CS3 .                         :  Casing Size 3

CAST.                         :  Casing Thickness

FD  .G/C3              -1.000 :  Mud Fluid Density

DFTH.                         :  Drilling Fluid Thixotropy

DFL .C3                    -1 :  Mud Fluid Loss

DFV .S/1500C3              -1 :  Mud Fluid Viscosity

DFPH.                         :  Drilling Fluid Ph

SALI.G/L               -1.000 :  Salinity of the Mud

RMS .OHMM              -1.000 :  Resistivity of Mud Sample

MST .DEGC              -1.000 :  Mud Sample Temperature

RMC .OHMM                     :  Mud Cake Resistivity

MCST.                         :  Mud Cake Sample Temperature

RMFS.                         :  Mud Filtrate Resistivity

MFST.                         :  Mud Filtrate Sample Temperature

MRT .                         :  Maximum Recorded Temperature

BHT .DEGC                     :  Bottom Hole Temperature

MST .                         :  Mean Surface Temperature

TGRD.                         :  Temperature Gradient

MDEN.                         :  Matrix Density

DTM .                         :  Delta-T Matrix

FDEN.                         :  Fluid Density

DTF .                         :  Delta-T Fluid

MATR.                         :  Matrix (0=LIME,1=SAND,2=DOLO)

FNUM.                         :  Tortuosity  Constant Archie's (a)

FEXP.                         :  Cementation Exponent Archie's (m)

SEXP.                         :  Saturation Exponent Archie's (n)

LATI.                         :  Latitude

LONG.                         :  Longitude

PDEV.M                 -1.000 :  Elevation of Permanent Datum

EGL .M                 -1.000 :  Elevation of Ground Level

EDF .M                        :  Elevation of Derrick Floor

EKB .M                 -1.000 :  Elevation of Kelly Bushing

~Other Information

#MNEM.UNIT           DATA Type   Information

#컴컴컴컴컴        컴컴컴컴컴�   컴컴컴컴컴컴컴�

COM1.               COMMENT #1:

COM2.               COMMENT #2:

COM3.               COMMENT #3:

COM4.               COMMENT #4:

OSRV.           OTHER SERVICES:   

IDGR.      GROUP IDENTIFICATOR:  Nieznany

LU  .             LOGGING UNIT:  Nieznany

CABL.               CABLE TYPE:  Nieznany

ENGI.          ENGINEER'S NAME:  Nieznany

OPER.          OPERATOR'S NAME:  Nieznany

ELAB.            ELABORATED BY:  Nieznany

VERY.              VERYFIED BY:  Nieznany

CASX.              CASING TYPE:   

DFT .      DRILLING FLUID TYPE:  Nieznany

MSS .        MUD SAMPLE SOURCE:   

MCSS.          MUD CAKE SOURCE:   

MFSS.      MUD FILTRATE SOURCE:   

LMF .        LOG MEASURED FROM:  ground level   

PDAT.          PERMANENT DATUM:  ground level   

~A DEPTH       GR         NEGR        EL02        EL03        EL09        EL14        EL28        CALI    
# ...
  1763.750    2139.431   10644.949      10.258      13.150      10.617      11.196      10.371     242.024
  1764.000    2154.826   10678.409       9.865      13.561      10.378      11.718      10.519     247.249
  1764.250    2118.522   10708.717       9.438      13.971      10.140      11.406      10.617     238.804
  1764.500    2101.789   10644.026       9.042      14.449       9.901      11.105      10.493     236.812
  1764.750    2110.316   10574.957       9.541      14.092       9.662      10.804      10.368     238.985
  1765.000    2119.701   10584.254      10.006      13.664       9.765      10.503      10.243     239.666
  1765.250    2081.771   10685.594      10.472      13.237      10.116      10.202      10.122     238.730
  1765.500    2042.132   10786.983      10.938      12.810      10.467       9.901      10.277     237.794
  1765.750    2058.198   10888.323      11.131      12.631      10.818       9.673      10.483     237.971
  1766.000    2047.841   10989.713      10.373      13.160      11.162       9.528      10.689     239.054
  1766.250    2007.526   11092.488       9.639      13.665      11.499       9.383      10.896     240.136
  1766.500    1971.700   11063.996       9.440      13.338      11.835       9.239      11.102     241.219
  1766.750    2047.696   10998.990       9.225      12.522      12.172       9.286      11.309     242.301
  1767.000    2116.081   11000.844       9.009      12.543      12.508       9.593      11.515     243.384
  1767.250    2184.432   11057.904       8.880      12.671      12.817       9.899      11.746     244.545
  1767.500    2247.074   11114.992       8.982      12.799      12.597      10.206      12.002     238.940
  1767.750    2187.071   11049.941       9.079      12.917      12.354      10.494      12.280     240.236
  1768.000    2133.231   10917.311       9.176      12.253      12.110      10.639      12.558     241.502
  1768.250    2162.685   10784.744       9.272      11.542      11.867      10.750      12.836     241.729
  1768.500    2191.356   10752.858       9.362      10.831      11.623      10.861      13.114     236.573
  1768.750    2209.291   10790.486       9.113      10.620      11.380      10.973      13.392     235.280
  1769.000    2175.716   10821.057       8.883      10.884      11.067      11.084      13.377     236.924
  1769.250    2208.892   10669.801       8.652      10.141      10.619      11.195      13.099     238.567
  1769.500    2238.525   10536.329       8.422       9.382      10.171      11.306      12.820     240.211
  1769.750    2268.143   10585.390       8.228       9.629       9.723      11.412      12.542     241.775
  1770.000    2231.957   10636.941       8.314       9.876       9.275      11.139      12.236     239.759
  1770.250    2102.029   10688.469       8.404      10.114       8.827      10.815      12.148     237.694
  1770.500    2112.451   10740.021       8.494       9.591       8.379      10.491      12.051     239.833
  1770.750    2122.868   10791.547       8.589       8.948       8.004      10.168      11.954     242.127
  1771.000    2014.709   10843.099       8.423       8.305       8.098       9.844      11.856     244.422
  1771.250    2026.962   10896.174       8.149       8.345       8.195       9.491      11.759     246.716
  1771.500    2038.027   10453.500       7.875       8.977       8.292       9.214      11.661     249.241
  1771.750    2047.981   10480.363       7.601       9.608       8.394       8.919      11.631     241.460
  1772.000    2001.414   10507.241       7.327       9.482       8.440       8.623      11.750     243.428
  1772.250    1959.114   10274.069       7.391       7.912       8.472       8.328      11.859     245.192
  1772.500    1978.686    9913.131       7.686       7.513       8.504       8.033      11.969     241.790
  1772.750    1999.767   10018.090       7.980       8.875       8.535       8.129      12.078     240.530
  1773.000    2020.858   10110.866       8.274      10.237       8.567       8.345      12.187     241.906
  1773.250    1969.577   10203.598       8.568       8.577       8.598       8.560      12.294     238.914
  1773.500    1954.826   10296.374       8.825       8.831       8.136       8.775      12.009     235.608
  1773.750    1967.746   10389.105       8.309      10.029       7.613       8.990      11.653     244.684
  1774.000    1980.673   10481.882       7.851      10.630       7.089       9.205      11.296     254.818
  1774.250    1993.593   10574.613       7.393       9.936       6.566       9.420      10.940     260.179
  1774.500    2006.520   10667.389       6.936       9.242       6.043       9.425      10.626     247.640
  1774.750    1964.483   10726.061       6.475       9.185       5.569       9.049      10.342     239.696
  1775.000    1951.111   10460.669       6.581       9.590       5.969       8.673      10.089     243.945
  1775.250    1974.322   10558.127       6.836       9.726       6.430       8.297       9.836     235.310
  1775.500    1997.544   10677.637       7.090       8.059       6.892       7.921       9.582     243.871
  1775.750    2020.754   10807.386       7.196       8.430       7.353       7.522       9.329     252.429
  1776.000    2039.611   10748.136       7.156       8.820       7.759       7.262       9.076     259.553
  1776.250    2000.939   10599.369       7.116       9.209       7.468       7.023       8.852     247.028
  1776.500    2018.455   10450.530       7.076       9.599       7.207       6.784       8.671     243.261
  1776.750    2045.240   10452.476       7.036       9.862       6.947       6.546       8.498     244.615
  1777.000    2072.040   10567.398       6.997       9.492       6.686       6.291       8.324     245.970
  1777.250    2098.826   10682.266       7.227       9.113       6.641       6.506       8.151     240.154
  1777.500    2088.312   10797.188       7.673       9.191       6.660       6.737       7.977     234.638
  1777.750    2017.896   10912.056       8.119       9.679       6.679       6.967       7.799     237.792
  1778.000    2049.292   11026.979       8.565      10.167       6.700       7.198       7.883     240.947
  1778.250    2103.238   11136.348       9.011      10.655       7.059       7.429       8.050     244.101
  1778.500    2157.210   11069.208       9.490      11.143       7.480       7.678       8.216     247.698
  1778.750    2168.982   10974.793       9.508      11.646       7.901       7.792       8.383     231.311
  1779.000    2180.212   11000.966       9.528      11.442       8.322       7.916       8.549     235.469
  1779.250    2228.345   11166.548       9.548      11.011       8.743       8.040       8.716     239.481
  1779.500    2276.502   11332.211       9.568      10.967       9.165       8.164       8.882     243.496
  1779.750    2291.401   11497.793       9.588      11.780       9.493       8.288       9.049     243.615
  1780.000    2169.266   11663.456      10.053      12.593       9.797       8.412       9.215     224.006
  1780.250    2101.744   11829.037      10.970      12.710      10.100       8.536       9.382     226.855
  1780.500    2125.992   11976.181      11.888      12.195      10.436       8.673       9.548     229.167
  1780.750    2066.853   11779.156      12.754      13.029      11.345      10.377       9.903     222.350
  1781.000    2001.101   11760.566      16.003      19.261      12.364      12.279      10.436     219.242
  1781.250    1928.930   11916.633      19.419      25.591      13.383      14.181      10.968     220.299
  1781.500    1917.384   12072.774      23.069      20.085      13.778      14.556      11.326     218.568
  1781.750    1930.708   12228.840      18.710      17.906      13.063      13.428      11.071     215.845
  1782.000    1942.705   12384.982      14.031      19.455      12.347      12.300      10.815     222.984
  1782.250    1871.412   12404.474      13.499      19.856      11.632      11.172      11.025     235.317
