~Version Information

VERS.                     1.20: CWLS log ASCII Standard - VERSION  1.20

WRAP.                       NO: One line per depth step

~Well Information Block

#MNEM.UNIT           Data Type   Information

#컴컴컴컴컴        컴컴컴컴컴�   컴컴컴컴컴컴컴�

STRT.M               1295.000 :

STOP.M               1895.000 :

STEP.M                  0.250 :

NULL.                 999.000 :

COMP.                  COMPANY:  Zaklad Geofizyka Krakow

WELL.                     WELL:  

FLD .                    FIELD:  

LOC .                 LOCATION:  Nieznany

PROV.                 PROVINCE:  Nieznany

CNTY.                   COUNTY:   

STAT.                    STATE:   

CTRY.                  COUNTRY:  Poland   

SRVC.          SERVICE COMPANY:  Zaklad Geofizyka Krakow   

DATE.                 LOG DATE:  Nieznany

UWI .           UNIQUE WELL ID:   

~Curve Information Block

#MNEM.UNIT         API CODE      Curve Description

#컴컴컴컴컴        컴컴컴컴컴�   컴컴컴컴컴컴컴�

DEPTH.M                       :   1    DEPTH

GR.C/MN                       :   2    Gamma Naturalne

NEGR.C/MN                     :   3    Neutron-Gamma

EL02.OHMM                     :   4    Gradientowa spagowa   0.55m

EL03.OHMM                     :   5    Gradientowa spagowa   1.05m

EL09.OHMM                     :   6    Gradientowa spagowa  2.625m

EL14.OHMM                     :   7    Gradientowa spagowa   4.25m

EL28.OHMM                     :   8    Gradientowa spagowa    8.5m

CALI.MM                       :   9    Srednica otworu

~Parameter Information Block

#MNEM.UNIT             Value      Description

#컴컴컴컴컴        컴컴컴컴컴�   컴컴컴컴컴컴컴�

DD  .M                 -1.000 :  Depth Driller

DL  .M                 -1.000 :  Depth Logger

BS  .MM                    -1 :  Bit Size

BS1 .                         :  Bit Size1

BS2 .                         :  Bit Size2

BS3 .                         :  Bit Size3

CBD .M                 -1.000 :  Casing Bottom Driller

CBL .M                 -1.000 :  Casing Bottom Logger

CSIZ.IN                       :  Casing Size

CSIN.MM                    -1 :  Internal Casing Size

CS1 .                         :  Casing Size 1

CS2 .                         :  Casing Size 2

CS3 .                         :  Casing Size 3

CAST.                         :  Casing Thickness

FD  .G/C3              -1.000 :  Mud Fluid Density

DFTH.                         :  Drilling Fluid Thixotropy

DFL .C3                    -1 :  Mud Fluid Loss

DFV .S/1500C3              -1 :  Mud Fluid Viscosity

DFPH.                         :  Drilling Fluid Ph

SALI.G/L               -1.000 :  Salinity of the Mud

RMS .OHMM              -1.000 :  Resistivity of Mud Sample

MST .DEGC              -1.000 :  Mud Sample Temperature

RMC .OHMM                     :  Mud Cake Resistivity

MCST.                         :  Mud Cake Sample Temperature

RMFS.                         :  Mud Filtrate Resistivity

MFST.                         :  Mud Filtrate Sample Temperature

MRT .                         :  Maximum Recorded Temperature

BHT .DEGC                     :  Bottom Hole Temperature

MST .                         :  Mean Surface Temperature

TGRD.                         :  Temperature Gradient

MDEN.                         :  Matrix Density

DTM .                         :  Delta-T Matrix

FDEN.                         :  Fluid Density

DTF .                         :  Delta-T Fluid

MATR.                         :  Matrix (0=LIME,1=SAND,2=DOLO)

FNUM.                         :  Tortuosity  Constant Archie's (a)

FEXP.                         :  Cementation Exponent Archie's (m)

SEXP.                         :  Saturation Exponent Archie's (n)

LATI.                         :  Latitude

LONG.                         :  Longitude

PDEV.M                 -1.000 :  Elevation of Permanent Datum

EGL .M                 -1.000 :  Elevation of Ground Level

EDF .M                        :  Elevation of Derrick Floor

EKB .M                 -1.000 :  Elevation of Kelly Bushing

~Other Information

#MNEM.UNIT           DATA Type   Information

#컴컴컴컴컴        컴컴컴컴컴�   컴컴컴컴컴컴컴�

COM1.               COMMENT #1:

COM2.               COMMENT #2:

COM3.               COMMENT #3:

COM4.               COMMENT #4:

OSRV.           OTHER SERVICES:   

IDGR.      GROUP IDENTIFICATOR:  Nieznany

LU  .             LOGGING UNIT:  Nieznany

CABL.               CABLE TYPE:  Nieznany

ENGI.          ENGINEER'S NAME:  Nieznany

OPER.          OPERATOR'S NAME:  Nieznany

ELAB.            ELABORATED BY:  Nieznany

VERY.              VERYFIED BY:  Nieznany

CASX.              CASING TYPE:   

DFT .      DRILLING FLUID TYPE:  Nieznany

MSS .        MUD SAMPLE SOURCE:   

MCSS.          MUD CAKE SOURCE:   

MFSS.      MUD FILTRATE SOURCE:   

LMF .        LOG MEASURED FROM:  ground level   

PDAT.          PERMANENT DATUM:  ground level   

~A DEPTH       GR         NEGR        EL02        EL03        EL09        EL14        EL28        CALI    
# ...
  1463.750    1606.171   16818.611      52.121      66.987      17.747      14.526      20.645     223.664
  1464.000    1668.390   16183.950      45.885      55.860      16.563      14.439      19.190     225.518
  1464.250    1730.578   15173.100      39.651      44.738      15.380      13.439      17.736     228.454
  1464.500    1792.797   14161.756      33.414      33.610      14.196      12.439      16.281     231.392
  1464.750    1854.986   13150.905      27.181      21.684      13.018      11.455      14.827     234.530
  1465.000    1917.204   12139.561      20.944      16.427      12.698      10.625      13.372     236.915
  1465.250    1979.393   11128.710      14.710      13.029      12.350       9.848      11.918     239.512
  1465.500    2041.611   10093.175       8.474      10.277      12.002       9.071      10.469     242.110
  1465.750    2103.800   10119.881       6.147       8.876      11.654       8.294      10.144     241.605
  1466.000    2166.019   10147.256       6.215       7.473      11.306       7.516       9.820     238.539
  1466.250    2071.188   10174.617       6.283       7.147      10.972       7.029       9.496     237.439
  1466.500    2091.916   10175.459       6.276       6.820      10.017       7.240       9.172     239.053
  1466.750    2017.075   10103.862       6.158       6.490       8.996       7.439       8.877     240.666
  1467.000    2032.231   10032.231       6.038       6.196       7.974       7.639       8.898     242.280
  1467.250    2058.892    9960.636       6.076       5.907       7.004       7.838       8.921     243.894
  1467.500    2059.852    9889.005       6.114       5.618       6.436       8.038       8.943     244.419
  1467.750    1986.709    9816.534       6.151       5.656       6.111       8.237       8.965     243.462
  1468.000    1985.754    9862.223       6.162       5.859       5.965       8.354       8.812     242.506
  1468.250    1997.537    9940.672       6.168       6.061       5.831       8.287       8.521     241.595
  1468.500    1916.554   10019.158       6.174       6.264       5.696       8.219       8.230     243.372
  1468.750    1935.106   10097.607       6.180       6.504       5.562       8.154       7.939     245.409
  1469.000    1956.195   10176.094       6.091       6.790       5.428       8.302       7.630     243.525
  1469.250    1896.428   10254.543       5.885       7.100       5.482       8.482       7.935     241.075
  1469.500    1951.956   10333.029       5.678       7.419       5.696       8.662       8.262     238.623
  1469.750    2006.590   10411.479       5.483       7.795       5.911       8.842       8.601     236.172
  1470.000    2061.250   10489.966       5.485       8.170       6.125       9.026       8.874     235.747
  1470.250    2032.140   10517.830       5.521       8.372       6.340       8.321       9.144     236.967
  1470.500    2011.483   10362.717       5.556       6.994       6.554       7.601       9.414     238.189
  1470.750    2030.632   10209.808       5.591       5.633       6.515       6.882       9.497     238.648
  1471.000    2019.533   10176.954       5.627       5.647       5.774       6.336       8.854     237.355
  1471.250    2000.833   10241.716       5.509       5.661       5.207       6.187       8.211     236.154
  1471.500    2021.614   10306.509       5.350       5.676       5.610       6.038       7.922     235.364
  1471.750    2063.141   10371.270       5.187       6.206       6.035       5.889       7.720     235.966
  1472.000    2104.688   10438.150       5.137       7.287       6.459       5.741       7.519     236.569
  1472.250    2143.061   10335.883       5.119       8.322       6.884       5.592       7.641     237.171
  1472.500    2096.521   10345.673       5.101       9.324       7.309       5.443       7.999     237.884
  1472.750    2063.766   10403.656       5.081       8.808       7.733       5.356       8.356     236.426
  1473.000    2114.211   10461.668       5.338       9.480       8.158       5.588       8.713     234.637
  1473.250    2164.436   10519.651       5.753      10.780       8.583       5.827       9.071     232.849
  1473.500    2214.685   10577.663       6.167       9.654       9.008       6.065       9.428     232.870
  1473.750    2202.043   10635.646       6.582       7.625       9.431       6.304       9.785     235.797
  1474.000    2097.770   10693.657       6.997       7.629       8.712       6.542       9.766     232.133
  1474.250    2117.633   10708.143       7.298       7.930       7.714       6.781       9.289     233.743
  1474.500    2137.506   10580.604       7.258       7.853       6.715       6.788       8.813     223.224
  1474.750    2091.119   10463.178       7.219       7.287       6.136       6.512       8.336     224.317
  1475.000    2059.084   10515.562       7.177       7.350       6.471       6.236       7.860     223.789
  1475.250    2100.110   10573.617       7.591       9.634       6.784       6.152       7.569     218.291
  1475.500    2141.157   10631.699       8.035      11.864       7.097       6.337       7.695     221.415
  1475.750    2178.496   10689.754       8.479      11.020       7.410       6.523       7.814     226.619
  1476.000    2154.830   10747.838       8.900      10.195       7.723       6.709       7.933     231.825
  1476.250    2126.077   10798.107       9.215       9.371       7.810       6.894       8.091     237.029
  1476.500    2097.310   10743.128       9.515       8.707       7.768       7.059       8.419     236.010
  1476.750    2231.987   10720.726       9.815       9.844       8.016       6.825       8.763     229.847
  1477.000    2210.635   10807.384      10.115      10.796       8.658       6.615       9.108     231.289
  1477.250    2163.587   10890.200      10.414      11.437       9.300       6.495       9.452     232.625
  1477.500    2121.778   10973.057      10.714      10.766       9.942       6.977       9.837     224.928
  1477.750    2127.808   11055.873      10.167      10.091      10.288       7.489       9.330     224.830
  1478.000    2036.163   11138.729       9.198       9.743       9.634       8.001       8.757     221.284
  1478.250    2052.775   11084.238       9.027       9.941       8.994       8.257       8.403     220.431
  1478.500    2070.502   10903.223       8.816       9.041       8.353       7.850       8.679     225.337
  1478.750    2037.413   10940.301       8.605       8.081       7.712       7.463       8.946     229.861
  1479.000    2003.205   10978.155       8.395       7.159       7.557       7.077       9.213     234.387
  1479.250    2034.843   10909.118       8.201       8.107       7.945       6.691       9.479     233.767
  1479.500    2126.368   10761.359       7.563       9.019       8.334       6.304       9.746     230.603
  1479.750    2217.849   10682.102       6.969       9.577       8.723       6.001       9.510     232.493
  1480.000    2241.518   10774.456       7.227       8.906       9.111       6.605       9.000     234.642
  1480.250    2198.369   10861.879       7.511       8.247       9.466       7.267       8.490     235.151
  1480.500    2155.199   10949.345       7.795       7.587       8.796       7.930       7.944     229.113
  1480.750    2228.896   11036.769       8.079       6.961       8.065       8.026       8.037     230.812
  1481.000    2253.160   11124.234       8.049       8.859       7.354       7.823       8.137     232.641
  1481.250    2238.811   11213.430       7.736       9.907       7.909       7.884       8.236     229.131
  1481.500    2225.197   11155.815       7.422       9.242       8.450       8.891       8.345     225.047
  1481.750    2319.462   11054.664       7.869       9.329       8.990       9.880       8.805     223.246
  1482.000    2409.131   10953.463      12.807      11.703       9.530      10.870       9.311     223.487
  1482.250    2498.756   11218.239      18.057      13.971      10.070      11.859       9.817     217.712
