~Version Information

VERS.                     1.20: CWLS log ASCII Standard - VERSION  1.20

WRAP.                       NO: One line per depth step

~Well Information Block

#MNEM.UNIT           Data Type   Information

#컴컴컴컴컴        컴컴컴컴컴�   컴컴컴컴컴컴컴�

STRT.M               1295.000 :

STOP.M               1895.000 :

STEP.M                  0.250 :

NULL.                 999.000 :

COMP.                  COMPANY:  Zaklad Geofizyka Krakow

WELL.                     WELL:  

FLD .                    FIELD:  

LOC .                 LOCATION:  Nieznany

PROV.                 PROVINCE:  Nieznany

CNTY.                   COUNTY:   

STAT.                    STATE:   

CTRY.                  COUNTRY:  Poland   

SRVC.          SERVICE COMPANY:  Zaklad Geofizyka Krakow   

DATE.                 LOG DATE:  Nieznany

UWI .           UNIQUE WELL ID:   

~Curve Information Block

#MNEM.UNIT         API CODE      Curve Description

#컴컴컴컴컴        컴컴컴컴컴�   컴컴컴컴컴컴컴�

DEPTH.M                       :   1    DEPTH

GR.C/MN                       :   2    Gamma Naturalne

NEGR.C/MN                     :   3    Neutron-Gamma

EL02.OHMM                     :   4    Gradientowa spagowa   0.55m

EL03.OHMM                     :   5    Gradientowa spagowa   1.05m

EL09.OHMM                     :   6    Gradientowa spagowa  2.625m

EL14.OHMM                     :   7    Gradientowa spagowa   4.25m

EL28.OHMM                     :   8    Gradientowa spagowa    8.5m

CALI.MM                       :   9    Srednica otworu

~Parameter Information Block

#MNEM.UNIT             Value      Description

#컴컴컴컴컴        컴컴컴컴컴�   컴컴컴컴컴컴컴�

DD  .M                 -1.000 :  Depth Driller

DL  .M                 -1.000 :  Depth Logger

BS  .MM                    -1 :  Bit Size

BS1 .                         :  Bit Size1

BS2 .                         :  Bit Size2

BS3 .                         :  Bit Size3

CBD .M                 -1.000 :  Casing Bottom Driller

CBL .M                 -1.000 :  Casing Bottom Logger

CSIZ.IN                       :  Casing Size

CSIN.MM                    -1 :  Internal Casing Size

CS1 .                         :  Casing Size 1

CS2 .                         :  Casing Size 2

CS3 .                         :  Casing Size 3

CAST.                         :  Casing Thickness

FD  .G/C3              -1.000 :  Mud Fluid Density

DFTH.                         :  Drilling Fluid Thixotropy

DFL .C3                    -1 :  Mud Fluid Loss

DFV .S/1500C3              -1 :  Mud Fluid Viscosity

DFPH.                         :  Drilling Fluid Ph

SALI.G/L               -1.000 :  Salinity of the Mud

RMS .OHMM              -1.000 :  Resistivity of Mud Sample

MST .DEGC              -1.000 :  Mud Sample Temperature

RMC .OHMM                     :  Mud Cake Resistivity

MCST.                         :  Mud Cake Sample Temperature

RMFS.                         :  Mud Filtrate Resistivity

MFST.                         :  Mud Filtrate Sample Temperature

MRT .                         :  Maximum Recorded Temperature

BHT .DEGC                     :  Bottom Hole Temperature

MST .                         :  Mean Surface Temperature

TGRD.                         :  Temperature Gradient

MDEN.                         :  Matrix Density

DTM .                         :  Delta-T Matrix

FDEN.                         :  Fluid Density

DTF .                         :  Delta-T Fluid

MATR.                         :  Matrix (0=LIME,1=SAND,2=DOLO)

FNUM.                         :  Tortuosity  Constant Archie's (a)

FEXP.                         :  Cementation Exponent Archie's (m)

SEXP.                         :  Saturation Exponent Archie's (n)

LATI.                         :  Latitude

LONG.                         :  Longitude

PDEV.M                 -1.000 :  Elevation of Permanent Datum

EGL .M                 -1.000 :  Elevation of Ground Level

EDF .M                        :  Elevation of Derrick Floor

EKB .M                 -1.000 :  Elevation of Kelly Bushing

~Other Information

#MNEM.UNIT           DATA Type   Information

#컴컴컴컴컴        컴컴컴컴컴�   컴컴컴컴컴컴컴�

COM1.               COMMENT #1:

COM2.               COMMENT #2:

COM3.               COMMENT #3:

COM4.               COMMENT #4:

OSRV.           OTHER SERVICES:   

IDGR.      GROUP IDENTIFICATOR:  Nieznany

LU  .             LOGGING UNIT:  Nieznany

CABL.               CABLE TYPE:  Nieznany

ENGI.          ENGINEER'S NAME:  Nieznany

OPER.          OPERATOR'S NAME:  Nieznany

ELAB.            ELABORATED BY:  Nieznany

VERY.              VERYFIED BY:  Nieznany

CASX.              CASING TYPE:   

DFT .      DRILLING FLUID TYPE:  Nieznany

MSS .        MUD SAMPLE SOURCE:   

MCSS.          MUD CAKE SOURCE:   

MFSS.      MUD FILTRATE SOURCE:   

LMF .        LOG MEASURED FROM:  ground level   

PDAT.          PERMANENT DATUM:  ground level   

~A DEPTH       GR         NEGR        EL02        EL03        EL09        EL14        EL28        CALI    
# ...
  1557.500    1894.521   13022.818      13.253      12.534      17.697      23.359      35.534     228.902
  1557.750    1920.475   13795.848      20.029      14.719      19.516      20.769      33.684     226.270
  1558.000    1946.441   14699.441      26.809      21.963      19.251      18.178      29.403     223.833
  1558.250    1974.372   15602.595      33.586      23.058      17.322      15.588      25.123     222.800
  1558.500    1951.772   16506.189      36.564      19.726      15.393      12.997      20.842     228.648
  1558.750    1930.204   16693.520      30.663      20.500      13.464      10.407      16.177     234.651
  1559.000    1943.330   15924.139      24.760      16.578      11.535       7.816      14.589     236.113
  1559.250    1862.057   15155.133      18.859      12.106       9.606       7.558      14.032     230.130
  1559.500    1877.461   14385.752      12.955      12.919       8.586       8.172      13.588     229.472
  1559.750    1872.713   13723.397      11.493      14.828      10.324       8.786      13.588     230.354
  1560.000    1853.365   13891.688      12.752      16.738      12.063       8.925      13.589     231.237
  1560.250    1885.716   14068.392      14.010      17.673      13.483       7.682      13.589     229.414
  1560.500    1945.240   14233.187      15.269      15.381      12.723       6.290      13.316     226.660
  1560.750    1954.127   14162.193      16.527      13.143      11.928       7.576      12.610     223.908
  1561.000    1946.010   14384.233      17.594      10.905      11.100       9.039      11.905     221.430
  1561.250    1989.422   14606.164      12.258      12.191      11.737      10.501      11.567     222.681
  1561.500    2032.855   14631.612      12.083      14.934      12.400      11.964      11.338     223.820
  1561.750    1998.978   14442.158      15.302      17.675      13.105      12.363      11.256     224.846
  1562.000    1914.537   14742.509      18.523      20.636      12.848      12.054      11.863     224.086
  1562.250    1943.392   15065.326      18.988      18.599      12.212      11.745      12.482     223.206
  1562.500    1971.359   15388.301      16.558      16.383      11.575      12.537      13.101     224.173
  1562.750    1990.325   15704.732      14.130      14.167      12.915      14.181      13.731     226.477
  1563.000    1957.021   15362.414      13.088      14.687      16.025      15.825      14.023     228.782
  1563.250    1972.480   14885.661      15.541      18.171      18.928      16.289      14.334     231.086
  1563.500    1991.346   14408.675      17.994      21.657      17.795      15.390      14.115     230.651
  1563.750    1953.846   13984.661      20.446      24.800      16.133      14.491      13.784     228.326
  1564.000    1926.905   14226.113      23.116      19.969      14.470      13.591      13.494     226.000
  1564.250    1971.520   14487.895      15.849      15.676      12.649      13.926      14.634     223.675
  1564.500    2016.157   14749.802      16.534      17.055      14.488      15.691      15.649     222.866
  1564.750    2060.772   14684.516      17.219      15.376      18.324      17.454      16.663     223.309
  1565.000    2105.409   14511.219      15.384      17.568      22.161      19.218      17.678     222.988
  1565.250    1923.006   14857.480      16.375      27.134      25.997      20.982      18.638     222.018
  1565.500    1937.414   15340.454      24.566      36.704      29.834      22.746      20.388     221.047
  1565.750    1756.197   15823.191      32.752      46.270      33.670      24.510      22.152     220.742
  1566.000    1771.087   16306.165      40.942      55.840      37.723      26.577      23.916     222.189
  1566.250    1784.830   16788.902      49.128      65.406      32.604      23.987      25.680     223.472
  1566.500    1705.347   17271.877      56.171      74.976      27.177      20.857      26.103     226.329
  1566.750    1691.230   16935.977      48.711      73.235      21.753      17.729      23.334     229.226
  1567.000    1600.439   16053.889      42.165      59.817      16.326      14.600      20.913     232.125
  1567.250    1695.245   15172.232      35.622      46.405      15.486      12.482      18.741     235.022
  1567.500    1790.098   14290.144      29.076      32.987      15.822      12.949      16.955     238.384
  1567.750    1884.905   13408.486      22.533      18.822      16.158      13.397      16.246     235.856
  1568.000    1944.417   12526.397      15.987      14.854      16.494      13.798      15.536     232.843
  1568.250    1919.816   12536.382      10.084      14.082      16.672      12.763      14.828     229.832
  1568.500    1895.203   12958.491      12.244      13.308      15.864      11.825      14.118     227.095
  1568.750    1915.206   13380.395      11.086      12.536      15.011      10.888      13.351     228.472
  1569.000    1949.333   13765.412       9.927      11.762      14.159       9.950      12.965     229.733
  1569.250    1983.443   13431.605      11.610      10.970      13.307      11.708      12.672     230.936
  1569.500    1987.226   13705.618      16.047      10.545      13.328      13.467      12.843     228.452
  1569.750    2023.722   13990.338      15.349      15.021      16.599      15.225      13.645     225.449
  1570.000    2054.879   14275.198      20.268      21.233      19.545      16.161      14.447     222.600
  1570.250    1977.256   14559.918      29.161      27.441      18.292      15.410      15.244     223.530
  1570.500    1884.508   14868.695      31.667      29.553      17.154      14.660      14.656     224.413
  1570.750    1892.238   14738.690      25.773      24.970      16.015      13.910      13.741     225.297
  1571.000    1900.745   14836.999      19.875      20.385      14.877      13.159      13.005     226.138
  1571.250    1801.761   15129.975      13.981      15.803      13.738      12.412      13.825     223.937
  1571.500    1827.976   14953.244       8.083      12.925      12.600      13.424      14.511     221.835
  1571.750    1853.420   14528.758      11.429      12.522      14.346      14.859      15.431     219.734
  1572.000    1878.876   14811.325      17.764      16.450      17.580      16.454      17.279     218.434
  1572.250    1830.858   15453.957      24.095      30.680      20.813      16.174      19.051     218.296
  1572.500    1776.706   16096.903      30.430      44.916      24.047      15.859      20.825     218.158
  1572.750    1792.583   16739.535      36.761      59.146      26.457      15.544      22.597     218.021
  1573.000    1765.272   17382.480      43.096      75.489      24.612      15.768      24.236     217.883
  1573.250    1693.397   17706.875      49.822      60.049      22.723      16.670      22.073     217.745
  1573.500    1689.654   17164.678      35.357      41.918      23.298      17.572      21.055     217.607
  1573.750    1711.460   16647.488      14.416      30.565      26.496      18.474      21.775     217.470
  1574.000    1733.276   16130.044      28.578      45.097      25.761      19.377      22.495     218.951
  1574.250    1755.082   16263.088      43.658      37.997      24.479      19.179      21.722     222.242
  1574.500    1776.898   16859.826      34.534      31.218      23.198      18.307      19.137     225.575
  1574.750    1797.921   17163.139      20.674      24.443      21.917      17.435      16.553     222.300
  1575.000    1725.996   16581.766      25.446      17.313      21.700      16.563      14.702     218.983
  1575.250    1735.616   16920.414      33.887      34.499      22.933      16.218      15.338     218.147
  1575.500    1721.827   17271.934      43.684      41.080      23.761      16.074      15.974     218.111
  1575.750    1714.012   17045.736      40.704      64.680      23.385      15.922      15.659     218.076
  1576.000    1743.644   16640.637      37.154      58.229      23.058      15.697      14.967     218.041
