~Version Information

VERS.                     1.20: CWLS log ASCII Standard - VERSION  1.20

WRAP.                       NO: One line per depth step

~Well Information Block

#MNEM.UNIT           Data Type   Information

#컴컴컴컴컴        컴컴컴컴컴�   컴컴컴컴컴컴컴�

STRT.M               1295.000 :

STOP.M               1895.000 :

STEP.M                  0.250 :

NULL.                 999.000 :

COMP.                  COMPANY:  Zaklad Geofizyka Krakow

WELL.                     WELL:  

FLD .                    FIELD:  

LOC .                 LOCATION:  Nieznany

PROV.                 PROVINCE:  Nieznany

CNTY.                   COUNTY:   

STAT.                    STATE:   

CTRY.                  COUNTRY:  Poland   

SRVC.          SERVICE COMPANY:  Zaklad Geofizyka Krakow   

DATE.                 LOG DATE:  Nieznany

UWI .           UNIQUE WELL ID:   

~Curve Information Block

#MNEM.UNIT         API CODE      Curve Description

#컴컴컴컴컴        컴컴컴컴컴�   컴컴컴컴컴컴컴�

DEPTH.M                       :   1    DEPTH

GR.C/MN                       :   2    Gamma Naturalne

NEGR.C/MN                     :   3    Neutron-Gamma

EL02.OHMM                     :   4    Gradientowa spagowa   0.55m

EL03.OHMM                     :   5    Gradientowa spagowa   1.05m

EL09.OHMM                     :   6    Gradientowa spagowa  2.625m

EL14.OHMM                     :   7    Gradientowa spagowa   4.25m

EL28.OHMM                     :   8    Gradientowa spagowa    8.5m

CALI.MM                       :   9    Srednica otworu

~Parameter Information Block

#MNEM.UNIT             Value      Description

#컴컴컴컴컴        컴컴컴컴컴�   컴컴컴컴컴컴컴�

DD  .M                 -1.000 :  Depth Driller

DL  .M                 -1.000 :  Depth Logger

BS  .MM                    -1 :  Bit Size

BS1 .                         :  Bit Size1

BS2 .                         :  Bit Size2

BS3 .                         :  Bit Size3

CBD .M                 -1.000 :  Casing Bottom Driller

CBL .M                 -1.000 :  Casing Bottom Logger

CSIZ.IN                       :  Casing Size

CSIN.MM                    -1 :  Internal Casing Size

CS1 .                         :  Casing Size 1

CS2 .                         :  Casing Size 2

CS3 .                         :  Casing Size 3

CAST.                         :  Casing Thickness

FD  .G/C3              -1.000 :  Mud Fluid Density

DFTH.                         :  Drilling Fluid Thixotropy

DFL .C3                    -1 :  Mud Fluid Loss

DFV .S/1500C3              -1 :  Mud Fluid Viscosity

DFPH.                         :  Drilling Fluid Ph

SALI.G/L               -1.000 :  Salinity of the Mud

RMS .OHMM              -1.000 :  Resistivity of Mud Sample

MST .DEGC              -1.000 :  Mud Sample Temperature

RMC .OHMM                     :  Mud Cake Resistivity

MCST.                         :  Mud Cake Sample Temperature

RMFS.                         :  Mud Filtrate Resistivity

MFST.                         :  Mud Filtrate Sample Temperature

MRT .                         :  Maximum Recorded Temperature

BHT .DEGC                     :  Bottom Hole Temperature

MST .                         :  Mean Surface Temperature

TGRD.                         :  Temperature Gradient

MDEN.                         :  Matrix Density

DTM .                         :  Delta-T Matrix

FDEN.                         :  Fluid Density

DTF .                         :  Delta-T Fluid

MATR.                         :  Matrix (0=LIME,1=SAND,2=DOLO)

FNUM.                         :  Tortuosity  Constant Archie's (a)

FEXP.                         :  Cementation Exponent Archie's (m)

SEXP.                         :  Saturation Exponent Archie's (n)

LATI.                         :  Latitude

LONG.                         :  Longitude

PDEV.M                 -1.000 :  Elevation of Permanent Datum

EGL .M                 -1.000 :  Elevation of Ground Level

EDF .M                        :  Elevation of Derrick Floor

EKB .M                 -1.000 :  Elevation of Kelly Bushing

~Other Information

#MNEM.UNIT           DATA Type   Information

#컴컴컴컴컴        컴컴컴컴컴�   컴컴컴컴컴컴컴�

COM1.               COMMENT #1:

COM2.               COMMENT #2:

COM3.               COMMENT #3:

COM4.               COMMENT #4:

OSRV.           OTHER SERVICES:   

IDGR.      GROUP IDENTIFICATOR:  Nieznany

LU  .             LOGGING UNIT:  Nieznany

CABL.               CABLE TYPE:  Nieznany

ENGI.          ENGINEER'S NAME:  Nieznany

OPER.          OPERATOR'S NAME:  Nieznany

ELAB.            ELABORATED BY:  Nieznany

VERY.              VERYFIED BY:  Nieznany

CASX.              CASING TYPE:   

DFT .      DRILLING FLUID TYPE:  Nieznany

MSS .        MUD SAMPLE SOURCE:   

MCSS.          MUD CAKE SOURCE:   

MFSS.      MUD FILTRATE SOURCE:   

LMF .        LOG MEASURED FROM:  ground level   

PDAT.          PERMANENT DATUM:  ground level   

~A DEPTH       GR         NEGR        EL02        EL03        EL09        EL14        EL28        CALI    
# ...
  1876.250    1399.578   16877.211      30.229      41.823      40.322      33.908      26.273     202.010
  1876.500    1417.698   16675.502      27.677      42.856      40.288      33.311      25.955     201.899
  1876.750    1440.504   16465.373      27.657      43.888      40.254      32.714      26.245     202.046
  1877.000    1463.321   16486.986      29.162      44.921      39.943      32.116      26.535     202.044
  1877.250    1486.126   16585.383      30.606      45.954      38.987      31.674      26.824     201.934
  1877.500    1495.075   16456.785      29.523      45.366      38.030      32.859      27.114     201.823
  1877.750    1465.394   16347.037      28.019      43.048      38.076      34.162      27.375     201.713
  1878.000    1435.699   16383.162      26.514      40.730      39.507      35.465      28.566     201.603
  1878.250    1414.973   16381.877      25.009      38.412      40.938      36.768      29.736     201.572
  1878.500    1428.028   16222.864      25.926      48.757      42.369      38.071      30.906     201.809
  1878.750    1429.066   16062.639      31.151      46.656      43.800      39.410      32.076     202.040
  1879.000    1383.394   15922.838      34.567      45.252      44.366      39.430      33.027     202.271
  1879.250    1384.125   16264.973      33.914      49.780      43.334      39.057      33.674     202.502
  1879.500    1360.648   16568.441      33.144      54.600      43.837      38.684      34.322     202.733
  1879.750    1336.509   16871.762      34.700      58.955      45.102      38.312      34.970     202.964
  1880.000    1312.358   17175.230      36.599      61.030      46.367      37.970      35.618     203.211
  1880.250    1343.692   17478.551      38.497      62.615      47.631      38.068      35.990     202.746
  1880.500    1396.193   17686.219      40.738      64.202      48.896      38.158      36.199     202.246
  1880.750    1448.667   17583.418      38.905      65.787      50.160      38.248      36.408     201.745
  1881.000    1492.352   17470.676      36.508      60.123      51.426      38.338      36.617     201.244
  1881.250    1455.977   17711.076      36.627      60.733      52.682      38.237      36.826     200.744
  1881.500    1462.480   17977.197      36.779      61.299      52.149      37.626      37.035     200.590
  1881.750    1480.535   18243.191      35.386      58.060      51.189      37.062      37.174     200.801
  1882.000    1498.600   18492.293      33.694      52.511      50.229      36.497      36.892     201.012
  1882.250    1486.807   18369.111      32.034      52.672      49.345      35.933      36.596     201.222
  1882.500    1453.651   18253.281      32.254      52.824      48.716      35.355      36.300     201.433
  1882.750    1478.935   18137.506      32.497      52.138      48.092      36.045      36.005     201.644
  1883.000    1503.724   18021.674      32.267      49.119      47.468      36.752      35.709     201.855
  1883.250    1475.207   17905.898      30.275      46.420      46.843      37.459      35.413     202.028
  1883.500    1447.237   17790.068      29.655      47.684      46.456      38.166      35.410     201.851
  1883.750    1419.280   17781.975      31.705      49.674      46.402      38.873      35.626     201.661
  1884.000    1427.233   17898.461      33.756      51.665      46.348      39.212      35.842     201.470
  1884.250    1462.960   18014.891      35.326      53.655      46.294      38.768      35.792     201.280
  1884.500    1498.704   18131.377      33.649      53.612      46.240      38.324      35.661     201.090
  1884.750    1534.430   18121.512      31.888      51.105      45.984      37.880      35.531     200.892
  1885.000    1570.174   18050.998      30.225      48.596      45.157      37.436      35.401     200.812
  1885.250    1564.052   17980.518      30.715      46.591      44.402      37.024      35.271     200.765
  1885.500    1446.641   17910.004      31.179      47.520      43.646      36.829      35.141     200.717
  1885.750    1465.649   17920.535      31.643      48.479      42.890      36.684      34.811     200.670
  1886.000    1488.399   18039.352      31.736      48.183      42.134      36.538      34.409     200.623
  1886.250    1511.138   18158.111      30.981      45.485      41.394      36.379      34.008     200.575
  1886.500    1514.843   18276.928      30.225      47.072      41.960      36.209      33.606     200.523
  1886.750    1461.249   18395.688      29.536      50.281      42.796      36.001      33.402     199.529
  1887.000    1453.528   18514.504      32.615      53.492      43.633      35.792      33.483     198.414
  1887.250    1454.254   18566.508      35.856      56.701      44.469      35.584      33.561     197.300
  1887.500    1454.989   18469.115      39.098      59.912      45.306      35.375      34.433     196.185
  1887.750    1403.616   18378.641      42.339      60.907      44.668      35.370      35.365     196.052
  1888.000    1351.584   18356.125      42.381      59.424      44.312      35.471      36.474     196.249
  1888.250    1302.384   18592.496      38.846      57.943      45.600      35.572      36.818     196.447
  1888.500    1338.352   18828.980      35.309      56.300      46.889      35.673      37.241     197.387
  1888.750    1386.307   19065.352      36.041      58.329      48.177      35.774      37.665     199.290
  1889.000    1434.285   19301.838      39.346      60.605      49.466      36.057      38.089     200.614
  1889.250    1452.687   19538.207      38.950      62.702      50.749      36.574      38.441     200.182
  1889.500    1405.655   19774.695      37.459      61.667      50.273      37.092      38.692     199.749
  1889.750    1433.689   20011.066      35.969      60.293      49.373      37.609      38.930     199.317
  1890.000    1461.736   20220.076      34.490      58.919      48.471      38.127      39.168     198.884
  1890.250    1473.713   19859.383      36.221      57.546      48.613      38.644      38.894     999.000
  1890.500    1446.039   19956.205      36.079      58.067      50.196      39.232      38.116     999.000
  1890.750    1420.040   19953.746      36.262      64.097      51.778      37.675      37.337     999.000
  1891.000    1396.010   19310.832      39.635      63.491      49.073      35.870      36.559     999.000
  1891.250    1444.331   18628.602      43.307      52.229      40.351      34.067      35.780     999.000
  1891.500    1489.253   17946.039      39.653      40.961      30.650      32.263      37.560     999.000
  1891.750    1534.153   17263.809      33.049      29.698      33.717      30.513      42.440     999.000
  1892.000    1520.039   16581.246      26.442      22.245      37.171      33.733      47.321     999.000
  1892.250    1448.522   15899.016      19.839      22.933      40.624      37.833      52.201     999.000
  1892.500    1459.042   15216.452      13.232      21.273      42.560      41.936      57.082     999.000
  1892.750    1454.200   14534.223      18.779      19.545      40.265      46.036      62.050     999.000
  1893.000    1409.121   13851.658      21.409      23.822      37.969      47.598      60.813     999.000
  1893.250    1382.166   13690.383      21.344      28.400      35.674      45.220      57.803     999.000
  1893.500    1411.482   14601.228      24.194      32.981      33.378      42.841      54.791     999.000
  1893.750    1440.612   15428.993      27.963      37.559      31.083      40.462      51.781     999.000
  1894.000    1469.757   16257.164      32.111      42.139      28.787      38.083      48.769     999.000
  1894.250    1485.303   17055.215      31.126      45.860      26.835      35.705      45.759     999.000
  1894.500    1452.357   17085.373      30.030      45.183      28.768      33.326      42.747     999.000
  1894.750    1419.879   16964.219      29.567      45.290      30.869      30.948      39.737     999.000
