~Version Information

VERS.                     1.20: CWLS log ASCII Standard - VERSION  1.20

WRAP.                       NO: One line per depth step

~Well Information Block

#MNEM.UNIT           Data Type   Information

#컴컴컴컴컴        컴컴컴컴컴�   컴컴컴컴컴컴컴�

STRT.M               1295.000 :

STOP.M               1895.000 :

STEP.M                  0.250 :

NULL.                 999.000 :

COMP.                  COMPANY:  Zaklad Geofizyka Krakow

WELL.                     WELL:  

FLD .                    FIELD:  

LOC .                 LOCATION:  Nieznany

PROV.                 PROVINCE:  Nieznany

CNTY.                   COUNTY:   

STAT.                    STATE:   

CTRY.                  COUNTRY:  Poland   

SRVC.          SERVICE COMPANY:  Zaklad Geofizyka Krakow   

DATE.                 LOG DATE:  Nieznany

UWI .           UNIQUE WELL ID:   

~Curve Information Block

#MNEM.UNIT         API CODE      Curve Description

#컴컴컴컴컴        컴컴컴컴컴�   컴컴컴컴컴컴컴�

DEPTH.M                       :   1    DEPTH

GR.C/MN                       :   2    Gamma Naturalne

NEGR.C/MN                     :   3    Neutron-Gamma

EL02.OHMM                     :   4    Gradientowa spagowa   0.55m

EL03.OHMM                     :   5    Gradientowa spagowa   1.05m

EL09.OHMM                     :   6    Gradientowa spagowa  2.625m

EL14.OHMM                     :   7    Gradientowa spagowa   4.25m

EL28.OHMM                     :   8    Gradientowa spagowa    8.5m

CALI.MM                       :   9    Srednica otworu

~Parameter Information Block

#MNEM.UNIT             Value      Description

#컴컴컴컴컴        컴컴컴컴컴�   컴컴컴컴컴컴컴�

DD  .M                 -1.000 :  Depth Driller

DL  .M                 -1.000 :  Depth Logger

BS  .MM                    -1 :  Bit Size

BS1 .                         :  Bit Size1

BS2 .                         :  Bit Size2

BS3 .                         :  Bit Size3

CBD .M                 -1.000 :  Casing Bottom Driller

CBL .M                 -1.000 :  Casing Bottom Logger

CSIZ.IN                       :  Casing Size

CSIN.MM                    -1 :  Internal Casing Size

CS1 .                         :  Casing Size 1

CS2 .                         :  Casing Size 2

CS3 .                         :  Casing Size 3

CAST.                         :  Casing Thickness

FD  .G/C3              -1.000 :  Mud Fluid Density

DFTH.                         :  Drilling Fluid Thixotropy

DFL .C3                    -1 :  Mud Fluid Loss

DFV .S/1500C3              -1 :  Mud Fluid Viscosity

DFPH.                         :  Drilling Fluid Ph

SALI.G/L               -1.000 :  Salinity of the Mud

RMS .OHMM              -1.000 :  Resistivity of Mud Sample

MST .DEGC              -1.000 :  Mud Sample Temperature

RMC .OHMM                     :  Mud Cake Resistivity

MCST.                         :  Mud Cake Sample Temperature

RMFS.                         :  Mud Filtrate Resistivity

MFST.                         :  Mud Filtrate Sample Temperature

MRT .                         :  Maximum Recorded Temperature

BHT .DEGC                     :  Bottom Hole Temperature

MST .                         :  Mean Surface Temperature

TGRD.                         :  Temperature Gradient

MDEN.                         :  Matrix Density

DTM .                         :  Delta-T Matrix

FDEN.                         :  Fluid Density

DTF .                         :  Delta-T Fluid

MATR.                         :  Matrix (0=LIME,1=SAND,2=DOLO)

FNUM.                         :  Tortuosity  Constant Archie's (a)

FEXP.                         :  Cementation Exponent Archie's (m)

SEXP.                         :  Saturation Exponent Archie's (n)

LATI.                         :  Latitude

LONG.                         :  Longitude

PDEV.M                 -1.000 :  Elevation of Permanent Datum

EGL .M                 -1.000 :  Elevation of Ground Level

EDF .M                        :  Elevation of Derrick Floor

EKB .M                 -1.000 :  Elevation of Kelly Bushing

~Other Information

#MNEM.UNIT           DATA Type   Information

#컴컴컴컴컴        컴컴컴컴컴�   컴컴컴컴컴컴컴�

COM1.               COMMENT #1:

COM2.               COMMENT #2:

COM3.               COMMENT #3:

COM4.               COMMENT #4:

OSRV.           OTHER SERVICES:   

IDGR.      GROUP IDENTIFICATOR:  Nieznany

LU  .             LOGGING UNIT:  Nieznany

CABL.               CABLE TYPE:  Nieznany

ENGI.          ENGINEER'S NAME:  Nieznany

OPER.          OPERATOR'S NAME:  Nieznany

ELAB.            ELABORATED BY:  Nieznany

VERY.              VERYFIED BY:  Nieznany

CASX.              CASING TYPE:   

DFT .      DRILLING FLUID TYPE:  Nieznany

MSS .        MUD SAMPLE SOURCE:   

MCSS.          MUD CAKE SOURCE:   

MFSS.      MUD FILTRATE SOURCE:   

LMF .        LOG MEASURED FROM:  ground level   

PDAT.          PERMANENT DATUM:  ground level   

~A DEPTH       GR         NEGR        EL02        EL03        EL09        EL14        EL28        CALI    
# ...
  1482.500    2588.425   11483.145      23.101      15.796      10.610      12.725      10.323     219.118
  1482.750    2478.794   11747.922      12.457      15.760      10.525      11.465      10.828     222.963
  1483.000    2306.743   12012.827      10.207      15.377       9.925      10.343      11.341     226.394
  1483.250    2300.443   12268.099      11.014      12.485       9.324       9.235      10.968     222.355
  1483.500    2223.240   11890.833      11.820      10.907       8.723       8.985      10.591     222.765
  1483.750    2142.276   11408.518      10.953      11.671       8.753       8.938      10.213     226.032
  1484.000    2135.979   11242.492       8.439      12.034       8.946       8.891       9.836     222.045
  1484.250    2140.104   11294.900       9.269      11.234       9.138       8.774       9.463     218.178
  1484.500    2101.751   11352.582      10.235      10.432       9.330       8.155       8.950     224.934
  1484.750    2066.325   11151.982      10.831       9.632       9.505       7.469       8.561     233.976
  1485.000    2071.230   10887.910       9.978       8.830       9.164       6.783       8.627     234.118
  1485.250    2064.073   10914.806       9.127       8.030       8.797       6.096       8.695     231.292
  1485.500    2047.891   10947.787       8.276       8.331       8.429       5.600       8.763     232.391
  1485.750    2033.108   10903.229       7.424       7.895       8.032       5.826       8.833     234.548
  1486.000    2065.618   10794.235       6.634       7.504       8.096       6.052       8.499     232.022
  1486.250    2100.947   11017.144       7.116       7.113       8.356       6.278       8.020     227.985
  1486.500    2080.068   11223.622       7.566       6.679       8.617       6.504       7.503     228.141
  1486.750    2000.161   11430.000       8.039       8.878       8.877       6.731       7.476     229.942
  1487.000    1920.215   11636.479       7.601       9.519       9.137       6.788       7.448     231.744
  1487.250    1858.924   11765.996       6.740       8.893       8.798       6.683       7.419     233.544
  1487.500    1884.919   11699.044       6.668       8.266       8.239       6.578       7.390     233.110
  1487.750    1883.772   11640.279       6.907       7.639       7.681       6.472       7.361     230.051
  1488.000    1820.245   12280.176       7.183       7.012       7.055       6.364       7.837     226.990
  1488.250    1825.729   12954.590       6.651       7.560      10.040       7.569       8.442     223.732
  1488.500    1831.039   13629.334       6.018      13.486      13.435       8.804       9.047     221.646
  1488.750    1728.457   14495.998      11.115      19.544      16.827      10.038       9.652     219.351
  1489.000    1732.597   15457.053      22.132      24.441      20.222      11.273      10.151     217.054
  1489.250    1595.747   16417.641      33.144      54.449      23.615      12.507      10.959     215.817
  1489.500    1604.079   17378.695      44.161      73.939      27.009      13.742      11.646     215.361
  1489.750    1556.559   18339.283      53.673      79.962      30.402      14.976      12.332     214.904
  1490.000    1499.550   19300.338      46.705      81.779      33.796      16.211      13.020     214.447
  1490.250    1562.251   20211.195      47.958      90.209      37.189      17.445      13.692     213.991
  1490.500    1615.780   19410.949      49.211      95.762      57.376      18.680      14.212     213.534
  1490.750    1651.664   18368.246      50.464      95.722      79.436      19.835      14.742     213.200
  1491.000    1623.717   17899.723      49.549      91.390      82.987      19.266      15.195     214.000
  1491.250    1679.860   17961.875      54.124      95.575      91.533      19.426      15.615     214.870
  1491.500    1731.307   18028.521      58.377      99.923      94.604      22.496      15.981     215.740
  1491.750    1741.309   17599.453      52.572      71.156      89.178      25.430      16.347     216.610
  1492.000    1600.456   17136.971      44.122      42.752      83.749      28.366      16.714     217.480
  1492.250    1527.523   16674.711      35.676      44.589      78.323      31.300      17.075     217.811
  1492.500    1542.664   16212.229      27.226      41.745      72.895      33.919      16.972     216.225
  1492.750    1544.784   15749.972      25.732      38.721      67.957      50.057      16.765     214.665
  1493.000    1450.613   15287.488      30.759      39.119      79.784      64.631      16.885     213.104
  1493.250    1515.082   15573.176      35.785      49.051      92.459      78.265      17.461     213.020
  1493.500    1574.800   16090.025      39.136      58.988     106.712      91.001      18.038     213.570
  1493.750    1634.488   16606.625      38.169      68.920     114.028     101.666      18.614     214.120
  1494.000    1694.205   17156.525      39.693      78.856     122.383     107.353      19.191     214.670
  1494.250    1702.501   17041.793      49.838      88.788     130.734     113.118      20.103     215.158
  1494.500    1679.830   16919.156      59.988      98.725     139.089     118.887      21.015     215.071
  1494.750    1692.925   17168.947      70.133     108.664     147.441     124.652      21.927     214.979
  1495.000    1657.588   17693.018      70.335     117.625     156.697     117.227      22.839     214.887
  1495.250    1693.262   18216.834      63.219     126.729     133.048      99.924      23.750     214.795
  1495.500    1761.524   18740.904      62.472     128.582     106.525      82.613      24.663     214.691
  1495.750    1829.752   18526.922      67.610     141.725      80.014      65.310      24.668     217.908
  1496.000    1898.013   17500.064      72.751     107.486      59.654      53.135      22.535     221.615
  1496.250    1864.067   16473.707      71.569      70.839      48.239      45.340      20.576     225.320
  1496.500    1869.495   15446.850      55.293      34.175      38.950      37.541      18.616     229.027
  1496.750    1919.887   14420.493      40.392      19.186      31.512      32.187      16.657     232.732
  1497.000    1970.303   13393.636      25.484      12.348      25.349      29.086      14.697     236.440
  1497.250    2020.695   12367.279      11.057       9.055      24.557      26.091      12.569     238.557
  1497.500    2071.309   11311.850      12.105       8.699      23.882      26.016      13.430     225.357
  1497.750    2063.878   11887.946      15.548       9.432      23.206      26.531      15.694     212.839
  1498.000    2081.688   12480.830      14.591      10.190      20.502      26.051      17.959     214.272
  1498.250    2087.524   13073.424      14.937      13.716      16.113      25.278      20.223     215.761
  1498.500    2066.429   13775.420      16.877      20.769      13.032      24.458      22.488     217.513
  1498.750    2126.935   13410.383      15.566      18.453       9.824      19.885      24.842     215.903
  1499.000    2196.665   12962.745      14.164      14.529       6.858      15.016      23.891     216.901
  1499.250    2224.578   12515.325      12.763      10.920       6.097      13.585      21.817     222.111
  1499.500    2104.881   12398.203      11.361      12.183       5.390      13.756      19.742     227.323
  1499.750    2140.126   12859.148       9.960      10.257       4.737      12.954      17.667     226.536
  1500.000    2173.391   13320.318       8.564       9.811       5.675      16.134      15.592     225.788
  1500.250    2100.743   13781.264      12.922      13.124      14.752      18.865      13.596     231.369
  1500.500    1960.852   14242.435      17.266      16.650      18.374      20.661      15.896     222.724
  1500.750    1968.733   14703.380      21.608      24.505      21.440      22.168      18.903     218.305
  1501.000    1876.246   15164.550      25.952      32.901      24.280      23.675      21.913     218.052
