~Version Information

VERS.                     1.20: CWLS log ASCII Standard - VERSION  1.20

WRAP.                       NO: One line per depth step

~Well Information Block

#MNEM.UNIT           Data Type   Information

#컴컴컴컴컴        컴컴컴컴컴�   컴컴컴컴컴컴컴�

STRT.M               1295.000 :

STOP.M               1895.000 :

STEP.M                  0.250 :

NULL.                 999.000 :

COMP.                  COMPANY:  Zaklad Geofizyka Krakow

WELL.                     WELL:  

FLD .                    FIELD:  

LOC .                 LOCATION:  Nieznany

PROV.                 PROVINCE:  Nieznany

CNTY.                   COUNTY:   

STAT.                    STATE:   

CTRY.                  COUNTRY:  Poland   

SRVC.          SERVICE COMPANY:  Zaklad Geofizyka Krakow   

DATE.                 LOG DATE:  Nieznany

UWI .           UNIQUE WELL ID:   

~Curve Information Block

#MNEM.UNIT         API CODE      Curve Description

#컴컴컴컴컴        컴컴컴컴컴�   컴컴컴컴컴컴컴�

DEPTH.M                       :   1    DEPTH

GR.C/MN                       :   2    Gamma Naturalne

NEGR.C/MN                     :   3    Neutron-Gamma

EL02.OHMM                     :   4    Gradientowa spagowa   0.55m

EL03.OHMM                     :   5    Gradientowa spagowa   1.05m

EL09.OHMM                     :   6    Gradientowa spagowa  2.625m

EL14.OHMM                     :   7    Gradientowa spagowa   4.25m

EL28.OHMM                     :   8    Gradientowa spagowa    8.5m

CALI.MM                       :   9    Srednica otworu

~Parameter Information Block

#MNEM.UNIT             Value      Description

#컴컴컴컴컴        컴컴컴컴컴�   컴컴컴컴컴컴컴�

DD  .M                 -1.000 :  Depth Driller

DL  .M                 -1.000 :  Depth Logger

BS  .MM                    -1 :  Bit Size

BS1 .                         :  Bit Size1

BS2 .                         :  Bit Size2

BS3 .                         :  Bit Size3

CBD .M                 -1.000 :  Casing Bottom Driller

CBL .M                 -1.000 :  Casing Bottom Logger

CSIZ.IN                       :  Casing Size

CSIN.MM                    -1 :  Internal Casing Size

CS1 .                         :  Casing Size 1

CS2 .                         :  Casing Size 2

CS3 .                         :  Casing Size 3

CAST.                         :  Casing Thickness

FD  .G/C3              -1.000 :  Mud Fluid Density

DFTH.                         :  Drilling Fluid Thixotropy

DFL .C3                    -1 :  Mud Fluid Loss

DFV .S/1500C3              -1 :  Mud Fluid Viscosity

DFPH.                         :  Drilling Fluid Ph

SALI.G/L               -1.000 :  Salinity of the Mud

RMS .OHMM              -1.000 :  Resistivity of Mud Sample

MST .DEGC              -1.000 :  Mud Sample Temperature

RMC .OHMM                     :  Mud Cake Resistivity

MCST.                         :  Mud Cake Sample Temperature

RMFS.                         :  Mud Filtrate Resistivity

MFST.                         :  Mud Filtrate Sample Temperature

MRT .                         :  Maximum Recorded Temperature

BHT .DEGC                     :  Bottom Hole Temperature

MST .                         :  Mean Surface Temperature

TGRD.                         :  Temperature Gradient

MDEN.                         :  Matrix Density

DTM .                         :  Delta-T Matrix

FDEN.                         :  Fluid Density

DTF .                         :  Delta-T Fluid

MATR.                         :  Matrix (0=LIME,1=SAND,2=DOLO)

FNUM.                         :  Tortuosity  Constant Archie's (a)

FEXP.                         :  Cementation Exponent Archie's (m)

SEXP.                         :  Saturation Exponent Archie's (n)

LATI.                         :  Latitude

LONG.                         :  Longitude

PDEV.M                 -1.000 :  Elevation of Permanent Datum

EGL .M                 -1.000 :  Elevation of Ground Level

EDF .M                        :  Elevation of Derrick Floor

EKB .M                 -1.000 :  Elevation of Kelly Bushing

~Other Information

#MNEM.UNIT           DATA Type   Information

#컴컴컴컴컴        컴컴컴컴컴�   컴컴컴컴컴컴컴�

COM1.               COMMENT #1:

COM2.               COMMENT #2:

COM3.               COMMENT #3:

COM4.               COMMENT #4:

OSRV.           OTHER SERVICES:   

IDGR.      GROUP IDENTIFICATOR:  Nieznany

LU  .             LOGGING UNIT:  Nieznany

CABL.               CABLE TYPE:  Nieznany

ENGI.          ENGINEER'S NAME:  Nieznany

OPER.          OPERATOR'S NAME:  Nieznany

ELAB.            ELABORATED BY:  Nieznany

VERY.              VERYFIED BY:  Nieznany

CASX.              CASING TYPE:   

DFT .      DRILLING FLUID TYPE:  Nieznany

MSS .        MUD SAMPLE SOURCE:   

MCSS.          MUD CAKE SOURCE:   

MFSS.      MUD FILTRATE SOURCE:   

LMF .        LOG MEASURED FROM:  ground level   

PDAT.          PERMANENT DATUM:  ground level   

~A DEPTH       GR         NEGR        EL02        EL03        EL09        EL14        EL28        CALI    
# ...
  1520.000    1845.557   13245.038       8.148       8.451       9.919      12.314      10.841     235.718
  1520.250    1799.129   13997.467       7.647       9.848      12.961      13.505      12.348     240.299
  1520.500    1821.014   14750.264       7.145      18.689      16.004      14.420      13.832     217.609
  1520.750    1843.708   15502.693      11.123      27.527      17.222      14.986      15.315     213.715
  1521.000    1870.136   16255.489      18.041      36.368      16.400      15.551      16.799     213.237
  1521.250    1760.469   17007.918      24.956      45.206      17.395      16.117      18.248     212.759
  1521.500    1770.998   17760.715      31.874      54.048      23.543      16.682      19.582     212.281
  1521.750    1715.996   18289.477      38.788      62.885      29.296      16.875      20.913     212.023
  1522.000    1674.328   18057.395      45.706      71.727      35.053      16.783      22.245     212.565
  1522.250    1698.033   18016.490      53.286      79.982      40.807      16.692      22.212     213.100
  1522.500    1721.749   18195.869      52.967      89.580      46.563      16.595      20.771     213.635
  1522.750    1746.073   18375.160      49.072      83.423      52.317      17.768      19.330     214.170
  1523.000    1702.855   18306.721      45.176      77.263      58.074      19.017      18.248     214.698
  1523.250    1710.932   17730.938      41.281      71.831      63.828      20.658      18.130     214.368
  1523.500    1719.013   17154.873      37.213      66.737      69.584      23.928      18.011     214.042
  1523.750    1707.099   16579.090      39.630      65.405      75.167      27.355      18.416     213.716
  1524.000    1691.124   16003.024      42.159      66.981      74.612      30.784      18.988     214.062
  1524.250    1770.649   15469.969      44.656      68.516      72.829      34.587      19.559     214.871
  1524.500    1837.181   15622.028      39.260      66.139      71.045      40.875      20.130     215.681
  1524.750    1903.682   15772.715      32.616      63.028      69.261      46.652      20.701     216.490
  1525.000    1941.988   15231.085      36.298      59.915      67.477      52.432      21.079     217.300
  1525.250    1901.966   15416.644      40.370      57.827      68.659      58.209      21.079     217.754
  1525.500    1920.946   15604.587      44.509      56.335      76.776      63.989      21.079     217.215
  1525.750    1957.983   15792.438      38.745      55.455      76.491      69.766      21.079     216.697
  1526.000    1919.321   15980.383      32.882      58.111      77.292      76.610      21.079     216.179
  1526.250    1877.917   16177.271      29.225      60.883      78.485      73.821      21.449     215.661
  1526.500    1915.171   15894.562      35.203      63.616      79.679      70.401      21.961     215.143
  1526.750    1954.208   15467.156      41.239      66.261      76.445      66.982      22.474     215.056
  1527.000    1992.005   15505.202      46.143      68.908      71.809      63.561      22.556     215.111
  1527.250    1979.813   15599.165      36.511      71.558      67.175      60.143      22.013     215.166
  1527.500    1985.190   15675.140      34.047      65.792      62.538      56.722      21.470     215.220
  1527.750    2014.699   15284.586      35.883      57.877      60.346      53.304      21.012     215.275
  1528.000    2044.222   15131.745      37.720      51.287      61.160      49.883      20.914     215.330
  1528.250    2073.731   15250.254      39.457      46.562      58.790      46.464      20.815     215.385
  1528.500    2105.143   15368.819      33.769      42.514      52.675      43.044      20.716     215.178
  1528.750    1952.052   15297.596      27.213      38.767      46.563      43.567      20.617     214.065
  1529.000    1970.128   15153.992      19.395      32.975      39.346      46.900      20.534     212.952
  1529.250    1901.666   15099.702      23.155      27.406      42.659      50.232      21.827     212.164
  1529.500    1900.358   15474.386      27.811      21.968      46.703      53.565      22.934     212.125
  1529.750    1916.461   15858.159      32.464      29.631      50.744      56.897      24.409     212.088
  1530.000    1932.572   16242.121      37.119      37.119      54.787      60.231      27.531     212.051
  1530.250    1912.155   16625.895      41.773      44.603      58.466      63.562      30.968     212.014
  1530.500    1877.982   17009.855      46.428      52.091      58.446      66.855      37.552     211.977
  1530.750    1915.249   17393.629      51.081      59.576      57.971      62.587      45.782     211.940
  1531.000    1952.535   17777.590      54.192      67.064      59.555      58.368      50.198     211.904
  1531.250    1987.500   18161.365      51.281      74.548      64.994      55.713      53.732     211.867
  1531.500    1933.816   18032.252      48.368      77.966      70.435      54.230      57.268     211.840
  1531.750    1909.255   17549.262      45.456      75.670      75.873      52.874      60.402     211.845
  1532.000    1894.070   17008.006      42.543      73.373      79.369      54.157      59.274     211.850
  1532.250    1847.937   17105.766      42.935      75.654      78.959      55.769      58.067     211.854
  1532.500    1854.688   17216.932      45.124      79.439      85.832      57.538      56.921     211.859
  1532.750    1857.220   17328.043      44.898      77.309      88.886      59.648      57.601     211.863
  1533.000    1831.260   17354.703      44.636      74.930      90.553      61.759      58.248     211.868
  1533.250    1807.054   17082.172      45.273      75.231      92.196      63.869      58.894     211.873
  1533.500    1816.163   16997.639      45.968      77.474      88.358      65.980      59.541     211.780
  1533.750    1847.479   17291.574      46.714      79.865      83.350      68.090      60.187     211.631
  1534.000    1878.810   17585.654      44.430      73.836      78.339      68.688      60.834     211.482
  1534.250    1900.891   17899.043      40.580      64.157      73.332      68.262      61.354     211.333
  1534.500    1867.992   17712.660      40.712      63.859      68.321      67.835      60.449     211.184
  1534.750    1877.139   17468.426      41.935      65.703      64.450      67.375      59.457     211.042
  1535.000    1916.255   17646.650      43.233      60.710      67.825      80.282      58.464     211.120
  1535.250    1955.351   17506.498      30.729      52.167      71.346      82.980      57.472     211.231
  1535.500    2001.341   17384.229      29.137      42.868      74.868      89.222      56.479     211.342
  1535.750    1921.369   17681.063      40.877      50.341      78.389      85.574      56.627     211.452
  1536.000    1876.244   17978.039      52.623      58.539      81.911      81.121      61.456     211.563
  1536.250    1891.189   18274.871      59.038      66.733      84.145      76.670      66.302     211.664
  1536.500    1903.689   18571.850      52.870      74.931      79.849      72.945      71.151     211.436
  1536.750    1846.490   18539.223      47.065      80.205      75.440      71.683      75.998     211.191
  1537.000    1797.331   18375.672      46.682      81.313      71.029      70.421      75.871     210.945
  1537.250    1791.974   18370.150      51.306      82.421      66.549      69.159      72.429     210.915
  1537.500    1805.028   18495.104      55.933      83.528      70.412      67.897      68.984     211.134
  1537.750    1740.866   18619.996      60.540      84.636      76.682      66.618      65.542     211.352
  1538.000    1758.624   18744.949      57.248      85.535      82.954      68.697      62.097     211.571
  1538.250    1775.982   18743.857      52.053      95.512      89.162      71.740      58.909     211.789
  1538.500    1692.274   17683.246      46.856     104.854      89.345      74.785      61.288     212.008
