~Version Information

VERS.                     1.20: CWLS log ASCII Standard - VERSION  1.20

WRAP.                       NO: One line per depth step

~Well Information Block

#MNEM.UNIT           Data Type   Information

#컴컴컴컴컴        컴컴컴컴컴�   컴컴컴컴컴컴컴�

STRT.M               1295.000 :

STOP.M               1895.000 :

STEP.M                  0.250 :

NULL.                 999.000 :

COMP.                  COMPANY:  Zaklad Geofizyka Krakow

WELL.                     WELL:  

FLD .                    FIELD:  

LOC .                 LOCATION:  Nieznany

PROV.                 PROVINCE:  Nieznany

CNTY.                   COUNTY:   

STAT.                    STATE:   

CTRY.                  COUNTRY:  Poland   

SRVC.          SERVICE COMPANY:  Zaklad Geofizyka Krakow   

DATE.                 LOG DATE:  Nieznany

UWI .           UNIQUE WELL ID:   

~Curve Information Block

#MNEM.UNIT         API CODE      Curve Description

#컴컴컴컴컴        컴컴컴컴컴�   컴컴컴컴컴컴컴�

DEPTH.M                       :   1    DEPTH

GR.C/MN                       :   2    Gamma Naturalne

NEGR.C/MN                     :   3    Neutron-Gamma

EL02.OHMM                     :   4    Gradientowa spagowa   0.55m

EL03.OHMM                     :   5    Gradientowa spagowa   1.05m

EL09.OHMM                     :   6    Gradientowa spagowa  2.625m

EL14.OHMM                     :   7    Gradientowa spagowa   4.25m

EL28.OHMM                     :   8    Gradientowa spagowa    8.5m

CALI.MM                       :   9    Srednica otworu

~Parameter Information Block

#MNEM.UNIT             Value      Description

#컴컴컴컴컴        컴컴컴컴컴�   컴컴컴컴컴컴컴�

DD  .M                 -1.000 :  Depth Driller

DL  .M                 -1.000 :  Depth Logger

BS  .MM                    -1 :  Bit Size

BS1 .                         :  Bit Size1

BS2 .                         :  Bit Size2

BS3 .                         :  Bit Size3

CBD .M                 -1.000 :  Casing Bottom Driller

CBL .M                 -1.000 :  Casing Bottom Logger

CSIZ.IN                       :  Casing Size

CSIN.MM                    -1 :  Internal Casing Size

CS1 .                         :  Casing Size 1

CS2 .                         :  Casing Size 2

CS3 .                         :  Casing Size 3

CAST.                         :  Casing Thickness

FD  .G/C3              -1.000 :  Mud Fluid Density

DFTH.                         :  Drilling Fluid Thixotropy

DFL .C3                    -1 :  Mud Fluid Loss

DFV .S/1500C3              -1 :  Mud Fluid Viscosity

DFPH.                         :  Drilling Fluid Ph

SALI.G/L               -1.000 :  Salinity of the Mud

RMS .OHMM              -1.000 :  Resistivity of Mud Sample

MST .DEGC              -1.000 :  Mud Sample Temperature

RMC .OHMM                     :  Mud Cake Resistivity

MCST.                         :  Mud Cake Sample Temperature

RMFS.                         :  Mud Filtrate Resistivity

MFST.                         :  Mud Filtrate Sample Temperature

MRT .                         :  Maximum Recorded Temperature

BHT .DEGC                     :  Bottom Hole Temperature

MST .                         :  Mean Surface Temperature

TGRD.                         :  Temperature Gradient

MDEN.                         :  Matrix Density

DTM .                         :  Delta-T Matrix

FDEN.                         :  Fluid Density

DTF .                         :  Delta-T Fluid

MATR.                         :  Matrix (0=LIME,1=SAND,2=DOLO)

FNUM.                         :  Tortuosity  Constant Archie's (a)

FEXP.                         :  Cementation Exponent Archie's (m)

SEXP.                         :  Saturation Exponent Archie's (n)

LATI.                         :  Latitude

LONG.                         :  Longitude

PDEV.M                 -1.000 :  Elevation of Permanent Datum

EGL .M                 -1.000 :  Elevation of Ground Level

EDF .M                        :  Elevation of Derrick Floor

EKB .M                 -1.000 :  Elevation of Kelly Bushing

~Other Information

#MNEM.UNIT           DATA Type   Information

#컴컴컴컴컴        컴컴컴컴컴�   컴컴컴컴컴컴컴�

COM1.               COMMENT #1:

COM2.               COMMENT #2:

COM3.               COMMENT #3:

COM4.               COMMENT #4:

OSRV.           OTHER SERVICES:   

IDGR.      GROUP IDENTIFICATOR:  Nieznany

LU  .             LOGGING UNIT:  Nieznany

CABL.               CABLE TYPE:  Nieznany

ENGI.          ENGINEER'S NAME:  Nieznany

OPER.          OPERATOR'S NAME:  Nieznany

ELAB.            ELABORATED BY:  Nieznany

VERY.              VERYFIED BY:  Nieznany

CASX.              CASING TYPE:   

DFT .      DRILLING FLUID TYPE:  Nieznany

MSS .        MUD SAMPLE SOURCE:   

MCSS.          MUD CAKE SOURCE:   

MFSS.      MUD FILTRATE SOURCE:   

LMF .        LOG MEASURED FROM:  ground level   

PDAT.          PERMANENT DATUM:  ground level   

~A DEPTH       GR         NEGR        EL02        EL03        EL09        EL14        EL28        CALI    
# ...
  1670.000    2128.106   10522.809       6.354       7.990       5.521       5.920       7.548     252.643
  1670.250    2024.133   10541.506       6.125       8.327       5.788       5.909       7.731     261.561
  1670.500    2048.037   10457.241       5.936       8.352       6.055       5.902       7.915     255.802
  1670.750    2073.874   10371.641       6.228       7.987       6.322       5.896       8.098     258.392
  1671.000    1992.957   10285.997       6.477       7.621       6.590       5.890       8.281     261.493
  1671.250    1980.658   10289.189       6.726       7.255       6.857       5.884       8.464     264.592
  1671.500    2011.307   10325.583       6.833       6.889       7.124       6.447       8.672     267.766
  1671.750    2041.941   10361.958       6.720       6.524       7.391       7.109       8.102     258.696
  1672.000    2072.591   10398.352       6.607       6.226       7.754       7.772       7.445     256.630
  1672.250    2067.376   10438.155       6.494       6.750       8.194       8.434       7.200     261.685
  1672.500    1958.063   10394.629       6.500       7.192       8.634       9.096       7.472     266.742
  1672.750    1971.678   10306.012       6.732       7.633       8.133       9.491       7.744     266.085
  1673.000    1896.273   10298.401       6.965       8.074       7.353       8.774       8.016     245.701
  1673.250    1866.438   10348.539       7.197       8.515       6.574       8.055       8.287     248.248
  1673.500    1833.957   10398.701       7.416       8.957       5.794       7.336       8.559     245.752
  1673.750    1819.955   10448.838       7.087       9.279       5.015       6.617       8.622     237.756
  1674.000    1862.540   10500.200       6.777       8.773       4.795       5.898       8.154     242.463
  1674.250    1902.030   10361.814       6.467       8.237       5.264       5.130       7.716     248.213
  1674.500    1941.539   10240.393       6.156       7.701       5.734       5.144       7.278     254.794
  1674.750    1981.029   10294.732       5.846       7.447       6.203       5.455       6.840     247.849
  1675.000    2020.538   10342.254       5.808       7.422       6.673       5.765       6.896     239.731
  1675.250    1996.124   10389.750       6.103       7.397       7.142       6.076       7.075     238.874
  1675.500    1993.417   10437.271       6.399       7.372       7.611       6.367       7.254     238.279
  1675.750    2021.751   10484.770       6.695       7.346       7.624       6.127       7.433     235.036
  1676.000    2050.098   10532.289       6.991       7.302       7.165       5.901       7.458     231.791
  1676.250    2059.568   10579.787       7.202       7.190       6.706       5.675       7.111     228.549
  1676.500    2089.456   10627.308       7.046       7.077       6.430       5.432       6.763     232.287
  1676.750    2136.624   10674.805       6.889       6.965       6.731       6.025       6.428     240.919
  1677.000    2183.814   10722.325       6.731       6.853       7.032       6.667       6.701     249.556
  1677.250    2228.252   10771.725       6.574       6.752       7.333       7.308       7.083     256.542
  1677.500    2117.359   10572.733       6.435       7.116       7.634       7.950       7.465     244.318
  1677.750    2052.521   10547.143       6.764       7.495       7.935       8.591       7.847     236.414
  1678.000    2068.588   10589.926       7.058       7.875       8.237       9.131       8.228     242.717
  1678.250    1988.120   10632.688       7.353       8.254       8.179       7.335       8.610     248.827
  1678.500    1977.085   10675.471       7.603       8.633       7.975       5.923       8.929     242.571
  1678.750    1992.459   10718.232       7.714       8.881       7.771       6.333       8.536     240.155
  1679.000    1948.810   10761.015       7.824       8.945       7.568       6.711       8.198     245.343
  1679.250    1955.668   10799.934       7.847       9.003       7.344       7.088       7.833     246.678
  1679.500    1997.779   10737.875       7.555       9.062       7.390       7.465       7.851     234.590
  1679.750    2038.113   10671.654       7.269       9.118       7.567       7.384       8.026     233.772
  1680.000    1868.362   10703.388       6.983       9.130       7.744       6.836       8.202     239.157
  1680.250    1887.354   10754.148       6.705       9.133       7.921       6.289       8.378     228.925
  1680.500    1864.562   10804.934       6.869       9.136       8.097       5.741       8.553     235.539
  1680.750    1800.216   10855.695       7.119       9.139       8.256       5.194       8.729     242.441
  1681.000    1813.109   10906.480       7.370       9.142       8.076       4.936       8.900     249.345
  1681.250    1779.915   10957.241       7.621       9.049       7.878       5.331       8.747     256.247
  1681.500    1770.501   11008.027       7.616       8.610       7.680       5.726       8.597     256.776
  1681.750    1835.648   11055.242       6.927       8.182       7.482       6.121       8.447     249.582
  1682.000    1900.827   10904.555       6.228       7.754       7.284       6.516       8.297     242.384
  1682.250    1959.721   10774.276       6.449       7.810       7.087       6.911       8.189     235.592
  1682.500    1851.586   10785.401       6.674       8.166       6.855       7.258       8.363     244.874
  1682.750    1887.347   10796.479       6.898       8.537       7.113       7.181       8.545     256.184
  1683.000    1921.620   10807.646       7.122       8.909       7.424       7.111       8.728     266.864
  1683.250    1955.875   10731.824       7.219       8.917       7.734       7.164       8.910     253.917
  1683.500    1990.147   10655.367       6.971       8.778       8.044       7.396       9.093     240.623
  1683.750    1852.743   10578.947       6.865       8.638       8.354       7.629       9.275     244.135
  1684.000    1867.367   10498.198       7.148       8.499       8.665       7.861       9.458     247.970
  1684.250    1882.569   10532.469       7.422       8.360       8.975       8.094       9.546     251.873
  1684.500    1805.512   10568.797       7.696       8.231       8.924       8.326       9.010     222.691
  1684.750    1829.811   10605.107       7.970       8.371       8.575       8.536       8.440     233.166
  1685.000    1857.565   10641.435       8.244       8.501       8.413       8.307       7.785     246.074
  1685.250    1807.374   10677.744       8.479       8.631       8.510       8.053       8.030     253.842
  1685.500    1785.663   10709.567       8.149       8.761       8.607       7.800       8.317     245.843
  1685.750    1792.224   10655.223       7.783       8.891       8.704       7.546       8.604     238.080
  1686.000    1798.787   10606.853       7.416       9.001       8.801       7.277       8.683     231.276
  1686.250    1805.913   10558.506       7.248       9.062       8.420       7.414       8.371     233.198
  1686.500    1728.597   10510.135       7.349       9.115       8.042       7.559       8.059     235.188
  1686.750    1780.801   10477.707       7.451       9.168       7.664       7.704       8.057     232.838
  1687.000    1833.030   10516.809       7.552       9.214       7.286       7.849       8.893     230.024
  1687.250    1885.234   10556.375       7.643       9.070       6.908       7.985       9.610     227.212
  1687.500    1929.942   10595.960       7.565       8.944       6.530       7.761       9.288     224.399
  1687.750    1887.281   10635.526       7.479       8.818       6.364       7.496       8.939     223.058
  1688.000    1867.316   10676.541       7.393       8.692       6.745       7.231       8.589     226.598
  1688.250    1886.297   10610.604       7.310       8.566       6.962       6.967       8.305     230.054
  1688.500    1908.931   10542.158       7.168       8.559       6.857       6.702       8.274     233.512
