~Version Information

VERS.                     1.20: CWLS log ASCII Standard - VERSION  1.20

WRAP.                       NO: One line per depth step

~Well Information Block

#MNEM.UNIT           Data Type   Information

#컴컴컴컴컴        컴컴컴컴컴�   컴컴컴컴컴컴컴�

STRT.M               1295.000 :

STOP.M               1895.000 :

STEP.M                  0.250 :

NULL.                 999.000 :

COMP.                  COMPANY:  Zaklad Geofizyka Krakow

WELL.                     WELL:  

FLD .                    FIELD:  

LOC .                 LOCATION:  Nieznany

PROV.                 PROVINCE:  Nieznany

CNTY.                   COUNTY:   

STAT.                    STATE:   

CTRY.                  COUNTRY:  Poland   

SRVC.          SERVICE COMPANY:  Zaklad Geofizyka Krakow   

DATE.                 LOG DATE:  Nieznany

UWI .           UNIQUE WELL ID:   

~Curve Information Block

#MNEM.UNIT         API CODE      Curve Description

#컴컴컴컴컴        컴컴컴컴컴�   컴컴컴컴컴컴컴�

DEPTH.M                       :   1    DEPTH

GR.C/MN                       :   2    Gamma Naturalne

NEGR.C/MN                     :   3    Neutron-Gamma

EL02.OHMM                     :   4    Gradientowa spagowa   0.55m

EL03.OHMM                     :   5    Gradientowa spagowa   1.05m

EL09.OHMM                     :   6    Gradientowa spagowa  2.625m

EL14.OHMM                     :   7    Gradientowa spagowa   4.25m

EL28.OHMM                     :   8    Gradientowa spagowa    8.5m

CALI.MM                       :   9    Srednica otworu

~Parameter Information Block

#MNEM.UNIT             Value      Description

#컴컴컴컴컴        컴컴컴컴컴�   컴컴컴컴컴컴컴�

DD  .M                 -1.000 :  Depth Driller

DL  .M                 -1.000 :  Depth Logger

BS  .MM                    -1 :  Bit Size

BS1 .                         :  Bit Size1

BS2 .                         :  Bit Size2

BS3 .                         :  Bit Size3

CBD .M                 -1.000 :  Casing Bottom Driller

CBL .M                 -1.000 :  Casing Bottom Logger

CSIZ.IN                       :  Casing Size

CSIN.MM                    -1 :  Internal Casing Size

CS1 .                         :  Casing Size 1

CS2 .                         :  Casing Size 2

CS3 .                         :  Casing Size 3

CAST.                         :  Casing Thickness

FD  .G/C3              -1.000 :  Mud Fluid Density

DFTH.                         :  Drilling Fluid Thixotropy

DFL .C3                    -1 :  Mud Fluid Loss

DFV .S/1500C3              -1 :  Mud Fluid Viscosity

DFPH.                         :  Drilling Fluid Ph

SALI.G/L               -1.000 :  Salinity of the Mud

RMS .OHMM              -1.000 :  Resistivity of Mud Sample

MST .DEGC              -1.000 :  Mud Sample Temperature

RMC .OHMM                     :  Mud Cake Resistivity

MCST.                         :  Mud Cake Sample Temperature

RMFS.                         :  Mud Filtrate Resistivity

MFST.                         :  Mud Filtrate Sample Temperature

MRT .                         :  Maximum Recorded Temperature

BHT .DEGC                     :  Bottom Hole Temperature

MST .                         :  Mean Surface Temperature

TGRD.                         :  Temperature Gradient

MDEN.                         :  Matrix Density

DTM .                         :  Delta-T Matrix

FDEN.                         :  Fluid Density

DTF .                         :  Delta-T Fluid

MATR.                         :  Matrix (0=LIME,1=SAND,2=DOLO)

FNUM.                         :  Tortuosity  Constant Archie's (a)

FEXP.                         :  Cementation Exponent Archie's (m)

SEXP.                         :  Saturation Exponent Archie's (n)

LATI.                         :  Latitude

LONG.                         :  Longitude

PDEV.M                 -1.000 :  Elevation of Permanent Datum

EGL .M                 -1.000 :  Elevation of Ground Level

EDF .M                        :  Elevation of Derrick Floor

EKB .M                 -1.000 :  Elevation of Kelly Bushing

~Other Information

#MNEM.UNIT           DATA Type   Information

#컴컴컴컴컴        컴컴컴컴컴�   컴컴컴컴컴컴컴�

COM1.               COMMENT #1:

COM2.               COMMENT #2:

COM3.               COMMENT #3:

COM4.               COMMENT #4:

OSRV.           OTHER SERVICES:   

IDGR.      GROUP IDENTIFICATOR:  Nieznany

LU  .             LOGGING UNIT:  Nieznany

CABL.               CABLE TYPE:  Nieznany

ENGI.          ENGINEER'S NAME:  Nieznany

OPER.          OPERATOR'S NAME:  Nieznany

ELAB.            ELABORATED BY:  Nieznany

VERY.              VERYFIED BY:  Nieznany

CASX.              CASING TYPE:   

DFT .      DRILLING FLUID TYPE:  Nieznany

MSS .        MUD SAMPLE SOURCE:   

MCSS.          MUD CAKE SOURCE:   

MFSS.      MUD FILTRATE SOURCE:   

LMF .        LOG MEASURED FROM:  ground level   

PDAT.          PERMANENT DATUM:  ground level   

~A DEPTH       GR         NEGR        EL02        EL03        EL09        EL14        EL28        CALI    
# ...
  1707.500    1818.941   11576.892      11.696      10.138       9.227       9.125       8.923     239.371
  1707.750    1890.740   11104.109      10.883       9.932       7.656       8.276       7.711     245.652
  1708.000    1957.007   10627.402      10.069      10.583       6.807       7.873       6.499     251.937
  1708.250    2023.242   10683.381       9.472      10.674       7.435       7.471       5.417     257.780
  1708.500    2089.510   10739.827       9.198      10.327       8.064       7.069       5.640     250.940
  1708.750    2074.658   10796.246       8.943       9.980       8.693       6.667       5.877     256.579
  1709.000    2100.346   10853.383       8.687       9.632       9.321       6.264       6.114     253.684
  1709.250    2124.296   10797.299       8.432       9.285       9.950       5.857       6.351     256.023
  1709.500    2101.936   10740.493       8.177       8.937      10.029       5.991       6.588     259.707
  1709.750    2020.949   10679.502       7.989       8.816       9.716       6.274       6.538     255.817
  1710.000    2046.411   10717.581       8.162       9.028       9.402       6.556       6.403     252.421
  1710.250    2071.860   10799.863       8.339       9.219       9.064       6.838       6.268     256.768
  1710.500    2099.658   10882.187       8.517       8.819       9.004       7.121       6.132     261.935
  1710.750    2022.821   10941.734       8.681       8.398       9.048       7.403       6.049     258.919
  1711.000    2036.060   10810.155       8.648       7.977       9.093       7.664       6.388     261.448
  1711.250    2061.232   10668.438       8.589       7.568       9.139       7.805       6.755     263.986
  1711.500    2045.106   10605.288       8.530       7.729       8.941       7.935       7.123     266.525
  1711.750    2032.727   10654.340       8.471       8.000       8.651       8.065       7.490     256.462
  1712.000    2054.167   10703.415       8.412       8.271       8.361       8.187       7.857     262.788
  1712.250    2074.084   10752.467       8.353       8.542       8.096       7.970       8.039     248.015
  1712.500    2094.011   10811.148       8.324       8.475       8.015       7.764       7.988     257.675
  1712.750    2038.315   10759.885       8.326       8.133       7.965       7.558       7.938     262.331
  1713.000    2034.271   10701.461       8.328       7.767       7.916       7.353       7.888     245.991
  1713.250    2061.756   10737.376       8.330       7.737       7.866       7.147       7.838     241.944
  1713.500    2089.254   10770.523       8.332       7.705       7.816       6.942       7.787     244.278
  1713.750    2104.010   10803.655       8.334       7.729       7.950       6.746       7.737     244.725
  1714.000    2049.754   10836.803       8.480       8.048       8.239       6.914       7.678     236.958
  1714.250    2065.122   10869.936       8.702       8.381       8.528       7.138       7.976     232.920
  1714.500    2082.096   10852.537       8.923       8.714       8.817       7.361       8.344     239.422
  1714.750    1993.922   10792.918       9.145       9.062       9.105       7.585       8.712     240.841
  1715.000    2017.924   10820.865       9.367       8.946       9.394       7.809       9.080     230.475
  1715.250    2066.790   10849.548       9.569       8.670       9.660       8.065       9.448     232.562
  1715.500    2115.679   10822.437       9.322       8.393       9.604       8.508       9.886     231.539
  1715.750    2164.545   10686.941       9.041       8.116       9.508       8.913      10.459     228.263
  1716.000    2113.854   10551.381       8.761       7.803       9.412       9.318      11.167     225.417
  1716.250    2017.197   10614.471       8.783       7.991       9.316       9.723      11.875     225.850
  1716.500    2049.165   10728.558       8.929       8.207       9.220      10.128      12.583     226.186
  1716.750    1992.790   10842.588       9.074       8.423       9.433      10.533      13.320     222.012
  1717.000    2025.570   10956.676       9.220       8.668       9.935      11.174      14.244     223.340
  1717.250    2058.333   11070.707       9.365       9.211      10.437      11.973      15.290     225.481
  1717.500    2093.609   11184.794       9.510       9.840      10.939      12.772      16.338     227.622
  1717.750    2037.368   11303.392       9.633      10.468      11.286      13.570      17.384     229.763
  1718.000    1976.459   11237.295       9.723      11.097      10.834      14.369      18.490     221.807
  1718.250    1930.572   11167.543       9.813      10.900      10.371      14.854      17.629     225.685
  1718.500    1922.385   11259.009       9.903      10.464       9.907      13.784      16.716     224.757
  1718.750    1861.845   11346.256       9.984      10.334       9.444      12.688      15.804     222.629
  1719.000    1857.930   11433.547      10.999      11.689       8.980      11.591      14.891     225.409
  1719.250    1868.524   11520.795      12.008      13.079       8.517      10.496      13.980     228.391
  1719.500    1806.561   11608.085      13.017      14.214       8.054       9.399      13.461     230.801
  1719.750    1828.213   11624.510      13.771      12.988       8.194       8.303      12.911     225.543
  1720.000    1846.760   11361.270      13.119      13.390       8.876       8.038      12.362     226.787
  1720.250    1865.297   11098.670      12.448      14.214       9.558       8.385      11.812     230.442
  1720.500    1822.792   10867.494      11.776      15.039      10.239       8.732      11.263     234.098
  1720.750    1829.390   10949.453      11.105      15.405      10.921       9.079      10.751     237.753
  1721.000    1837.048   11022.658      10.433      14.416      11.194       9.426      10.693     241.409
  1721.250    1802.152   11048.057       9.761      13.466      10.811       9.400      10.709     231.496
  1721.500    1760.579   11054.893       9.012      12.515      10.428       9.102      10.726     229.326
  1721.750    1722.760   11062.056       9.189      11.519      10.046       8.805      10.609     233.047
  1722.000    1788.434   10960.053       9.391      11.588       9.663       8.507      10.312     232.871
  1722.250    1860.102   10818.098       9.592      12.063       9.757       8.228      10.014     226.318
  1722.500    1931.805   10908.720       9.793      11.876      10.036       8.852       9.717     228.045
  1722.750    1925.820   11040.312       9.985      11.354      10.315       9.572       9.420     229.945
  1723.000    1824.149   11171.967      10.210      10.831      10.594      10.292       9.650     234.064
  1723.250    1746.311   11068.492      10.427      10.529      10.856      11.011      10.244     241.227
  1723.500    1795.455   10901.707      10.644      11.236      10.322      11.731      10.901     236.201
  1723.750    1845.893   10784.816      10.610      11.955       9.707      12.424      10.874     237.467
  1724.000    1896.356   10830.252      10.329      12.674       9.092      11.824      10.844     238.685
  1724.250    1897.016   10874.774      10.049      13.434       8.476      11.006      10.814     222.347
  1724.500    1875.082   10835.719       9.949      13.079       7.861      10.188      10.784     232.494
  1724.750    1904.053   10723.205      10.407      12.288       7.185       9.370      10.754     242.886
  1725.000    1949.145   10610.636      10.866      11.497       7.197       8.692      10.724     252.329
  1725.250    1994.214   10639.066      11.325      10.706       7.522       8.897      10.076     246.277
  1725.500    2039.305   10730.330      11.784      10.801       7.846       9.072       9.270     244.601
  1725.750    2065.994   10821.549      12.136      11.776       8.170       9.247       9.471     247.850
  1726.000    1980.076   10912.812      11.795      10.566       8.490       9.421       9.646     244.022
