~Version Information

VERS.                     1.20: CWLS log ASCII Standard - VERSION  1.20

WRAP.                       NO: One line per depth step

~Well Information Block

#MNEM.UNIT           Data Type   Information

#컴컴컴컴컴        컴컴컴컴컴�   컴컴컴컴컴컴컴�

STRT.M               1295.000 :

STOP.M               1895.000 :

STEP.M                  0.250 :

NULL.                 999.000 :

COMP.                  COMPANY:  Zaklad Geofizyka Krakow

WELL.                     WELL:  

FLD .                    FIELD:  

LOC .                 LOCATION:  Nieznany

PROV.                 PROVINCE:  Nieznany

CNTY.                   COUNTY:   

STAT.                    STATE:   

CTRY.                  COUNTRY:  Poland   

SRVC.          SERVICE COMPANY:  Zaklad Geofizyka Krakow   

DATE.                 LOG DATE:  Nieznany

UWI .           UNIQUE WELL ID:   

~Curve Information Block

#MNEM.UNIT         API CODE      Curve Description

#컴컴컴컴컴        컴컴컴컴컴�   컴컴컴컴컴컴컴�

DEPTH.M                       :   1    DEPTH

GR.C/MN                       :   2    Gamma Naturalne

NEGR.C/MN                     :   3    Neutron-Gamma

EL02.OHMM                     :   4    Gradientowa spagowa   0.55m

EL03.OHMM                     :   5    Gradientowa spagowa   1.05m

EL09.OHMM                     :   6    Gradientowa spagowa  2.625m

EL14.OHMM                     :   7    Gradientowa spagowa   4.25m

EL28.OHMM                     :   8    Gradientowa spagowa    8.5m

CALI.MM                       :   9    Srednica otworu

~Parameter Information Block

#MNEM.UNIT             Value      Description

#컴컴컴컴컴        컴컴컴컴컴�   컴컴컴컴컴컴컴�

DD  .M                 -1.000 :  Depth Driller

DL  .M                 -1.000 :  Depth Logger

BS  .MM                    -1 :  Bit Size

BS1 .                         :  Bit Size1

BS2 .                         :  Bit Size2

BS3 .                         :  Bit Size3

CBD .M                 -1.000 :  Casing Bottom Driller

CBL .M                 -1.000 :  Casing Bottom Logger

CSIZ.IN                       :  Casing Size

CSIN.MM                    -1 :  Internal Casing Size

CS1 .                         :  Casing Size 1

CS2 .                         :  Casing Size 2

CS3 .                         :  Casing Size 3

CAST.                         :  Casing Thickness

FD  .G/C3              -1.000 :  Mud Fluid Density

DFTH.                         :  Drilling Fluid Thixotropy

DFL .C3                    -1 :  Mud Fluid Loss

DFV .S/1500C3              -1 :  Mud Fluid Viscosity

DFPH.                         :  Drilling Fluid Ph

SALI.G/L               -1.000 :  Salinity of the Mud

RMS .OHMM              -1.000 :  Resistivity of Mud Sample

MST .DEGC              -1.000 :  Mud Sample Temperature

RMC .OHMM                     :  Mud Cake Resistivity

MCST.                         :  Mud Cake Sample Temperature

RMFS.                         :  Mud Filtrate Resistivity

MFST.                         :  Mud Filtrate Sample Temperature

MRT .                         :  Maximum Recorded Temperature

BHT .DEGC                     :  Bottom Hole Temperature

MST .                         :  Mean Surface Temperature

TGRD.                         :  Temperature Gradient

MDEN.                         :  Matrix Density

DTM .                         :  Delta-T Matrix

FDEN.                         :  Fluid Density

DTF .                         :  Delta-T Fluid

MATR.                         :  Matrix (0=LIME,1=SAND,2=DOLO)

FNUM.                         :  Tortuosity  Constant Archie's (a)

FEXP.                         :  Cementation Exponent Archie's (m)

SEXP.                         :  Saturation Exponent Archie's (n)

LATI.                         :  Latitude

LONG.                         :  Longitude

PDEV.M                 -1.000 :  Elevation of Permanent Datum

EGL .M                 -1.000 :  Elevation of Ground Level

EDF .M                        :  Elevation of Derrick Floor

EKB .M                 -1.000 :  Elevation of Kelly Bushing

~Other Information

#MNEM.UNIT           DATA Type   Information

#컴컴컴컴컴        컴컴컴컴컴�   컴컴컴컴컴컴컴�

COM1.               COMMENT #1:

COM2.               COMMENT #2:

COM3.               COMMENT #3:

COM4.               COMMENT #4:

OSRV.           OTHER SERVICES:   

IDGR.      GROUP IDENTIFICATOR:  Nieznany

LU  .             LOGGING UNIT:  Nieznany

CABL.               CABLE TYPE:  Nieznany

ENGI.          ENGINEER'S NAME:  Nieznany

OPER.          OPERATOR'S NAME:  Nieznany

ELAB.            ELABORATED BY:  Nieznany

VERY.              VERYFIED BY:  Nieznany

CASX.              CASING TYPE:   

DFT .      DRILLING FLUID TYPE:  Nieznany

MSS .        MUD SAMPLE SOURCE:   

MCSS.          MUD CAKE SOURCE:   

MFSS.      MUD FILTRATE SOURCE:   

LMF .        LOG MEASURED FROM:  ground level   

PDAT.          PERMANENT DATUM:  ground level   

~A DEPTH       GR         NEGR        EL02        EL03        EL09        EL14        EL28        CALI    
# ...
  1595.000    1967.313   15621.146      37.061      49.677      42.730      36.821      28.904     219.268
  1595.250    1962.407   15684.282      42.073      56.709      42.253      38.067      29.346     219.425
  1595.500    1979.988   15611.297      47.088      63.744      38.121      31.316      29.755     220.955
  1595.750    1935.927   15264.477      43.390      58.860      33.991      24.133      27.973     222.394
  1596.000    1917.647   14917.486      31.891      45.199      29.859      24.217      26.316     223.835
  1596.250    1975.668   14570.665      20.398      31.544      26.205      25.693      26.318     225.275
  1596.500    2033.716   14223.675       9.680      19.630      27.850      27.170      28.300     226.715
  1596.750    2012.914   13876.854      20.345      27.680      29.617      28.646      30.282     227.804
  1597.000    1943.772   13951.958      30.338      34.821      31.386      30.124      32.264     225.218
  1597.250    1879.886   14455.766      40.326      41.957      33.023      28.973      34.099     222.384
  1597.500    1898.847   14959.819      50.318      44.358      26.289      18.320      31.909     220.093
  1597.750    1919.448   15498.937      49.981      34.822      18.954      14.734      29.337     221.345
  1598.000    1919.127   15047.051      36.275      25.280      13.421      14.759      26.764     222.396
  1598.250    1884.600   14156.636      22.576      15.609      13.480      14.784      24.191     223.446
  1598.500    1926.913   13265.785       8.977      14.858      13.539      14.809      21.618     224.497
  1598.750    1973.491   12451.191      11.600      15.253      13.090      14.834      19.045     225.547
  1599.000    2020.091   12612.671      14.204      11.638      12.194      14.335      18.938     226.598
  1599.250    2028.978   12786.231      13.041      11.390      11.299      13.158      19.447     226.100
  1599.500    1976.355   12990.393       9.760       9.981      10.403      11.980      19.956     224.497
  1599.750    2036.211   12276.189       8.199       7.229       9.507      10.803      20.465     223.211
  1600.000    2096.096   12684.262       7.110       6.719       8.550       9.625      19.450     223.537
  1600.250    2155.952   13092.136       6.129      11.065       9.434       8.363      17.037     223.870
  1600.500    2103.154   13500.209      11.653      15.412      10.383       8.885      16.943     224.203
  1600.750    2122.505   13908.082      17.308      19.758      11.331      10.169      17.156     224.511
  1601.000    2139.078   14316.156      22.966      24.106      12.280      11.453      17.370     223.179
  1601.250    2080.062   14724.029      29.041      28.451      13.229      12.737      17.583     221.731
  1601.500    2059.855   15132.104      25.596      32.799      14.177      14.022      17.796     220.282
  1601.750    2070.042   15539.978      27.263      37.144      14.251      15.306      17.379     219.654
  1602.000    2034.554   15946.457      29.052      34.550      13.710      14.201      15.197     221.144
  1602.250    2039.944   15553.877      24.926      26.756      14.241      11.624      14.256     222.552
  1602.500    2058.808   15162.634      15.333      18.959      16.033      11.822      14.747     223.960
  1602.750    2077.893   14770.723      12.128      14.536      17.825      12.518      15.238     225.367
  1603.000    2050.033   14894.384      17.187      19.523      19.617      13.215      15.729     226.776
  1603.250    2011.765   15149.039      22.243      24.306      21.272      13.911      16.220     227.619
  1603.500    2024.608   15403.820      27.302      29.091      20.725      14.650      16.711     227.127
  1603.750    2044.119   15658.477      32.358      33.874      19.917      14.499      17.202     226.662
  1604.000    2060.904   15913.258      31.923      29.223      19.108      14.339      17.693     226.244
  1604.250    2002.967   16167.914      23.525      27.587      18.553      14.163      17.096     227.685
  1604.500    2026.707   16014.752      16.367      28.923      18.626      14.470      15.410     228.996
  1604.750    1992.872   15453.720      17.775      26.888      18.696      15.047      13.880     230.306
  1605.000    2015.363   15000.100      19.003      19.178      18.765      15.625      13.798     231.617
  1605.250    2035.642   15104.786      20.336      20.646      18.498      16.219      13.901     232.796
  1605.500    1973.414   15092.685      18.212      22.115      17.858      16.473      14.003     232.114
  1605.750    1975.136   14851.953      14.272      21.537      17.219      16.637      14.169     231.302
  1606.000    1976.915   14611.104      10.203      15.570      16.597      16.801      14.659     230.489
  1606.250    1953.899   14377.544      13.826      14.604      17.291      16.954      15.184     229.676
  1606.500    1917.845   14557.116      17.571      17.933      17.966      18.761      15.709     228.863
  1606.750    1884.915   14813.545      21.100      21.055      18.640      20.624      16.234     227.974
  1607.000    1853.906   15070.098      19.652      20.271      19.315      21.668      16.759     226.846
  1607.250    1822.911   15326.525      19.652      21.114      20.698      22.762      17.284     225.695
  1607.500    1791.901   15583.078      25.361      31.901      22.321      23.856      17.893     224.544
  1607.750    1765.453   15839.506      26.787      30.702      23.942      24.950      18.560     223.594
  1608.000    1792.188   16096.060      32.646      29.274      25.565      26.045      19.353     224.955
  1608.250    1822.057   16033.787      40.790      34.479      26.416      25.396      20.146     226.444
  1608.500    1855.901   15756.004      44.070      49.006      25.552      23.138      20.940     227.934
  1608.750    1718.896   15880.629      38.687      53.022      26.522      20.880      20.777     229.551
  1609.000    1782.714   16003.337      33.302      35.516      27.398      19.137      20.038     229.157
  1609.250    1840.917   15898.687      27.919      42.079      28.216      18.377      19.299     227.850
  1609.500    1902.418   14796.637      25.248      37.540      27.275      17.618      18.560     226.543
  1609.750    1874.925   14856.516      26.106      30.493      26.467      16.858      17.858     225.171
  1610.000    1888.761   14913.688      20.629      31.642      26.428      16.098      17.735     225.104
  1610.250    2022.222   14292.238      21.208      29.500      26.391      15.440      17.722     225.475
  1610.500    1983.330   14327.848      21.707      27.026      24.003      14.817      17.709     225.846
  1610.750    1943.899   14366.201      17.555      21.518      20.967      14.189      17.399     226.217
  1611.000    1927.094   14248.827      13.913      12.248      17.929      15.031      15.852     225.303
  1611.250    1960.222   14004.975      11.085      17.729      17.126      16.261      14.766     223.474
  1611.500    1935.351   13954.191      15.508      23.716      18.385      17.492      15.898     221.644
  1611.750    1841.105   14247.044      20.271      29.700      19.643      18.723      17.048     219.814
  1612.000    1861.377   14540.039      25.037      35.687      20.903      19.954      18.199     217.984
  1612.250    1867.634   14832.892      29.800      41.671      22.161      20.541      19.348     216.184
  1612.500    1769.778   15125.888      34.566      47.657      23.420      20.211      20.499     216.441
  1612.750    1718.979   15418.740      39.330      53.641      23.389      19.880      20.971     217.154
  1613.000    1724.495   15711.735      40.735      60.154      22.806      20.071      19.947     217.868
  1613.250    1745.683   16012.239      33.490      53.665      23.854      21.658      21.196     218.582
  1613.500    1762.866   15813.359      26.241      46.548      26.759      23.245      22.394     219.296
