~Version Information

VERS.                     1.20: CWLS log ASCII Standard - VERSION  1.20

WRAP.                       NO: One line per depth step

~Well Information Block

#MNEM.UNIT           Data Type   Information

#컴컴컴컴컴        컴컴컴컴컴�   컴컴컴컴컴컴컴�

STRT.M               1295.000 :

STOP.M               1895.000 :

STEP.M                  0.250 :

NULL.                 999.000 :

COMP.                  COMPANY:  Zaklad Geofizyka Krakow

WELL.                     WELL:  

FLD .                    FIELD:  

LOC .                 LOCATION:  Nieznany

PROV.                 PROVINCE:  Nieznany

CNTY.                   COUNTY:   

STAT.                    STATE:   

CTRY.                  COUNTRY:  Poland   

SRVC.          SERVICE COMPANY:  Zaklad Geofizyka Krakow   

DATE.                 LOG DATE:  Nieznany

UWI .           UNIQUE WELL ID:   

~Curve Information Block

#MNEM.UNIT         API CODE      Curve Description

#컴컴컴컴컴        컴컴컴컴컴�   컴컴컴컴컴컴컴�

DEPTH.M                       :   1    DEPTH

GR.C/MN                       :   2    Gamma Naturalne

NEGR.C/MN                     :   3    Neutron-Gamma

EL02.OHMM                     :   4    Gradientowa spagowa   0.55m

EL03.OHMM                     :   5    Gradientowa spagowa   1.05m

EL09.OHMM                     :   6    Gradientowa spagowa  2.625m

EL14.OHMM                     :   7    Gradientowa spagowa   4.25m

EL28.OHMM                     :   8    Gradientowa spagowa    8.5m

CALI.MM                       :   9    Srednica otworu

~Parameter Information Block

#MNEM.UNIT             Value      Description

#컴컴컴컴컴        컴컴컴컴컴�   컴컴컴컴컴컴컴�

DD  .M                 -1.000 :  Depth Driller

DL  .M                 -1.000 :  Depth Logger

BS  .MM                    -1 :  Bit Size

BS1 .                         :  Bit Size1

BS2 .                         :  Bit Size2

BS3 .                         :  Bit Size3

CBD .M                 -1.000 :  Casing Bottom Driller

CBL .M                 -1.000 :  Casing Bottom Logger

CSIZ.IN                       :  Casing Size

CSIN.MM                    -1 :  Internal Casing Size

CS1 .                         :  Casing Size 1

CS2 .                         :  Casing Size 2

CS3 .                         :  Casing Size 3

CAST.                         :  Casing Thickness

FD  .G/C3              -1.000 :  Mud Fluid Density

DFTH.                         :  Drilling Fluid Thixotropy

DFL .C3                    -1 :  Mud Fluid Loss

DFV .S/1500C3              -1 :  Mud Fluid Viscosity

DFPH.                         :  Drilling Fluid Ph

SALI.G/L               -1.000 :  Salinity of the Mud

RMS .OHMM              -1.000 :  Resistivity of Mud Sample

MST .DEGC              -1.000 :  Mud Sample Temperature

RMC .OHMM                     :  Mud Cake Resistivity

MCST.                         :  Mud Cake Sample Temperature

RMFS.                         :  Mud Filtrate Resistivity

MFST.                         :  Mud Filtrate Sample Temperature

MRT .                         :  Maximum Recorded Temperature

BHT .DEGC                     :  Bottom Hole Temperature

MST .                         :  Mean Surface Temperature

TGRD.                         :  Temperature Gradient

MDEN.                         :  Matrix Density

DTM .                         :  Delta-T Matrix

FDEN.                         :  Fluid Density

DTF .                         :  Delta-T Fluid

MATR.                         :  Matrix (0=LIME,1=SAND,2=DOLO)

FNUM.                         :  Tortuosity  Constant Archie's (a)

FEXP.                         :  Cementation Exponent Archie's (m)

SEXP.                         :  Saturation Exponent Archie's (n)

LATI.                         :  Latitude

LONG.                         :  Longitude

PDEV.M                 -1.000 :  Elevation of Permanent Datum

EGL .M                 -1.000 :  Elevation of Ground Level

EDF .M                        :  Elevation of Derrick Floor

EKB .M                 -1.000 :  Elevation of Kelly Bushing

~Other Information

#MNEM.UNIT           DATA Type   Information

#컴컴컴컴컴        컴컴컴컴컴�   컴컴컴컴컴컴컴�

COM1.               COMMENT #1:

COM2.               COMMENT #2:

COM3.               COMMENT #3:

COM4.               COMMENT #4:

OSRV.           OTHER SERVICES:   

IDGR.      GROUP IDENTIFICATOR:  Nieznany

LU  .             LOGGING UNIT:  Nieznany

CABL.               CABLE TYPE:  Nieznany

ENGI.          ENGINEER'S NAME:  Nieznany

OPER.          OPERATOR'S NAME:  Nieznany

ELAB.            ELABORATED BY:  Nieznany

VERY.              VERYFIED BY:  Nieznany

CASX.              CASING TYPE:   

DFT .      DRILLING FLUID TYPE:  Nieznany

MSS .        MUD SAMPLE SOURCE:   

MCSS.          MUD CAKE SOURCE:   

MFSS.      MUD FILTRATE SOURCE:   

LMF .        LOG MEASURED FROM:  ground level   

PDAT.          PERMANENT DATUM:  ground level   

~A DEPTH       GR         NEGR        EL02        EL03        EL09        EL14        EL28        CALI    
# ...
  1838.750    1386.762   17443.438      49.301      88.345     136.216     110.327     105.269     211.554
  1839.000    1372.772   17290.217      47.881      85.262     136.599     109.278     104.013     212.556
  1839.250    1365.878   17287.758      46.316      84.115     137.015     108.230     102.758     213.557
  1839.500    1401.231   17041.959      44.750      83.983     136.728     107.181     101.503     214.559
  1839.750    1438.351   16757.957      43.538      83.851     135.534     106.356     100.046     215.253
  1840.000    1478.318   16527.221      43.734      83.158     134.339     107.255      97.770     214.359
  1840.250    1455.692   16722.656      43.931      80.693     133.144     108.209      95.503     213.441
  1840.500    1464.502   16887.238      44.127      78.226     131.949     109.164      93.235     212.523
  1840.750    1489.797   17051.740      43.054      75.761     130.680     110.119      90.969     212.160
  1841.000    1515.105   17213.670      41.446      73.294     128.039     111.074      89.082     212.143
  1841.250    1533.353   17139.201      39.739      73.921     124.596     111.996      88.688     212.126
  1841.500    1477.421   17065.877      40.120      75.360     121.151     110.911      88.350     212.109
  1841.750    1457.125   16992.588      41.307      76.798     117.707     109.480      88.013     212.092
  1842.000    1467.208   17076.805      42.496      78.237     114.262     108.048      87.675     211.374
  1842.250    1431.953   17334.352      43.683      79.759     110.818     106.562      87.137     210.172
  1842.500    1374.128   17592.025      44.871      80.752     107.140     106.447      85.734     208.970
  1842.750    1366.673   17560.568      46.152      81.660     107.540     106.758      84.294     207.800
  1843.000    1379.217   17414.268      46.233      82.569     107.969     107.070      82.853     208.114
  1843.250    1391.681   17268.037      45.845      83.477     108.398     107.382      81.413     208.728
  1843.500    1353.554   17121.736      45.411      84.386     108.828     107.693      79.708     209.343
  1843.750    1303.616   17048.309      45.783      85.294     108.975     108.005      79.927     209.021
  1844.000    1297.234   17223.174      46.206      86.203     108.861     107.388      80.197     208.376
  1844.250    1343.656   17394.521      46.628      85.308     108.747     106.144      80.466     207.731
  1844.500    1390.102   17565.953      47.051      83.516     108.634     104.898      80.736     207.087
  1844.750    1400.243   17737.303      46.463      81.725     109.594     103.653      81.005     206.748
  1845.000    1384.521   17908.734      45.284      81.152     110.555     102.214      81.275     207.181
  1845.250    1377.499   18080.084      44.106      82.991     111.516     100.780      81.544     207.591
  1845.500    1412.537   18251.516      42.927      84.830     112.476      99.081      81.813     208.000
  1845.750    1448.425   18422.865      41.845      86.669     111.425      97.382      82.083     208.410
  1846.000    1484.331   18487.166      44.383      88.626     105.453      95.683      82.303     208.820
  1846.250    1520.219   18143.605      47.160      81.430     100.025      93.985      80.219     209.230
  1846.500    1556.125   17799.875      49.939      76.692      94.594      92.286      78.458     209.640
  1846.750    1556.162   17575.002      44.485      74.866      89.167      90.587      76.699     209.841
  1847.000    1608.967   17622.686      39.857      73.039      83.736      88.888      74.861     209.168
  1847.250    1651.513   17494.836      42.376      67.754      78.308      87.189      72.058     208.491
  1847.500    1644.062   16834.322      44.565      61.489      72.878      85.361      69.125     207.813
  1847.750    1636.615   16207.918      46.704      55.227      66.993      78.295      66.194     207.344
  1848.000    1648.864   15581.208      40.913      48.961      65.680      70.642      63.261     207.912
  1848.250    1682.786   15196.452      33.596      42.699      66.045      63.038      62.435     208.492
  1848.500    1716.725   15471.056      26.274      36.859      66.410      62.718      62.446     209.072
  1848.750    1747.326   15734.467      29.202      42.611      66.774      64.152      62.456     209.652
  1849.000    1634.605   15998.007      38.855      48.000      67.095      65.587      62.467     210.143
  1849.250    1643.479   15902.234      44.345      53.386      62.364      67.085      62.162     210.560
  1849.500    1651.079   15500.202      40.510      58.235      58.138      64.682      60.740     210.977
  1849.750    1591.312   15098.366      36.914      50.644      53.915      60.815      58.354     211.395
  1850.000    1533.203   14696.335      33.316      43.740      49.334      56.945      55.946     211.812
  1850.250    1561.099   14514.214      29.720      38.726      46.408      53.078      53.540     212.208
  1850.500    1592.523   14759.591      26.123      39.945      43.213      49.209      51.132     212.681
  1850.750    1622.368   14984.232      22.483      41.995      41.062      45.342      48.109     213.125
  1851.000    1554.612   15208.982      25.102      44.569      42.019      41.473      44.890     213.568
  1851.250    1514.262   15433.623      29.460      45.951      42.948      37.606      41.672     214.029
  1851.500    1523.385   15658.374      31.579      45.226      43.878      33.459      38.864     212.685
  1851.750    1532.503   15883.016      31.344      46.872      44.807      33.116      38.726     210.671
  1852.000    1508.232   16107.766      31.072      48.290      45.737      32.747      38.603     208.656
  1852.250    1450.021   16332.406      31.944      49.708      45.285      32.377      38.480     207.434
  1852.500    1467.709   16557.158      32.978      51.127      44.122      32.044      38.357     207.213
  1852.750    1469.124   16720.457      34.011      52.545      42.530      33.075      38.234     207.157
  1853.000    1412.665   16490.023      34.098      53.964      41.941      34.012      38.109     207.100
  1853.250    1421.949   16242.252      33.464      52.519      42.383      34.949      37.982     207.044
  1853.500    1431.901   16236.308      32.831      49.363      42.974      35.886      37.854     206.987
  1853.750    1411.116   16301.340      32.197      49.823      43.564      35.790      37.732     206.931
  1854.000    1386.930   16363.290      31.563      50.299      44.155      35.235      37.922     206.874
  1854.250    1383.577   16063.422      30.930      50.775      44.729      34.680      38.697     206.822
  1854.500    1437.013   15777.111      30.296      48.973      44.461      34.125      38.739     207.453
  1854.750    1487.409   15490.940      30.487      45.817      44.024      33.485      38.783     208.138
  1855.000    1537.830   15204.629      31.782      48.316      43.588      32.392      38.383     208.823
  1855.250    1588.226   14971.138      33.076      51.164      43.283      31.446      37.827     209.296
  1855.500    1572.484   15115.221      34.370      54.014      43.874      36.929      37.271     209.020
  1855.750    1510.758   15266.508      35.569      56.863      44.498      37.048      36.715     208.747
  1856.000    1518.026   15417.868      37.526      59.713      45.123      36.353      36.157     208.475
  1856.250    1525.975   15559.181      39.418      62.562      45.104      35.668      35.266     208.347
  1856.500    1533.928   15458.464      41.364      58.433      44.226      34.982      34.372     208.803
  1856.750    1495.961   15328.686      39.159      49.970      43.349      34.296      33.477     209.259
  1857.000    1509.579   15198.845      36.890      50.618      42.470      33.610      32.583     209.714
  1857.250    1458.048   15059.971      34.622      51.265      42.164      32.924      32.621     210.126
