~Version Information

VERS.                     1.20: CWLS log ASCII Standard - VERSION  1.20

WRAP.                       NO: One line per depth step

~Well Information Block

#MNEM.UNIT           Data Type   Information

#컴컴컴컴컴        컴컴컴컴컴�   컴컴컴컴컴컴컴�

STRT.M               1295.000 :

STOP.M               1895.000 :

STEP.M                  0.250 :

NULL.                 999.000 :

COMP.                  COMPANY:  Zaklad Geofizyka Krakow

WELL.                     WELL:  

FLD .                    FIELD:  

LOC .                 LOCATION:  Nieznany

PROV.                 PROVINCE:  Nieznany

CNTY.                   COUNTY:   

STAT.                    STATE:   

CTRY.                  COUNTRY:  Poland   

SRVC.          SERVICE COMPANY:  Zaklad Geofizyka Krakow   

DATE.                 LOG DATE:  Nieznany

UWI .           UNIQUE WELL ID:   

~Curve Information Block

#MNEM.UNIT         API CODE      Curve Description

#컴컴컴컴컴        컴컴컴컴컴�   컴컴컴컴컴컴컴�

DEPTH.M                       :   1    DEPTH

GR.C/MN                       :   2    Gamma Naturalne

NEGR.C/MN                     :   3    Neutron-Gamma

EL02.OHMM                     :   4    Gradientowa spagowa   0.55m

EL03.OHMM                     :   5    Gradientowa spagowa   1.05m

EL09.OHMM                     :   6    Gradientowa spagowa  2.625m

EL14.OHMM                     :   7    Gradientowa spagowa   4.25m

EL28.OHMM                     :   8    Gradientowa spagowa    8.5m

CALI.MM                       :   9    Srednica otworu

~Parameter Information Block

#MNEM.UNIT             Value      Description

#컴컴컴컴컴        컴컴컴컴컴�   컴컴컴컴컴컴컴�

DD  .M                 -1.000 :  Depth Driller

DL  .M                 -1.000 :  Depth Logger

BS  .MM                    -1 :  Bit Size

BS1 .                         :  Bit Size1

BS2 .                         :  Bit Size2

BS3 .                         :  Bit Size3

CBD .M                 -1.000 :  Casing Bottom Driller

CBL .M                 -1.000 :  Casing Bottom Logger

CSIZ.IN                       :  Casing Size

CSIN.MM                    -1 :  Internal Casing Size

CS1 .                         :  Casing Size 1

CS2 .                         :  Casing Size 2

CS3 .                         :  Casing Size 3

CAST.                         :  Casing Thickness

FD  .G/C3              -1.000 :  Mud Fluid Density

DFTH.                         :  Drilling Fluid Thixotropy

DFL .C3                    -1 :  Mud Fluid Loss

DFV .S/1500C3              -1 :  Mud Fluid Viscosity

DFPH.                         :  Drilling Fluid Ph

SALI.G/L               -1.000 :  Salinity of the Mud

RMS .OHMM              -1.000 :  Resistivity of Mud Sample

MST .DEGC              -1.000 :  Mud Sample Temperature

RMC .OHMM                     :  Mud Cake Resistivity

MCST.                         :  Mud Cake Sample Temperature

RMFS.                         :  Mud Filtrate Resistivity

MFST.                         :  Mud Filtrate Sample Temperature

MRT .                         :  Maximum Recorded Temperature

BHT .DEGC                     :  Bottom Hole Temperature

MST .                         :  Mean Surface Temperature

TGRD.                         :  Temperature Gradient

MDEN.                         :  Matrix Density

DTM .                         :  Delta-T Matrix

FDEN.                         :  Fluid Density

DTF .                         :  Delta-T Fluid

MATR.                         :  Matrix (0=LIME,1=SAND,2=DOLO)

FNUM.                         :  Tortuosity  Constant Archie's (a)

FEXP.                         :  Cementation Exponent Archie's (m)

SEXP.                         :  Saturation Exponent Archie's (n)

LATI.                         :  Latitude

LONG.                         :  Longitude

PDEV.M                 -1.000 :  Elevation of Permanent Datum

EGL .M                 -1.000 :  Elevation of Ground Level

EDF .M                        :  Elevation of Derrick Floor

EKB .M                 -1.000 :  Elevation of Kelly Bushing

~Other Information

#MNEM.UNIT           DATA Type   Information

#컴컴컴컴컴        컴컴컴컴컴�   컴컴컴컴컴컴컴�

COM1.               COMMENT #1:

COM2.               COMMENT #2:

COM3.               COMMENT #3:

COM4.               COMMENT #4:

OSRV.           OTHER SERVICES:   

IDGR.      GROUP IDENTIFICATOR:  Nieznany

LU  .             LOGGING UNIT:  Nieznany

CABL.               CABLE TYPE:  Nieznany

ENGI.          ENGINEER'S NAME:  Nieznany

OPER.          OPERATOR'S NAME:  Nieznany

ELAB.            ELABORATED BY:  Nieznany

VERY.              VERYFIED BY:  Nieznany

CASX.              CASING TYPE:   

DFT .      DRILLING FLUID TYPE:  Nieznany

MSS .        MUD SAMPLE SOURCE:   

MCSS.          MUD CAKE SOURCE:   

MFSS.      MUD FILTRATE SOURCE:   

LMF .        LOG MEASURED FROM:  ground level   

PDAT.          PERMANENT DATUM:  ground level   

~A DEPTH       GR         NEGR        EL02        EL03        EL09        EL14        EL28        CALI    
# ...
  1801.250    1352.319   18513.703      57.079     112.442     149.239     117.294      71.754     208.001
  1801.500    1363.190   18698.904      62.478     119.510     155.250     123.196      68.931     207.827
  1801.750    1373.689   18808.750      64.392     117.583     156.544     129.546      66.004     208.000
  1802.000    1291.083   18566.111      51.517     104.919     147.393     127.511      63.076     208.187
  1802.250    1243.130   18319.131      40.294      93.950     139.001     121.857      60.149     208.373
  1802.500    1285.011   18072.029      40.547      85.924     130.604     116.201      57.220     208.560
  1802.750    1324.510   17819.078      37.905      77.514     122.212     110.547      54.293     208.539
  1803.000    1364.028   17858.660      32.785      73.567     113.816     104.891      51.364     208.436
  1803.250    1400.527   17984.898      27.668      70.812     105.423      99.237      51.855     208.333
  1803.500    1360.465   18111.195      27.511      68.056     102.449      93.376      54.476     208.229
  1803.750    1313.255   18237.434      33.671      66.157     105.537      98.626      57.095     208.089
  1804.000    1260.350   18363.732      39.833      68.034     108.627     104.076      59.716     207.803
  1804.250    1312.834   18408.873      46.302      69.929     111.715     109.523      62.336     207.515
  1804.500    1372.514   17922.469      47.629      71.825     114.805     114.973      64.957     207.227
  1804.750    1432.165   17368.857      47.326      74.736     117.893     120.420      67.576     207.414
  1805.000    1452.345   17317.170      47.069      81.810     120.575     125.870      70.197     208.822
  1805.250    1442.445   17241.115      48.593      89.624     117.075     122.754      72.817     210.121
  1805.500    1480.719   16633.559      49.917      88.695     113.980     115.225      75.438     211.421
  1805.750    1522.942   16588.406      49.362      83.743     110.888     107.938      77.149     211.752
  1806.000    1565.185   16462.213      43.070      78.789     107.793     104.930      76.680     211.611
  1806.250    1607.408   15976.904      37.069      73.837     104.700     102.915      76.558     211.470
  1806.500    1649.652   16070.186      35.477      68.883     101.606     100.898      77.789     211.329
  1806.750    1605.467   16355.161      39.413      63.931      98.500      98.883      79.148     212.660
  1807.000    1546.461   16640.275      42.078      58.977     101.117      96.866      76.595     213.027
  1807.250    1554.217   16925.250      41.655      57.047     105.217      94.851      78.485     212.471
  1807.500    1561.976   17210.367      42.264      63.756     109.318      95.203      81.269     211.915
  1807.750    1498.706   17520.465      44.143      70.168     110.868      97.270      84.091     211.358
  1808.000    1417.182   17308.588      46.022      76.583     110.959      99.338      86.934     211.169
  1808.250    1448.496   16837.578      47.901      82.995     111.049     101.314      89.964     211.479
  1808.500    1476.068   16366.335      49.780      89.410     111.140     102.348      90.691     211.790
  1808.750    1503.627   16356.854      48.959      88.718     112.257     103.147      90.647     212.100
  1809.000    1531.199   16462.570      46.366      84.163     114.339     103.948      90.603     212.410
  1809.250    1558.757   16025.963      45.327      79.611     114.890     104.798      90.560     212.750
  1809.500    1584.782   15590.842      46.170      75.056     113.398     104.368      90.518     212.889
  1809.750    1539.862   15195.016      46.959      70.504     111.907     103.422      90.589     212.966
  1810.000    1606.634   15276.746      41.226      67.547     110.415     102.475      90.655     213.043
  1810.250    1670.250   15408.988      39.510      68.951     108.923     101.529      90.722     213.121
  1810.500    1627.141   15541.297      39.912      70.357     107.377     100.582      90.789     213.198
  1810.750    1553.914   15673.541      39.148      71.860     109.380      99.598      91.481     213.306
  1811.000    1530.667   15805.849      37.253      70.409     111.460     101.068      92.538     213.537
  1811.250    1584.970   15938.093      40.900      67.636     113.538     103.423      93.595     213.770
  1811.500    1639.300   16070.400      45.254      66.969     115.617     105.779      94.652     214.002
  1811.750    1697.953   15952.649      44.479      73.283     111.884     108.134      95.801     214.235
  1812.000    1652.825   15600.230      47.000      79.599     106.549     110.491      93.716     214.430
  1812.250    1615.841   15598.303      50.557      85.383     101.216     109.236      89.888     217.189
  1812.500    1637.048   15724.779      54.116      79.118      95.881     103.306      86.058     219.561
  1812.750    1619.904   15410.158      51.825      71.887      90.549      97.379      82.230     221.931
  1813.000    1567.138   15045.726      44.297      64.653      85.488      91.450      78.400     224.303
  1813.250    1619.184   14681.469      36.772      57.422      80.679      85.523      74.571     226.673
  1813.500    1668.304   14317.036      29.244      50.188      75.868      79.594      70.741     229.045
  1813.750    1715.050   14430.644      22.587      42.957      71.059      73.667      66.913     231.415
  1814.000    1591.397   14999.833      25.823      36.563      70.325      67.737      64.963     233.967
  1814.250    1508.023   15568.743      29.308      46.025      73.415      63.705      68.959     225.018
  1814.500    1515.943   16137.933      32.795      54.506      76.506      67.253      72.958     213.505
  1814.750    1426.873   16706.844      36.280      63.120      79.595      70.800      76.954     214.479
  1815.000    1407.941   17276.031      39.767      69.316      82.686      74.348      80.952     215.678
  1815.250    1331.798   17371.371      43.483      75.315      88.119      77.894      84.948     216.877
  1815.500    1334.526   17075.551      44.308      78.648      94.762      81.442      89.522     218.058
  1815.750    1389.844   16779.875      44.648      81.376     101.402      83.614      87.815     217.397
  1816.000    1445.188   16615.547      47.290      84.106     108.045      83.060      85.820     216.747
  1816.250    1500.506   16693.289      49.073      86.573     114.685      82.545      86.749     216.097
  1816.500    1555.851   16544.771      46.530      90.885     121.328      82.030      88.705     215.577
  1816.750    1558.464   15979.865      43.948      85.245     127.968      84.383      90.661     215.265
  1817.000    1520.935   15414.684      41.364      79.376     134.611      88.495      92.617     214.952
  1817.250    1546.133   14849.778      42.238      85.616     138.726      92.605      94.572     214.640
  1817.500    1627.491   14284.598      47.732      91.483     125.966      96.718      96.841     215.871
  1817.750    1708.809   13719.691      53.223      97.079     112.454      90.413      90.385     218.886
  1818.000    1790.167   13154.511      58.716      76.814      98.935      75.917      83.090     221.903
  1818.250    1816.411   12589.604      58.904      53.092      85.423      61.428      74.578     224.917
  1818.500    1850.690   12024.423      37.558      34.784      71.905      46.931      66.061     227.934
  1818.750    1940.645   11459.518      16.176      27.212      58.393      36.752      57.549     230.949
  1819.000    2030.645   10894.336       7.809      21.060      44.874      32.936      49.032     232.372
  1819.250    2120.600   10742.024       8.600      13.441      31.363      29.122      37.745     230.474
  1819.500    2079.913   11450.286       8.038      10.756      17.844      25.307      24.061     228.575
  1819.750    1920.915   12096.240       7.041       9.821      12.400      21.493      22.399     230.211
