~Version Information

VERS.                     1.20: CWLS log ASCII Standard - VERSION  1.20

WRAP.                       NO: One line per depth step

~Well Information Block

#MNEM.UNIT           Data Type   Information

#컴컴컴컴컴        컴컴컴컴컴�   컴컴컴컴컴컴컴�

STRT.M               1295.000 :

STOP.M               1895.000 :

STEP.M                  0.250 :

NULL.                 999.000 :

COMP.                  COMPANY:  Zaklad Geofizyka Krakow

WELL.                     WELL:  

FLD .                    FIELD:  

LOC .                 LOCATION:  Nieznany

PROV.                 PROVINCE:  Nieznany

CNTY.                   COUNTY:   

STAT.                    STATE:   

CTRY.                  COUNTRY:  Poland   

SRVC.          SERVICE COMPANY:  Zaklad Geofizyka Krakow   

DATE.                 LOG DATE:  Nieznany

UWI .           UNIQUE WELL ID:   

~Curve Information Block

#MNEM.UNIT         API CODE      Curve Description

#컴컴컴컴컴        컴컴컴컴컴�   컴컴컴컴컴컴컴�

DEPTH.M                       :   1    DEPTH

GR.C/MN                       :   2    Gamma Naturalne

NEGR.C/MN                     :   3    Neutron-Gamma

EL02.OHMM                     :   4    Gradientowa spagowa   0.55m

EL03.OHMM                     :   5    Gradientowa spagowa   1.05m

EL09.OHMM                     :   6    Gradientowa spagowa  2.625m

EL14.OHMM                     :   7    Gradientowa spagowa   4.25m

EL28.OHMM                     :   8    Gradientowa spagowa    8.5m

CALI.MM                       :   9    Srednica otworu

~Parameter Information Block

#MNEM.UNIT             Value      Description

#컴컴컴컴컴        컴컴컴컴컴�   컴컴컴컴컴컴컴�

DD  .M                 -1.000 :  Depth Driller

DL  .M                 -1.000 :  Depth Logger

BS  .MM                    -1 :  Bit Size

BS1 .                         :  Bit Size1

BS2 .                         :  Bit Size2

BS3 .                         :  Bit Size3

CBD .M                 -1.000 :  Casing Bottom Driller

CBL .M                 -1.000 :  Casing Bottom Logger

CSIZ.IN                       :  Casing Size

CSIN.MM                    -1 :  Internal Casing Size

CS1 .                         :  Casing Size 1

CS2 .                         :  Casing Size 2

CS3 .                         :  Casing Size 3

CAST.                         :  Casing Thickness

FD  .G/C3              -1.000 :  Mud Fluid Density

DFTH.                         :  Drilling Fluid Thixotropy

DFL .C3                    -1 :  Mud Fluid Loss

DFV .S/1500C3              -1 :  Mud Fluid Viscosity

DFPH.                         :  Drilling Fluid Ph

SALI.G/L               -1.000 :  Salinity of the Mud

RMS .OHMM              -1.000 :  Resistivity of Mud Sample

MST .DEGC              -1.000 :  Mud Sample Temperature

RMC .OHMM                     :  Mud Cake Resistivity

MCST.                         :  Mud Cake Sample Temperature

RMFS.                         :  Mud Filtrate Resistivity

MFST.                         :  Mud Filtrate Sample Temperature

MRT .                         :  Maximum Recorded Temperature

BHT .DEGC                     :  Bottom Hole Temperature

MST .                         :  Mean Surface Temperature

TGRD.                         :  Temperature Gradient

MDEN.                         :  Matrix Density

DTM .                         :  Delta-T Matrix

FDEN.                         :  Fluid Density

DTF .                         :  Delta-T Fluid

MATR.                         :  Matrix (0=LIME,1=SAND,2=DOLO)

FNUM.                         :  Tortuosity  Constant Archie's (a)

FEXP.                         :  Cementation Exponent Archie's (m)

SEXP.                         :  Saturation Exponent Archie's (n)

LATI.                         :  Latitude

LONG.                         :  Longitude

PDEV.M                 -1.000 :  Elevation of Permanent Datum

EGL .M                 -1.000 :  Elevation of Ground Level

EDF .M                        :  Elevation of Derrick Floor

EKB .M                 -1.000 :  Elevation of Kelly Bushing

~Other Information

#MNEM.UNIT           DATA Type   Information

#컴컴컴컴컴        컴컴컴컴컴�   컴컴컴컴컴컴컴�

COM1.               COMMENT #1:

COM2.               COMMENT #2:

COM3.               COMMENT #3:

COM4.               COMMENT #4:

OSRV.           OTHER SERVICES:   

IDGR.      GROUP IDENTIFICATOR:  Nieznany

LU  .             LOGGING UNIT:  Nieznany

CABL.               CABLE TYPE:  Nieznany

ENGI.          ENGINEER'S NAME:  Nieznany

OPER.          OPERATOR'S NAME:  Nieznany

ELAB.            ELABORATED BY:  Nieznany

VERY.              VERYFIED BY:  Nieznany

CASX.              CASING TYPE:   

DFT .      DRILLING FLUID TYPE:  Nieznany

MSS .        MUD SAMPLE SOURCE:   

MCSS.          MUD CAKE SOURCE:   

MFSS.      MUD FILTRATE SOURCE:   

LMF .        LOG MEASURED FROM:  ground level   

PDAT.          PERMANENT DATUM:  ground level   

~A DEPTH       GR         NEGR        EL02        EL03        EL09        EL14        EL28        CALI    
# ...
  1351.250    1713.153    9765.154       5.868       7.379      10.281      13.011     999.000     274.186
  1351.500    1735.934    9787.802       5.773       7.248      10.185      13.154     999.000     276.747
  1351.750    1795.352    9758.922       5.678       7.809      10.301      13.301     999.000     274.704
  1352.000    1854.800    9730.029       5.587       8.371      10.416      13.447     999.000     274.772
  1352.250    1905.257    9795.592       6.122       8.933      10.531      13.594     999.000     283.970
  1352.500    1870.745    9927.448       6.632       9.495      10.474      13.741     999.000     280.449
  1352.750    1871.789   10059.240       7.141      10.051      10.141      13.892     999.000     271.673
  1353.000    1884.061   10191.098       7.650       9.846       9.807      13.184      10.950     261.487
  1353.250    1885.577   10322.890       7.469       9.466       9.498      12.189      10.663     262.167
  1353.500    1844.635   10454.747       7.094       9.086       9.799      11.194      10.376     260.439
  1353.750    1803.792   10536.934       6.719       8.706      10.160      10.199      11.389     253.420
  1354.000    1813.156   10491.972       6.343       8.913      10.522       9.616      12.563     248.989
  1354.250    1874.338   10449.082       5.968       9.930      10.883       9.895      13.495     249.091
  1354.500    1935.549   10444.512       6.404      10.956      11.245      10.175      14.480     249.187
  1354.750    1964.312   10519.845       8.038      11.997      11.615      10.454      13.987     247.378
  1355.000    1932.125   10595.215       9.672      14.757      11.300      10.733      13.465     245.656
  1355.250    1949.603   10670.547      11.306      13.780      10.774      10.453      12.943     243.935
  1355.500    1964.512   10745.917      12.940      12.888      10.248       9.963      12.421     242.475
  1355.750    1936.863   10783.771      13.530      11.996       9.722       9.474      12.382     248.094
  1356.000    1912.684   10589.900      11.840      11.097       9.244       8.984      12.486     252.974
  1356.250    1888.517   10385.497      10.166      10.175       9.452       8.845      12.207     253.510
  1356.500    1890.188   10172.009       9.442       9.253       9.642       8.883      11.806     252.112
  1356.750    1938.624   10200.399       8.986       8.489       9.831       8.921      11.405     251.405
  1357.000    1987.084   10230.109       8.531       8.830      10.021       8.674      11.004     252.634
  1357.250    2035.521   10259.806       8.170       9.187      10.223       8.196      10.604     253.811
  1357.500    2041.833   10285.006       7.847       9.339      10.123       7.717      10.191     251.930
  1357.750    2008.956   10154.451       7.553       8.783       9.903       7.238      10.698     248.789
  1358.000    2013.069   10046.924       7.259       8.226       9.683       6.751      11.220     249.911
  1358.250    2033.808   10132.875       6.966       7.669       9.468       7.288      11.695     250.971
  1358.500    2054.556   10214.635       6.672       7.352       9.642       7.834      12.328     249.274
  1358.750    2056.461   10296.355       7.054       7.566       9.892       8.380      12.917     246.695
  1359.000    2004.782   10378.115       7.689       7.757      10.142       8.926      12.970     244.001
  1359.250    1957.818   10459.836       8.323       8.310      10.392       9.471      12.639     247.595
  1359.500    1956.505   10541.596       8.958       8.809      10.657      10.017      11.889     251.355
  1359.750    1963.794   10481.467       9.592       9.334      10.538      10.563      10.512     254.934
  1360.000    1956.279   10375.454       9.601       9.668      10.412      10.530      10.385     253.756
  1360.250    1902.003   10233.733       8.931       9.795      10.286       9.998      10.241     256.292
  1360.500    1871.528   10287.770       8.262       9.906      10.160       9.465      10.082     260.096
  1360.750    1916.176   10339.712       7.592      10.027      10.033       8.933      10.311     263.800
  1361.000    1959.288   10397.718       7.048      10.135      10.018       8.378      10.539     261.688
  1361.250    2002.378   10277.253       7.352       9.970      10.112       8.319      10.698     258.434
  1361.500    2045.490   10140.877       7.607       9.821      10.206       8.257      10.811     254.553
  1361.750    2088.581   10039.406       7.453       9.672      10.300       8.196      10.924     256.006
  1362.000    2073.392   10068.640       7.010       9.536      10.466       8.134      11.037     255.323
  1362.250    1996.992   10097.688       6.742       8.450      10.683       8.070      11.150     251.222
  1362.500    1950.947   10126.752       7.040       8.148      10.900       8.278      11.160     254.509
  1362.750    1970.715   10155.801       7.331       7.995      11.010       8.584      10.898     258.993
  1363.000    1901.797   10190.553       7.622       8.047      10.811       8.891      10.635     262.995
  1363.250    1882.243   10077.246       7.913       8.668      10.621       9.197      10.380     258.125
  1363.500    1907.555    9936.276       8.204       9.290      10.430       9.503      10.343     258.849
  1363.750    1932.856    9901.383       8.495       9.887      10.918       9.863      10.353     260.912
  1364.000    1931.636    9925.113       8.769      10.648      11.768      10.270      10.362     262.975
  1364.250    1886.385    9948.832       8.498      11.355      12.618      10.676      10.372     262.399
  1364.500    1841.111    9972.563       8.242      12.101      13.468      11.083      10.382     259.097
  1364.750    1843.712    9994.719       7.963      12.018      14.318      11.490      10.392     257.920
  1365.000    1876.145    9900.688       8.055      11.931      14.296      11.897      10.403     261.464
  1365.250    1908.561    9796.426       8.322      11.843      13.673      12.310      10.413     264.739
  1365.500    1939.822    9688.751       8.589      11.571      13.050      12.061      10.424     268.068
  1365.750    1797.610    9723.717       8.856      11.135      12.427      11.623      10.435     268.398
  1366.000    1804.935    9759.863       9.124      10.698      11.954      11.185      10.352     268.734
  1366.250    1811.102    9767.557       9.391      10.329      11.785      10.747      10.209     269.070
  1366.500    1773.283    9707.202       9.679      10.225      11.616      10.263      10.066     270.756
  1366.750    1731.809    9756.166       9.312      10.122      11.448      10.330       9.924     273.454
  1367.000    1753.286    9805.153       8.915      10.018      11.279      10.405       9.781     274.011
  1367.250    1796.386    9854.117       8.518       9.918      11.110      10.481       9.638     271.072
  1367.500    1839.508    9903.104       8.121       9.744      10.789      10.384       9.492     267.980
  1367.750    1863.042    9952.068       7.932       9.565      10.308       9.853       9.473     268.459
  1368.000    1824.469   10001.055       7.992       9.387       9.827       9.322       9.454     268.965
  1368.250    1804.181    9894.498       8.052       9.208       9.346       8.791       9.680     269.470
  1368.500    1848.498    9706.179       8.111       9.030       8.923       8.261      10.192     269.976
  1368.750    1892.451    9517.951       7.827       8.851       8.549       8.084      10.703     270.481
  1369.000    1936.424    9412.730       7.423       8.530       8.175       8.258      11.214     270.987
  1369.250    1947.875    9468.965       7.019       8.033       7.920       8.431      10.596     271.492
  1369.500    1919.911    9525.226       6.648       7.697       8.131       8.544       9.605     263.694
  1369.750    1904.586    9581.459       6.693       7.683       8.341       8.422       9.058     264.552
