~Version Information

VERS.                     1.20: CWLS log ASCII Standard - VERSION  1.20

WRAP.                       NO: One line per depth step

~Well Information Block

#MNEM.UNIT           Data Type   Information

#컴컴컴컴컴        컴컴컴컴컴�   컴컴컴컴컴컴컴�

STRT.M               1500.000 :

STOP.M               2399.900 :

STEP.M                  0.100 :

NULL.                  -1.000 :

COMP.                  COMPANY:   

WELL.                     WELL:  A-6

FLD .                    FIELD:   

LOC .                 LOCATION:   

PROV.                 PROVINCE:  Nieznany

SRVC.          SERVICE COMPANY:  Zaklad Geofizyka Krakow   

DATE.                 LOG DATE:  Nieznany

UWI .           UNIQUE WELL ID:   

~Parameter  Information Block

#MNEM.UNIT             Value      Description

#컴컴컴컴컴        컴컴컴컴컴�   컴컴컴컴컴컴컴�

DD  .M                 -1.000 :  Depth Driller

DL  .M                 -1.000 :  Depth Logger

BS  .MM                   311 :  Bit Size

BS1 .                         :  Bit Size1

BS2 .                         :  Bit Size2

BS3 .                         :  Bit Size3

CBD .M                 -1.000 :  Casing Bottom Driller

CBL .M                 -1.000 :  Casing Bottom Logger

CSIZ.IN                       :  Casing Size

CSIN.MM                    -1 :  Internal Casing Size

CS1 .                         :  Casing Size 1

CS2 .                         :  Casing Size 2

CS3 .                         :  Casing Size 3

CAST.                         :  Casing Thickness

FD  .G/C3               1.230 :  Mud Fluid Density

DFTH.                         :  Drilling Fluid Thixotropy

DFL .C3                    -1 :  Mud Fluid Loss

DFV .S/1500C3              -1 :  Mud Fluid Viscosity

DFPH.                         :  Drilling Fluid Ph

SALI.G/L               19.800 :  Salinity of the Mud

RMS .OHMM               0.300 :  Resistivity of Mud Sample

MST .DEGC               8.000 :  Mud Sample Temperature

RMC .OHMM                     :  Mud Cake Resistivity

MCST.                         :  Mud Cake Sample Temperature

RMFS.                         :  Mud Filtrate Resistivity

MFST.                         :  Mud Filtrate Sample Temperature

MRT .                         :  Maximum Recorded Temperature

BHT .DEGC                     :  Bottom Hole Temperature

MST .                         :  Mean Surface Temperature

TGRD.                         :  Temperature Gradient

MDEN.                         :  Matrix Density

DTM .                         :  Delta-T Matrix

FDEN.                         :  Fluid Density

DTF .                         :  Delta-T Fluid

MATR.                         :  Matrix (0=LIME,1=SAND,2=DOLO)

FNUM.                         :  Tortuosity  Constant Archie's (a)

FEXP.                         :  Cementation Exponent Archie's (m)

SEXP.                         :  Saturation Exponent Archie's (n)

LATI.                         :  Latitude

LONG.                         :  Longitude

PDEV.M                 -1.000 :  Elevation of Permanent Datum

EGL .M                 -1.000 :  Elevation of Ground Level

EDF .M                        :  Elevation of Derrick Floor

EKB .M                 -1.000 :  Elevation of Kelly Bushing

~Curve Information

#MNEM.UNIT         API CODE      Opis krzywych

#컴컴컴컴컴        컴컴컴컴컴�   컴컴컴컴컴컴컴�

DEPT.M                       :   1    Glebokosc [m]

GR.API                        :   2    Prof.gamma naturalne PG

RHOB.G/C3                     :   3    Gestosc objet.PGGg[g/ccm]

NTCN.NPHI                     :   4    Prof.n-n termiczny PNNt

EN00.OHMM                     :   5    Sonda potencjalowa

EN01.OHMM                     :   6    Sonda potencjalowa

EL00.OHMM                     :   7    Sonda gradientowa

EL01.OHMM                     :   8    Sonda gradientowa

SP.MV                         :   9    Prof.potencj. naturalnych PS

LL3.OHMM                      :  10    Laterolog 3

DT.US/M                       :  11    Profilowanie akustyczne PAdt

CALI.MM                       :  12    Srednica otworu PSr[mm]

~A DEPTH       GR         RHOB        NTCN        EN00        EN01        EL00        EL01         SP         LL3          DT         CALI    
# ...
  1561.600      79.262       2.603      11.208      14.339      47.522      85.117      98.693     121.661      48.856     250.700     317.304
  1561.700      77.891       2.592      11.054      14.355      47.730      85.044      98.544     121.827      48.180     246.131     318.203
  1561.800      76.428       2.575      10.822      14.375      47.933      84.892      98.450     121.903      47.042     239.279     319.309
  1561.900      74.821       2.558      10.522      14.397      48.115      84.710      98.438     121.932      46.488     231.124     320.191
  1562.000      72.675       2.550      10.186      14.423      48.268      84.543      98.530     122.009      47.109     222.976     320.560
  1562.100      70.313       2.545       9.871      14.451      48.388      84.447      98.729     122.120      49.709     216.175     320.330
  1562.200      68.449       2.548       9.691      14.479      48.479      84.470      99.032     122.148      54.441     211.367     319.406
  1562.300      67.500       2.565       9.670      14.506      48.546      84.621      99.431     121.936      59.700     208.549     318.097
  1562.400      67.770       2.589       9.719      14.530      48.598      84.884      99.915     121.322      62.944     207.737     317.033
  1562.500      69.047       2.614       9.785      14.546      48.637      85.246     100.471     120.417      63.878     208.578     316.487
  1562.600      70.236       2.637       9.848      14.556      48.666      85.685     101.086     119.639      63.068     210.866     316.392
  1562.700      70.823       2.653       9.872      14.557      48.689      86.183     101.735     119.391      61.270     214.111     316.535
  1562.800      71.328       2.656       9.851      14.550      48.702      86.721     102.387     119.934      59.548     217.415     316.647
  1562.900      72.058       2.646       9.810      14.537      48.697      87.265     103.016     121.260      58.792     220.331     316.637
  1563.000      72.605       2.630       9.778      14.519      48.672      87.774     103.604     122.967      57.336     222.361     316.626
  1563.100      72.802       2.608       9.797      14.496      48.621      88.214     104.155     124.598      55.072     222.800     316.720
  1563.200      72.868       2.585       9.870      14.470      48.542      88.596     104.674     125.962      52.842     221.857     316.878
  1563.300      72.748       2.569       9.992      14.444      48.438      88.953     105.167     127.106      51.431     220.015     316.996
  1563.400      72.673       2.561      10.187      14.416      48.317      89.315     105.637     128.117      50.816     217.212     317.006
  1563.500      73.311       2.561      10.459      14.387      48.184      89.705     106.080     129.085      51.004     214.180     316.920
  1563.600      75.088       2.570      10.767      14.356      48.043      90.123     106.491     130.021      51.228     211.865     316.884
  1563.700      77.294       2.584      11.082      14.319      47.894      90.549     106.880     130.803      50.297     210.592     317.073
  1563.800      79.017       2.597      11.426      14.274      47.735      90.976     107.255     131.284      47.617     210.425     317.459
  1563.900      79.983       2.608      11.835      14.223      47.566      91.405     107.619     131.437      43.919     211.487     317.958
  1564.000      80.741       2.612      12.283      14.169      47.389      91.834     107.964     131.401      41.136     213.120     318.347
  1564.100      81.807       2.614      12.701      14.115      47.211      92.239     108.271     131.367      39.629     214.339     318.421
  1564.200      83.174       2.615      13.052      14.066      47.037      92.597     108.522     131.439      38.669     215.098     318.292
  1564.300      84.917       2.614      13.292      14.020      46.867      92.884     108.711     131.591      37.747     216.253     318.108
  1564.400      86.733       2.614      13.416      13.977      46.704      93.086     108.844     131.682      37.615     218.188     317.800
  1564.500      88.002       2.615      13.495      13.934      46.547      93.207     108.933     131.457      38.120     220.530     317.440
  1564.600      88.622       2.613      13.567      13.891      46.401      93.268     108.997     130.700      38.124     223.149     317.186
  1564.700      89.832       2.610      13.643      13.849      46.266      93.299     109.041     129.444      38.350     225.425     316.889
  1564.800      91.779       2.605      13.717      13.810      46.140      93.298     109.070     127.957      38.902     226.390     316.563
  1564.900      93.917       2.597      13.769      13.772      46.020      93.246     109.085     126.574      39.131     225.568     316.369
  1565.000      96.434       2.591      13.808      13.736      45.903      93.141     109.091     125.654      39.218     223.971     316.311
  1565.100      98.747       2.591      13.854      13.706      45.788      92.999     109.095     125.435      39.934     222.779     316.262
  1565.200      99.823       2.594      13.722      13.682      45.676      92.835     109.108     125.832      40.776     222.466     316.236
  1565.300      99.375       2.599      13.226      13.665      45.569      92.671     109.143     126.529      41.340     223.733     316.343
  1565.400      97.033       2.604      12.386      13.653      45.465      92.542     109.212     127.256      41.754     226.155     316.506
  1565.500      92.306       2.602      11.250      13.646      45.360      92.471     109.330     127.768      42.526     228.006     316.726
  1565.600      86.200       2.596       9.997      13.638      45.242      92.479     109.509     127.887      44.589     228.678     316.945
  1565.700      79.739       2.590       8.959      13.626      45.107      92.568     109.755     127.680      47.838     227.891     316.989
  1565.800      73.895       2.586       8.330      13.611      44.954      92.753     110.070     127.354      51.793     225.498     316.840
  1565.900      70.520       2.586       8.086      13.594      44.786      93.053     110.435     127.101      57.611     222.852     316.552
  1566.000      70.824       2.588       8.202      13.576      44.615      93.463     110.828     127.089      62.900     221.282     316.175
  1566.100      74.571       2.591       8.663      13.558      44.452      93.977     111.215     127.453      63.727     221.251     315.953
  1566.200      80.913       2.591       9.398      13.540      44.305      94.579     111.565     128.228      61.209     223.607     316.076
  1566.300      88.294       2.591      10.308      13.520      44.176      95.227     111.846     129.343      56.836     227.648     316.496
  1566.400      94.467       2.591      11.270      13.498      44.063      95.857     112.037     130.601      50.026     231.643     317.115
  1566.500      97.844       2.590      12.147      13.475      43.961      96.399     112.125     131.754      42.786     235.499     317.722
  1566.600      97.958       2.586      12.854      13.448      43.872      96.795     112.100     132.533      38.284     238.556     318.267
  1566.700      95.571       2.582      13.317      13.419      43.794      96.996     111.965     132.706      36.320     240.399     318.766
  1566.800      92.792       2.574      13.489      13.384      43.729      96.964     111.733     132.264      35.785     241.170     319.089
  1566.900      90.716       2.567      13.364      13.345      43.673      96.699     111.436     131.497      35.302     240.791     319.404
  1567.000      89.249       2.561      12.872      13.303      43.622      96.239     111.120     130.753      35.106     239.179     319.707
  1567.100      88.359       2.557      12.106      13.261      43.566      95.647     110.827     130.245      35.672     236.025     319.625
