~Version Information

VERS.                     1.20: CWLS log ASCII Standard - VERSION  1.20

WRAP.                       NO: One line per depth step

~Well Information Block

#MNEM.UNIT           Data Type   Information

#컴컴컴컴컴        컴컴컴컴컴�   컴컴컴컴컴컴컴�

STRT.M               1500.000 :

STOP.M               2399.900 :

STEP.M                  0.100 :

NULL.                  -1.000 :

COMP.                  COMPANY:   

WELL.                     WELL:  A-6

FLD .                    FIELD:   

LOC .                 LOCATION:   

PROV.                 PROVINCE:  Nieznany

SRVC.          SERVICE COMPANY:  Zaklad Geofizyka Krakow   

DATE.                 LOG DATE:  Nieznany

UWI .           UNIQUE WELL ID:   

~Parameter  Information Block

#MNEM.UNIT             Value      Description

#컴컴컴컴컴        컴컴컴컴컴�   컴컴컴컴컴컴컴�

DD  .M                 -1.000 :  Depth Driller

DL  .M                 -1.000 :  Depth Logger

BS  .MM                   311 :  Bit Size

BS1 .                         :  Bit Size1

BS2 .                         :  Bit Size2

BS3 .                         :  Bit Size3

CBD .M                 -1.000 :  Casing Bottom Driller

CBL .M                 -1.000 :  Casing Bottom Logger

CSIZ.IN                       :  Casing Size

CSIN.MM                    -1 :  Internal Casing Size

CS1 .                         :  Casing Size 1

CS2 .                         :  Casing Size 2

CS3 .                         :  Casing Size 3

CAST.                         :  Casing Thickness

FD  .G/C3               1.230 :  Mud Fluid Density

DFTH.                         :  Drilling Fluid Thixotropy

DFL .C3                    -1 :  Mud Fluid Loss

DFV .S/1500C3              -1 :  Mud Fluid Viscosity

DFPH.                         :  Drilling Fluid Ph

SALI.G/L               19.800 :  Salinity of the Mud

RMS .OHMM               0.300 :  Resistivity of Mud Sample

MST .DEGC               8.000 :  Mud Sample Temperature

RMC .OHMM                     :  Mud Cake Resistivity

MCST.                         :  Mud Cake Sample Temperature

RMFS.                         :  Mud Filtrate Resistivity

MFST.                         :  Mud Filtrate Sample Temperature

MRT .                         :  Maximum Recorded Temperature

BHT .DEGC                     :  Bottom Hole Temperature

MST .                         :  Mean Surface Temperature

TGRD.                         :  Temperature Gradient

MDEN.                         :  Matrix Density

DTM .                         :  Delta-T Matrix

FDEN.                         :  Fluid Density

DTF .                         :  Delta-T Fluid

MATR.                         :  Matrix (0=LIME,1=SAND,2=DOLO)

FNUM.                         :  Tortuosity  Constant Archie's (a)

FEXP.                         :  Cementation Exponent Archie's (m)

SEXP.                         :  Saturation Exponent Archie's (n)

LATI.                         :  Latitude

LONG.                         :  Longitude

PDEV.M                 -1.000 :  Elevation of Permanent Datum

EGL .M                 -1.000 :  Elevation of Ground Level

EDF .M                        :  Elevation of Derrick Floor

EKB .M                 -1.000 :  Elevation of Kelly Bushing

~Curve Information

#MNEM.UNIT         API CODE      Opis krzywych

#컴컴컴컴컴        컴컴컴컴컴�   컴컴컴컴컴컴컴�

DEPT.M                       :   1    Glebokosc [m]

GR.API                        :   2    Prof.gamma naturalne PG

RHOB.G/C3                     :   3    Gestosc objet.PGGg[g/ccm]

NTCN.NPHI                     :   4    Prof.n-n termiczny PNNt

EN00.OHMM                     :   5    Sonda potencjalowa

EN01.OHMM                     :   6    Sonda potencjalowa

EL00.OHMM                     :   7    Sonda gradientowa

EL01.OHMM                     :   8    Sonda gradientowa

SP.MV                         :   9    Prof.potencj. naturalnych PS

LL3.OHMM                      :  10    Laterolog 3

DT.US/M                       :  11    Profilowanie akustyczne PAdt

CALI.MM                       :  12    Srednica otworu PSr[mm]

~A DEPTH       GR         RHOB        NTCN        EN00        EN01        EL00        EL01         SP         LL3          DT         CALI    
  1500.000      95.957       2.568      15.294       9.789      31.019      81.168     101.577     126.899      22.648     263.538     335.761
  1500.100      96.846       2.563      14.697       9.740      30.770      79.461     100.501     126.911      22.927     258.151     336.256
  1500.200      96.591       2.563      14.017       9.699      30.527      77.939      99.609     126.909      24.122     251.295     335.884
  1500.300      94.882       2.568      13.519       9.666      30.295      76.629      98.867     126.893      26.037     244.606     334.777
  1500.400      92.632       2.574      13.383       9.639      30.074      75.548      98.247     126.939      28.076     240.033     333.147
  1500.500      90.285       2.581      13.548       9.614      29.863      74.699      97.723     127.074      29.738     238.801     331.446
  1500.600      88.197       2.584      13.792       9.585      29.662      74.078      97.277     127.257      30.597     240.561     329.883
  1500.700      86.960       2.582      14.016       9.549      29.468      73.654      96.884     127.434      30.348     244.380     328.314
  1500.800      86.145       2.575      14.191       9.508      29.278      73.388      96.512     127.567      29.108     248.995     326.577
  1500.900      85.066       2.562      14.187       9.463      29.092      73.211      96.125     127.677      27.312     253.460     324.384
  1501.000      83.953       2.548      13.984       9.418      28.911      73.036      95.692     127.835      25.393     257.345     321.748
  1501.100      83.610       2.538      13.722       9.373      28.735      72.799      95.201     128.043      23.770     259.128     319.273
  1501.200      84.041       2.535      13.405       9.328      28.563      72.442      94.658     128.203      22.780     258.613     317.436
  1501.300      84.548       2.542      12.958       9.283      28.397      71.945      94.088     128.125      22.544     257.912     316.441
  1501.400      84.313       2.554      12.417       9.237      28.234      71.340      93.514     127.617      23.127     257.567     316.360
  1501.500      83.025       2.566      11.848       9.193      28.070      70.686      92.960     126.685      24.300     260.794     316.825
  1501.600      80.459       2.576      11.333       9.154      27.910      70.037      92.439     125.562      25.870     271.785     317.400
  1501.700      77.382       2.580      10.983       9.122      27.753      69.446      91.944     124.577      27.460     289.132     317.872
  1501.800      75.312       2.577      10.825       9.094      27.601      68.937      91.472     124.047      28.594     312.437     318.108
  1501.900      75.356       2.577      10.817       9.070      27.455      68.499      91.016     124.094      29.007     334.703     318.354
  1502.000      77.747       2.580      10.977       9.046      27.314      68.113      90.572     124.561      28.888     349.846     319.113
  1502.100      81.647       2.582      11.325       9.023      27.176      67.761      90.133     125.173      28.393     358.816     320.327
  1502.200      85.788       2.583      11.827       8.998      27.042      67.424      89.693     125.787      27.723     359.535     321.681
  1502.300      88.814       2.580      12.434       8.973      26.915      67.085      89.234     126.379      27.204     355.283     322.936
  1502.400      90.204       2.571      13.121       8.947      26.802      66.740      88.737     126.827      26.904     350.803     323.777
  1502.500      90.377       2.557      13.831       8.919      26.711      66.380      88.181     126.961      26.398     346.424     324.118
  1502.600      90.121       2.542      14.431       8.890      26.647      65.978      87.558     126.688      25.400     340.743     324.160
  1502.700      89.733       2.531      14.823       8.859      26.613      65.527      86.875     125.991      24.071     333.590     324.080
  1502.800      89.752       2.526      14.959       8.826      26.605      65.035      86.145     125.013      22.632     322.257     324.012
  1502.900      89.834       2.523      14.781       8.789      26.615      64.512      85.384     124.062      21.319     310.434     324.073
  1503.000      88.892       2.521      14.401       8.753      26.643      63.968      84.599     123.417      20.487     301.076     324.140
  1503.100      87.047       2.521      14.041       8.717      26.687      63.422      83.783     123.187      20.253     295.568     324.098
  1503.200      85.191       2.520      13.728       8.685      26.753      62.864      82.916     123.238      20.427     301.279     324.024
  1503.300      83.867       2.519      13.530       8.660      26.845      62.273      81.972     123.308      20.795     320.911     324.035
  1503.400      83.405       2.524      13.514       8.645      26.971      61.629      80.938     123.235      21.155     356.008     324.288
  1503.500      83.653       2.533      13.545       8.637      27.133      60.901      79.816     122.995      21.268     397.423     325.007
  1503.600      83.686       2.539      13.640       8.637      27.331      60.054      78.626     122.611      21.134     428.280     326.355
  1503.700      83.388       2.539      13.940       8.647      27.565      59.069      77.406     122.114      20.860     439.374     328.528
  1503.800      82.481       2.531      14.369       8.671      27.829      57.938      76.215     121.412      20.422     426.029     331.401
  1503.900      80.514       2.517      14.825       8.710      28.125      56.674      75.103     120.281      20.056     388.642     334.505
  1504.000      78.236       2.502      15.208       8.769      28.451      55.338      74.117     118.584      20.142     342.589     337.069
  1504.100      76.138       2.491      15.206       8.848      28.804      54.003      73.298     116.416      20.752     305.567     338.168
  1504.200      74.474       2.487      14.722       8.945      29.180      52.735      72.678     114.073      21.727     286.356     337.538
  1504.300      73.917       2.494      13.936       9.056      29.574      51.607      72.284     111.989      23.104     286.923     335.574
  1504.400      74.490       2.509      12.992       9.178      29.982      50.674      72.132     110.626      25.004     299.868     332.791
  1504.500      75.716       2.528      12.052       9.306      30.398      49.982      72.230     110.149      27.413     319.089     329.861
  1504.600      77.224       2.547      11.184       9.441      30.820      49.560      72.567     110.303      30.350     338.998     327.506
  1504.700      78.309       2.565      10.386       9.580      31.249      49.430      73.103     110.718      34.294     352.520     325.685
  1504.800      78.229       2.581       9.665       9.730      31.686      49.572      73.782     111.145      39.718     355.890     324.068
  1504.900      77.113       2.598       9.032       9.892      32.129      49.932      74.537     111.497      46.533     349.399     322.505
  1505.000      75.867       2.615       8.522      10.066      32.577      50.455      75.314     111.858      54.212     334.811     320.937
  1505.100      75.339       2.630       8.155      10.253      33.028      51.081      76.064     112.331      61.534     313.946     319.416
  1505.200      75.861       2.643       7.904      10.449      33.486      51.752      76.763     112.908      66.813     290.221     318.056
  1505.300      77.676       2.650       7.766      10.651      33.955      52.431      77.403     113.525      69.335     268.935     316.991
  1505.400      80.290       2.651       7.733      10.855      34.444      53.089      77.984     114.073      69.399     254.475     316.221
  1505.500      82.312       2.648       7.738      11.062      34.962      53.691      78.511     114.412      67.389     245.103     315.693
