~Version Information

VERS.                     1.20: CWLS log ASCII Standard - VERSION  1.20

WRAP.                       NO: One line per depth step

~Well Information Block

#MNEM.UNIT           Data Type   Information

#컴컴컴컴컴        컴컴컴컴컴�   컴컴컴컴컴컴컴�

STRT.M               1500.000 :

STOP.M               2399.900 :

STEP.M                  0.100 :

NULL.                  -1.000 :

COMP.                  COMPANY:   

WELL.                     WELL:  A-6

FLD .                    FIELD:   

LOC .                 LOCATION:   

PROV.                 PROVINCE:  Nieznany

SRVC.          SERVICE COMPANY:  Zaklad Geofizyka Krakow   

DATE.                 LOG DATE:  Nieznany

UWI .           UNIQUE WELL ID:   

~Parameter  Information Block

#MNEM.UNIT             Value      Description

#컴컴컴컴컴        컴컴컴컴컴�   컴컴컴컴컴컴컴�

DD  .M                 -1.000 :  Depth Driller

DL  .M                 -1.000 :  Depth Logger

BS  .MM                   311 :  Bit Size

BS1 .                         :  Bit Size1

BS2 .                         :  Bit Size2

BS3 .                         :  Bit Size3

CBD .M                 -1.000 :  Casing Bottom Driller

CBL .M                 -1.000 :  Casing Bottom Logger

CSIZ.IN                       :  Casing Size

CSIN.MM                    -1 :  Internal Casing Size

CS1 .                         :  Casing Size 1

CS2 .                         :  Casing Size 2

CS3 .                         :  Casing Size 3

CAST.                         :  Casing Thickness

FD  .G/C3               1.230 :  Mud Fluid Density

DFTH.                         :  Drilling Fluid Thixotropy

DFL .C3                    -1 :  Mud Fluid Loss

DFV .S/1500C3              -1 :  Mud Fluid Viscosity

DFPH.                         :  Drilling Fluid Ph

SALI.G/L               19.800 :  Salinity of the Mud

RMS .OHMM               0.300 :  Resistivity of Mud Sample

MST .DEGC               8.000 :  Mud Sample Temperature

RMC .OHMM                     :  Mud Cake Resistivity

MCST.                         :  Mud Cake Sample Temperature

RMFS.                         :  Mud Filtrate Resistivity

MFST.                         :  Mud Filtrate Sample Temperature

MRT .                         :  Maximum Recorded Temperature

BHT .DEGC                     :  Bottom Hole Temperature

MST .                         :  Mean Surface Temperature

TGRD.                         :  Temperature Gradient

MDEN.                         :  Matrix Density

DTM .                         :  Delta-T Matrix

FDEN.                         :  Fluid Density

DTF .                         :  Delta-T Fluid

MATR.                         :  Matrix (0=LIME,1=SAND,2=DOLO)

FNUM.                         :  Tortuosity  Constant Archie's (a)

FEXP.                         :  Cementation Exponent Archie's (m)

SEXP.                         :  Saturation Exponent Archie's (n)

LATI.                         :  Latitude

LONG.                         :  Longitude

PDEV.M                 -1.000 :  Elevation of Permanent Datum

EGL .M                 -1.000 :  Elevation of Ground Level

EDF .M                        :  Elevation of Derrick Floor

EKB .M                 -1.000 :  Elevation of Kelly Bushing

~Curve Information

#MNEM.UNIT         API CODE      Opis krzywych

#컴컴컴컴컴        컴컴컴컴컴�   컴컴컴컴컴컴컴�

DEPT.M                       :   1    Glebokosc [m]

GR.API                        :   2    Prof.gamma naturalne PG

RHOB.G/C3                     :   3    Gestosc objet.PGGg[g/ccm]

NTCN.NPHI                     :   4    Prof.n-n termiczny PNNt

EN00.OHMM                     :   5    Sonda potencjalowa

EN01.OHMM                     :   6    Sonda potencjalowa

EL00.OHMM                     :   7    Sonda gradientowa

EL01.OHMM                     :   8    Sonda gradientowa

SP.MV                         :   9    Prof.potencj. naturalnych PS

LL3.OHMM                      :  10    Laterolog 3

DT.US/M                       :  11    Profilowanie akustyczne PAdt

CALI.MM                       :  12    Srednica otworu PSr[mm]

~A DEPTH       GR         RHOB        NTCN        EN00        EN01        EL00        EL01         SP         LL3          DT         CALI    
# ...
  2099.200      77.740       2.504      25.905       3.573       7.991       9.181       9.727     161.084       6.272     293.325     355.314
  2099.300      78.786       2.501      25.774       3.586       7.949       9.357       9.774     160.459       6.213     297.088     357.436
  2099.400      78.930       2.501      25.324       3.597       7.914       9.508       9.791     159.979       6.209     303.919     359.455
  2099.500      78.363       2.499      24.882       3.606       7.893       9.633       9.779     159.650       6.232     311.679     361.317
  2099.600      77.382       2.493      24.712       3.614       7.890       9.728       9.746     159.460       6.227     317.984     362.973
  2099.700      76.425       2.489      24.504       3.624       7.902       9.788       9.696     159.373       6.203     321.220     364.449
  2099.800      75.476       2.489      24.239       3.636       7.927       9.818       9.638     159.252       6.255     321.537     365.613
  2099.900      74.494       2.491      24.243       3.650       7.959       9.833       9.575     158.995       6.399     319.587     366.216
  2100.000      73.711       2.493      24.658       3.668       7.994       9.835       9.510     158.662       6.581     316.869     366.242
  2100.100      73.051       2.493      25.373       3.689       8.027       9.827       9.446     158.398       6.776     315.097     365.443
  2100.200      72.364       2.485      26.162       3.712       8.057       9.827       9.386     158.338       6.928     313.871     363.659
  2100.300      71.952       2.470      26.742       3.733       8.079       9.842       9.333     158.564       6.953     312.988     361.288
  2100.400      71.777       2.454      27.056       3.753       8.095       9.869       9.292     159.142       6.817     311.467     358.916
  2100.500      71.097       2.443      26.974       3.768       8.106       9.917       9.262     160.086       6.596     308.811     357.045
  2100.600      69.716       2.441      26.442       3.777       8.115       9.984       9.242     161.223       6.404     305.670     356.189
  2100.700      68.112       2.441      25.952       3.782       8.124      10.066       9.229     162.276       6.312     302.812     356.472
  2100.800      66.290       2.437      25.768       3.782       8.137      10.159       9.218     162.971       6.271     300.213     357.800
  2100.900      64.323       2.428      25.744       3.778       8.154      10.252       9.206     163.078       6.228     297.805     359.896
  2101.000      62.759       2.415      25.797       3.773       8.174      10.340       9.189     162.538       6.205     295.478     362.121
  2101.100      61.995       2.399      25.763       3.769       8.192      10.415       9.168     161.558       6.201     292.226     364.024
  2101.200      61.729       2.383      25.420       3.769       8.203      10.464       9.145     160.513       6.175     287.732     365.612
  2101.300      61.176       2.373      24.897       3.777       8.197      10.487       9.121     159.823       6.201     282.564     366.986
  2101.400      60.314       2.373      24.467       3.792       8.170      10.495       9.098     159.681       6.379     278.286     367.717
  2101.500      60.017       2.382      24.206       3.811       8.124      10.491       9.076     159.928       6.646     275.833     367.849
  2101.600      60.264       2.405      24.166       3.830       8.066      10.487       9.054     160.229       7.047     276.663     367.613
  2101.700      61.160       2.437      24.434       3.846       8.004      10.496       9.026     160.302       7.600     281.371     366.794
  2101.800      63.528       2.465      24.980       3.854       7.952      10.518       8.991     160.007       8.076     288.132     365.681
  2101.900      66.683       2.478      25.734       3.855       7.920      10.553       8.942     159.457       8.295     295.075     364.984
  2102.000      69.503       2.468      26.636       3.847       7.911      10.600       8.878     158.923       8.275     301.182     364.901
  2102.100      72.149       2.441      27.620       3.833       7.924      10.650       8.794     158.628       7.969     306.837     365.448
  2102.200      74.440       2.415      28.521       3.815       7.954      10.690       8.691     158.662       7.399     311.236     366.600
  2102.300      76.235       2.397      29.059       3.800       7.998      10.693       8.569     159.046       6.786     314.003     367.690
  2102.400      77.816       2.390      29.075       3.791       8.047      10.635       8.431     159.726       6.298     316.484     368.124
  2102.500      79.121       2.395      28.722       3.790       8.098      10.501       8.280     160.606       5.963     317.938     367.519
  2102.600      80.022       2.405      28.236       3.797       8.152      10.294       8.125     161.537       5.734     317.723     365.771
  2102.700      80.532       2.414      27.815       3.805       8.213      10.033       7.971     162.355       5.600     315.242     363.273
  2102.800      81.070       2.420      27.565       3.812       8.288       9.752       7.825     162.851       5.568     310.996     360.378
  2102.900      81.775       2.424      27.366       3.816       8.387       9.479       7.690     162.872       5.598     306.075     357.513
  2103.000      82.463       2.426      27.049       3.816       8.513       9.237       7.571     162.408       5.631     300.632     355.155
  2103.100      82.622       2.429      26.614       3.812       8.666       9.033       7.466     161.574       5.669     295.588     353.524
  2103.200      81.657       2.434      25.992       3.808       8.839       8.861       7.374     160.498       5.749     293.614     352.530
  2103.300      79.105       2.440      25.163       3.810       9.020       8.714       7.294     159.253       5.904     294.575     351.993
  2103.400      75.591       2.447      24.438       3.821       9.197       8.585       7.224     157.829       6.175     295.781     351.642
  2103.500      72.084       2.458      23.978       3.844       9.366       8.467       7.165     156.288       6.596     297.165     351.106
  2103.600      69.318       2.472      23.599       3.884       9.526       8.358       7.117     154.822       7.190     297.778     350.098
  2103.700      67.740       2.482      23.156       3.939       9.685       8.257       7.080     153.604       7.851     297.113     348.524
  2103.800      66.922       2.482      22.706       4.002       9.850       8.162       7.054     152.764       8.363     298.314     346.546
  2103.900      66.484       2.475      22.076       4.073      10.029       8.069       7.042     152.394       8.660     303.866     344.530
  2104.000      65.815       2.466      21.210       4.151      10.226       7.986       7.046     152.434       8.805     313.380     342.930
  2104.100      64.477       2.461      20.266       4.231      10.442       7.926       7.064     152.708       8.867     323.847     342.402
  2104.200      63.095       2.464      19.339       4.313      10.683       7.889       7.096     153.104       8.953     330.255     343.421
  2104.300      62.243       2.475      18.476       4.399      10.947       7.877       7.140     153.656       9.229     327.966     345.910
  2104.400      61.891       2.486      17.788       4.488      11.224       7.895       7.193     154.409       9.700     316.046     349.249
  2104.500      62.269       2.490      17.368       4.576      11.515       7.932       7.253     155.278      10.165     296.767     352.587
  2104.600      63.299       2.488      17.242       4.662      11.811       7.988       7.318     156.014      10.462     274.817     355.226
  2104.700      64.053       2.485      17.391       4.747      12.109       8.071       7.390     156.331      10.653     256.489     356.932
