~Version Information

VERS.                     1.20: CWLS log ASCII Standard - VERSION  1.20

WRAP.                       NO: One line per depth step

~Well Information Block

#MNEM.UNIT           Data Type   Information

#컴컴컴컴컴        컴컴컴컴컴�   컴컴컴컴컴컴컴�

STRT.M               1500.000 :

STOP.M               2399.900 :

STEP.M                  0.100 :

NULL.                  -1.000 :

COMP.                  COMPANY:   

WELL.                     WELL:  A-6

FLD .                    FIELD:   

LOC .                 LOCATION:   

PROV.                 PROVINCE:  Nieznany

SRVC.          SERVICE COMPANY:  Zaklad Geofizyka Krakow   

DATE.                 LOG DATE:  Nieznany

UWI .           UNIQUE WELL ID:   

~Parameter  Information Block

#MNEM.UNIT             Value      Description

#컴컴컴컴컴        컴컴컴컴컴�   컴컴컴컴컴컴컴�

DD  .M                 -1.000 :  Depth Driller

DL  .M                 -1.000 :  Depth Logger

BS  .MM                   311 :  Bit Size

BS1 .                         :  Bit Size1

BS2 .                         :  Bit Size2

BS3 .                         :  Bit Size3

CBD .M                 -1.000 :  Casing Bottom Driller

CBL .M                 -1.000 :  Casing Bottom Logger

CSIZ.IN                       :  Casing Size

CSIN.MM                    -1 :  Internal Casing Size

CS1 .                         :  Casing Size 1

CS2 .                         :  Casing Size 2

CS3 .                         :  Casing Size 3

CAST.                         :  Casing Thickness

FD  .G/C3               1.230 :  Mud Fluid Density

DFTH.                         :  Drilling Fluid Thixotropy

DFL .C3                    -1 :  Mud Fluid Loss

DFV .S/1500C3              -1 :  Mud Fluid Viscosity

DFPH.                         :  Drilling Fluid Ph

SALI.G/L               19.800 :  Salinity of the Mud

RMS .OHMM               0.300 :  Resistivity of Mud Sample

MST .DEGC               8.000 :  Mud Sample Temperature

RMC .OHMM                     :  Mud Cake Resistivity

MCST.                         :  Mud Cake Sample Temperature

RMFS.                         :  Mud Filtrate Resistivity

MFST.                         :  Mud Filtrate Sample Temperature

MRT .                         :  Maximum Recorded Temperature

BHT .DEGC                     :  Bottom Hole Temperature

MST .                         :  Mean Surface Temperature

TGRD.                         :  Temperature Gradient

MDEN.                         :  Matrix Density

DTM .                         :  Delta-T Matrix

FDEN.                         :  Fluid Density

DTF .                         :  Delta-T Fluid

MATR.                         :  Matrix (0=LIME,1=SAND,2=DOLO)

FNUM.                         :  Tortuosity  Constant Archie's (a)

FEXP.                         :  Cementation Exponent Archie's (m)

SEXP.                         :  Saturation Exponent Archie's (n)

LATI.                         :  Latitude

LONG.                         :  Longitude

PDEV.M                 -1.000 :  Elevation of Permanent Datum

EGL .M                 -1.000 :  Elevation of Ground Level

EDF .M                        :  Elevation of Derrick Floor

EKB .M                 -1.000 :  Elevation of Kelly Bushing

~Curve Information

#MNEM.UNIT         API CODE      Opis krzywych

#컴컴컴컴컴        컴컴컴컴컴�   컴컴컴컴컴컴컴�

DEPT.M                       :   1    Glebokosc [m]

GR.API                        :   2    Prof.gamma naturalne PG

RHOB.G/C3                     :   3    Gestosc objet.PGGg[g/ccm]

NTCN.NPHI                     :   4    Prof.n-n termiczny PNNt

EN00.OHMM                     :   5    Sonda potencjalowa

EN01.OHMM                     :   6    Sonda potencjalowa

EL00.OHMM                     :   7    Sonda gradientowa

EL01.OHMM                     :   8    Sonda gradientowa

SP.MV                         :   9    Prof.potencj. naturalnych PS

LL3.OHMM                      :  10    Laterolog 3

DT.US/M                       :  11    Profilowanie akustyczne PAdt

CALI.MM                       :  12    Srednica otworu PSr[mm]

~A DEPTH       GR         RHOB        NTCN        EN00        EN01        EL00        EL01         SP         LL3          DT         CALI    
# ...
  2396.000      61.299       2.262       6.953      15.664      55.770     113.981     154.396      99.870      91.296     174.930     340.543
  2396.100      63.485       2.344       6.579      15.807      56.496     113.127     153.881      99.165      94.395     176.757     338.016
  2396.200      65.494       2.410       6.346      15.953      57.208     112.159     153.598      98.140      94.453     177.894     334.627
  2396.300      66.894       2.446       6.197      16.096      57.891     111.225     153.624      96.937      92.207     177.886     331.271
  2396.400      67.381       2.463       6.083      16.228      58.563     110.473     153.988      95.726      89.301     177.603     328.967
  2396.500      67.127       2.479       5.892      16.344      59.233     110.042     154.671      94.671      87.481     178.115     327.865
  2396.600      66.357       2.503       5.602      16.440      59.906     109.996     155.628      93.795      88.182     180.166     327.199
  2396.700      65.117       2.540       5.279      16.516      60.579     110.326     156.831      93.026      91.225     183.983     326.403
  2396.800      63.525       2.573       4.968      16.570      61.227     110.972     158.243      92.308      94.815     188.774     325.350
  2396.900      61.542       2.586       4.733      16.606      61.828     111.876     159.843      91.577      98.068     193.199     324.100
  2397.000      59.349       2.583       4.641      16.626      62.362     112.989     161.577      90.857     101.541     196.721     323.128
  2397.100      57.609       2.575       4.673      16.632      62.814     114.267     163.374      90.250     105.768     199.652     322.981
  2397.200      56.716       2.571       4.753      16.628      63.183     115.638     165.176      89.829     110.606     202.445     323.367
  2397.300      56.614       2.582       4.845      16.618      63.465     116.999     166.914      89.558     115.930     205.464     323.451
  2397.400      57.146       2.605       4.944      16.603      63.667     118.278     168.597      89.288     121.047     208.905     322.697
  2397.500      58.083       2.629       5.028      16.585      63.795     119.399     170.232      88.809     125.667     212.218     320.895
  2397.600      58.832       2.646       5.143      16.565      63.861     120.387     171.857      88.026     130.103     214.244     318.252
  2397.700      59.049       2.652       5.353      16.543      63.876     121.332     173.506      87.081     133.501     213.948     315.389
  2397.800      58.766       2.648       5.613      16.520      63.854     122.273     175.145      86.220     133.529     211.250     312.996
  2397.900      57.932       2.639       5.876      16.498      63.807     123.236     176.748      85.595     128.951     207.170     311.450
  2398.000      56.894       2.626       6.107      16.475      63.750     124.195     178.263      85.235     121.127     202.724     310.704
  2398.100      56.353       2.613       6.244      16.451      63.689     125.117     179.661      85.010     112.689     198.498     310.511
  2398.200      56.467       2.604       6.310      16.429      63.625     125.989     180.923      84.747     104.986     194.815     310.591
  2398.300      57.046       2.598       6.368      16.410      63.561     126.810     182.022      84.357      97.979     192.014     310.738
  2398.400      58.071       2.594       6.390      16.392      63.499     127.595     182.947      83.858      92.649     190.200     310.778
  2398.500      59.102       2.592       6.368      16.375      63.435     128.320     183.657      83.382      89.041     189.444     310.698
  2398.600      59.610       2.591       6.318      16.360      63.370     128.934     184.141      83.081      84.337     190.047     310.594
  2398.700      59.711       2.589       6.201      16.343      63.302     129.384     184.407      83.041      77.977     191.849     310.512
  2398.800      59.812       2.586       6.029      16.323      63.234     129.624     184.480      83.300      73.126     194.191     310.488
  2398.900      60.058       2.581       5.857      16.302      63.164     129.657     184.404      83.872      71.145     196.924     310.610
  2399.000      60.490       2.577       5.725      16.281      63.091     129.506     184.239      84.738      70.385     199.592     310.808
  2399.100      61.079       2.575       5.643      16.259      63.017     129.217     184.045      85.791      70.384     200.929     311.023
  2399.200      61.398       2.573       5.585      16.238      62.938     128.833     183.877      86.819      71.630     200.691     311.589
  2399.300      61.172       2.568       5.531      16.215      62.855     128.388     183.794      87.570      73.985     199.839     312.723
  2399.400      60.575       2.561       5.477      16.190      62.766     127.926     183.863      87.913      77.144     198.460     314.559
  2399.500      59.973       2.550       5.420      16.160      62.670     127.508     184.157      87.814      81.388     196.074     317.367
  2399.600      59.337       2.534       5.368      16.125      62.570     127.179     184.764      87.369      85.584     193.551     321.067
  2399.700      58.968       2.516       5.367      16.087      62.466     126.979     185.792      86.749      88.175     191.654     325.249
  2399.800      59.253       2.499       5.467      16.046      62.359     126.954     187.349      86.094      89.114     190.161     329.218
  2399.900      59.758       2.487       5.673      16.004      62.251     127.121     189.597      85.470      88.668     189.007     332.253
