~Version Information

VERS.                     1.20: CWLS log ASCII Standard - VERSION  1.20

WRAP.                       NO: One line per depth step

~Well Information Block

#MNEM.UNIT           Data Type   Information

#컴컴컴컴컴        컴컴컴컴컴�   컴컴컴컴컴컴컴�

STRT.M               1500.000 :

STOP.M               2399.900 :

STEP.M                  0.100 :

NULL.                  -1.000 :

COMP.                  COMPANY:   

WELL.                     WELL:  A-6

FLD .                    FIELD:   

LOC .                 LOCATION:   

PROV.                 PROVINCE:  Nieznany

SRVC.          SERVICE COMPANY:  Zaklad Geofizyka Krakow   

DATE.                 LOG DATE:  Nieznany

UWI .           UNIQUE WELL ID:   

~Parameter  Information Block

#MNEM.UNIT             Value      Description

#컴컴컴컴컴        컴컴컴컴컴�   컴컴컴컴컴컴컴�

DD  .M                 -1.000 :  Depth Driller

DL  .M                 -1.000 :  Depth Logger

BS  .MM                   311 :  Bit Size

BS1 .                         :  Bit Size1

BS2 .                         :  Bit Size2

BS3 .                         :  Bit Size3

CBD .M                 -1.000 :  Casing Bottom Driller

CBL .M                 -1.000 :  Casing Bottom Logger

CSIZ.IN                       :  Casing Size

CSIN.MM                    -1 :  Internal Casing Size

CS1 .                         :  Casing Size 1

CS2 .                         :  Casing Size 2

CS3 .                         :  Casing Size 3

CAST.                         :  Casing Thickness

FD  .G/C3               1.230 :  Mud Fluid Density

DFTH.                         :  Drilling Fluid Thixotropy

DFL .C3                    -1 :  Mud Fluid Loss

DFV .S/1500C3              -1 :  Mud Fluid Viscosity

DFPH.                         :  Drilling Fluid Ph

SALI.G/L               19.800 :  Salinity of the Mud

RMS .OHMM               0.300 :  Resistivity of Mud Sample

MST .DEGC               8.000 :  Mud Sample Temperature

RMC .OHMM                     :  Mud Cake Resistivity

MCST.                         :  Mud Cake Sample Temperature

RMFS.                         :  Mud Filtrate Resistivity

MFST.                         :  Mud Filtrate Sample Temperature

MRT .                         :  Maximum Recorded Temperature

BHT .DEGC                     :  Bottom Hole Temperature

MST .                         :  Mean Surface Temperature

TGRD.                         :  Temperature Gradient

MDEN.                         :  Matrix Density

DTM .                         :  Delta-T Matrix

FDEN.                         :  Fluid Density

DTF .                         :  Delta-T Fluid

MATR.                         :  Matrix (0=LIME,1=SAND,2=DOLO)

FNUM.                         :  Tortuosity  Constant Archie's (a)

FEXP.                         :  Cementation Exponent Archie's (m)

SEXP.                         :  Saturation Exponent Archie's (n)

LATI.                         :  Latitude

LONG.                         :  Longitude

PDEV.M                 -1.000 :  Elevation of Permanent Datum

EGL .M                 -1.000 :  Elevation of Ground Level

EDF .M                        :  Elevation of Derrick Floor

EKB .M                 -1.000 :  Elevation of Kelly Bushing

~Curve Information

#MNEM.UNIT         API CODE      Opis krzywych

#컴컴컴컴컴        컴컴컴컴컴�   컴컴컴컴컴컴컴�

DEPT.M                       :   1    Glebokosc [m]

GR.API                        :   2    Prof.gamma naturalne PG

RHOB.G/C3                     :   3    Gestosc objet.PGGg[g/ccm]

NTCN.NPHI                     :   4    Prof.n-n termiczny PNNt

EN00.OHMM                     :   5    Sonda potencjalowa

EN01.OHMM                     :   6    Sonda potencjalowa

EL00.OHMM                     :   7    Sonda gradientowa

EL01.OHMM                     :   8    Sonda gradientowa

SP.MV                         :   9    Prof.potencj. naturalnych PS

LL3.OHMM                      :  10    Laterolog 3

DT.US/M                       :  11    Profilowanie akustyczne PAdt

CALI.MM                       :  12    Srednica otworu PSr[mm]

~A DEPTH       GR         RHOB        NTCN        EN00        EN01        EL00        EL01         SP         LL3          DT         CALI    
# ...
  2278.400      90.962       2.194      25.462       5.271      14.898      30.429      32.001     175.221      10.339     280.295     399.667
  2278.500      90.004       2.165      26.045       5.254      14.933      29.965      31.598     174.513      10.199     282.866     401.793
  2278.600      88.873       2.122      26.505       5.241      14.973      29.473      31.184     174.167      10.140     283.933     402.291
  2278.700      87.495       2.078      26.467       5.234      15.018      28.945      30.775     174.356      10.096     284.557     400.960
  2278.800      86.408       2.045      26.119       5.233      15.066      28.391      30.394     174.502      10.141     285.576     398.676
  2278.900      85.730       2.030      25.682       5.237      15.111      27.834      30.055     173.433      10.274     284.689     396.251
  2279.000      85.463       2.041      25.193       5.244      15.153      27.297      29.775     170.209      10.435     281.581     393.968
  2279.100      85.934       2.078      24.823       5.253      15.193      26.814      29.557     165.356      10.570     276.984     391.709
  2279.200      86.996       2.132      24.336       5.265      15.230      26.418      29.403     160.638      10.652     269.890     389.043
  2279.300      88.398       2.191      23.232       5.277      15.261      26.115      29.306     157.609      10.648     261.324     385.427
  2279.400      90.198       2.251      21.710       5.287      15.283      25.888      29.261     157.115      10.580     254.046     381.035
  2279.500      91.825       2.306      20.120       5.293      15.296      25.751      29.254     159.183      10.670     248.955     376.739
  2279.600      92.500       2.357      18.768       5.296      15.300      25.698      29.267     162.524      10.988     246.519     373.818
  2279.700      92.430       2.402      18.067       5.299      15.302      25.694      29.276     165.330      11.346     247.011     373.187
  2279.800      91.917       2.430      17.999       5.305      15.307      25.718      29.259     166.755      11.627     248.865     374.351
  2279.900      91.326       2.432      18.230       5.313      15.321      25.733      29.206     167.049      11.701     251.058     376.139
  2280.000      90.744       2.413      18.436       5.325      15.341      25.697      29.120     166.716      11.408     254.170     377.471
  2280.100      90.019       2.388      18.205       5.338      15.369      25.585      29.012     166.194      10.850     258.034     377.464
  2280.200      88.970       2.367      17.219       5.354      15.406      25.410      28.903     165.766      10.370     261.795     376.264
  2280.300      86.956       2.361      15.638       5.374      15.445      25.189      28.808     165.541      10.189     265.030     374.542
  2280.400      83.936       2.372      13.908       5.404      15.487      24.939      28.734     165.594      10.531     266.207     372.403
  2280.500      80.708       2.396      12.389       5.442      15.531      24.686      28.689     166.029      11.521     264.063     370.040
  2280.600      78.145       2.427      11.216       5.485      15.571      24.456      28.679     166.848      12.890     259.624     367.723
  2280.700      76.584       2.462      10.423       5.530      15.604      24.281      28.708     167.826      14.398     255.002     365.243
  2280.800      75.604       2.496       9.944       5.573      15.636      24.196      28.777     168.573      16.049     251.472     362.615
  2280.900      74.599       2.519       9.643       5.614      15.670      24.241      28.879     168.755      17.610     248.513     360.614
  2281.000      73.281       2.513       9.482       5.653      15.708      24.420      28.997     168.190      18.682     246.176     360.113
  2281.100      71.618       2.477       9.440       5.695      15.746      24.703      29.111     167.037      19.235     242.973     361.352
  2281.200      70.148       2.426       9.435       5.737      15.778      25.033      29.203     165.688      19.274     237.402     363.917
  2281.300      69.998       2.377       9.471       5.779      15.792      25.347      29.257     164.477      18.837     231.455     367.160
  2281.400      71.335       2.333       9.663       5.818      15.787      25.611      29.265     163.623      18.166     227.580     370.391
  2281.500      73.489       2.301      10.078       5.855      15.772      25.800      29.221     163.239      17.520     226.323     372.927
  2281.600      75.857       2.284      10.725       5.886      15.760      25.922      29.118     163.170      16.969     227.727     374.581
  2281.700      78.120       2.278      11.640       5.911      15.771      25.995      28.951     163.171      16.455     231.523     375.735
  2281.800      80.136       2.276      12.756       5.930      15.819      26.012      28.725     163.146      15.797     235.506     376.765
  2281.900      81.763       2.272      13.700       5.938      15.899      25.962      28.456     163.068      14.851     238.643     377.870
  2282.000      83.218       2.267      14.039       5.934      16.000      25.853      28.166     162.955      13.670     241.842     379.181
  2282.100      84.675       2.273      13.912       5.921      16.109      25.695      27.875     162.967      12.523     245.433     380.436
  2282.200      85.918       2.288      13.465       5.901      16.208      25.503      27.598     163.315      11.728     248.592     381.148
  2282.300      86.724       2.304      12.885       5.880      16.285      25.310      27.341     164.010      11.403     249.886     381.283
  2282.400      87.120       2.316      12.661       5.861      16.338      25.128      27.100     164.899      11.552     248.135     380.943
  2282.500      87.244       2.308      12.842       5.848      16.366      24.958      26.876     165.729      12.117     242.667     380.211
  2282.600      87.129       2.275      13.148       5.835      16.370      24.819      26.672     166.148      12.823     234.478     379.481
  2282.700      86.568       2.225      13.559       5.821      16.357      24.723      26.494     165.851      13.364     226.255     378.976
  2282.800      85.663       2.175      14.182       5.804      16.337      24.683      26.346     164.888      13.670     220.803     378.597
  2282.900      84.919       2.142      14.905       5.782      16.315      24.717      26.220     163.611      13.724     219.441     378.371
  2283.000      84.772       2.140      15.828       5.759      16.296      24.821      26.105     162.485      13.438     221.333     378.364
  2283.100      85.723       2.163      17.008       5.737      16.283      24.946      25.986     161.880      12.913     225.059     378.694
  2283.200      87.826       2.197      18.066       5.718      16.275      25.043      25.845     161.795      12.414     228.669     379.573
  2283.300      90.121       2.231      18.742       5.704      16.268      25.085      25.674     161.990      12.020     231.880     380.889
  2283.400      91.785       2.250      19.158       5.696      16.263      25.044      25.473     162.163      11.704     235.763     382.707
  2283.500      92.429       2.249      19.456       5.693      16.267      24.918      25.250     162.068      11.565     240.121     385.256
  2283.600      91.439       2.231      19.685       5.695      16.286      24.738      25.012     161.749      11.614     245.678     388.247
  2283.700      89.191       2.211      20.021       5.701      16.328      24.526      24.769     161.506      11.690     253.264     391.520
  2283.800      87.086       2.199      20.443       5.711      16.401      24.309      24.529     161.535      11.730     260.290     395.187
  2283.900      85.792       2.201      20.847       5.723      16.509      24.102      24.294     161.764      11.774     264.231     398.554
