~Version Information

VERS.                     1.20: CWLS log ASCII Standard - VERSION  1.20

WRAP.                       NO: One line per depth step

~Well Information Block

#MNEM.UNIT           Data Type   Information

#컴컴컴컴컴        컴컴컴컴컴�   컴컴컴컴컴컴컴�

STRT.M               1500.000 :

STOP.M               2399.900 :

STEP.M                  0.100 :

NULL.                  -1.000 :

COMP.                  COMPANY:   

WELL.                     WELL:  A-6

FLD .                    FIELD:   

LOC .                 LOCATION:   

PROV.                 PROVINCE:  Nieznany

SRVC.          SERVICE COMPANY:  Zaklad Geofizyka Krakow   

DATE.                 LOG DATE:  Nieznany

UWI .           UNIQUE WELL ID:   

~Parameter  Information Block

#MNEM.UNIT             Value      Description

#컴컴컴컴컴        컴컴컴컴컴�   컴컴컴컴컴컴컴�

DD  .M                 -1.000 :  Depth Driller

DL  .M                 -1.000 :  Depth Logger

BS  .MM                   311 :  Bit Size

BS1 .                         :  Bit Size1

BS2 .                         :  Bit Size2

BS3 .                         :  Bit Size3

CBD .M                 -1.000 :  Casing Bottom Driller

CBL .M                 -1.000 :  Casing Bottom Logger

CSIZ.IN                       :  Casing Size

CSIN.MM                    -1 :  Internal Casing Size

CS1 .                         :  Casing Size 1

CS2 .                         :  Casing Size 2

CS3 .                         :  Casing Size 3

CAST.                         :  Casing Thickness

FD  .G/C3               1.230 :  Mud Fluid Density

DFTH.                         :  Drilling Fluid Thixotropy

DFL .C3                    -1 :  Mud Fluid Loss

DFV .S/1500C3              -1 :  Mud Fluid Viscosity

DFPH.                         :  Drilling Fluid Ph

SALI.G/L               19.800 :  Salinity of the Mud

RMS .OHMM               0.300 :  Resistivity of Mud Sample

MST .DEGC               8.000 :  Mud Sample Temperature

RMC .OHMM                     :  Mud Cake Resistivity

MCST.                         :  Mud Cake Sample Temperature

RMFS.                         :  Mud Filtrate Resistivity

MFST.                         :  Mud Filtrate Sample Temperature

MRT .                         :  Maximum Recorded Temperature

BHT .DEGC                     :  Bottom Hole Temperature

MST .                         :  Mean Surface Temperature

TGRD.                         :  Temperature Gradient

MDEN.                         :  Matrix Density

DTM .                         :  Delta-T Matrix

FDEN.                         :  Fluid Density

DTF .                         :  Delta-T Fluid

MATR.                         :  Matrix (0=LIME,1=SAND,2=DOLO)

FNUM.                         :  Tortuosity  Constant Archie's (a)

FEXP.                         :  Cementation Exponent Archie's (m)

SEXP.                         :  Saturation Exponent Archie's (n)

LATI.                         :  Latitude

LONG.                         :  Longitude

PDEV.M                 -1.000 :  Elevation of Permanent Datum

EGL .M                 -1.000 :  Elevation of Ground Level

EDF .M                        :  Elevation of Derrick Floor

EKB .M                 -1.000 :  Elevation of Kelly Bushing

~Curve Information

#MNEM.UNIT         API CODE      Opis krzywych

#컴컴컴컴컴        컴컴컴컴컴�   컴컴컴컴컴컴컴�

DEPT.M                       :   1    Glebokosc [m]

GR.API                        :   2    Prof.gamma naturalne PG

RHOB.G/C3                     :   3    Gestosc objet.PGGg[g/ccm]

NTCN.NPHI                     :   4    Prof.n-n termiczny PNNt

EN00.OHMM                     :   5    Sonda potencjalowa

EN01.OHMM                     :   6    Sonda potencjalowa

EL00.OHMM                     :   7    Sonda gradientowa

EL01.OHMM                     :   8    Sonda gradientowa

SP.MV                         :   9    Prof.potencj. naturalnych PS

LL3.OHMM                      :  10    Laterolog 3

DT.US/M                       :  11    Profilowanie akustyczne PAdt

CALI.MM                       :  12    Srednica otworu PSr[mm]

~A DEPTH       GR         RHOB        NTCN        EN00        EN01        EL00        EL01         SP         LL3          DT         CALI    
# ...
  1858.400      76.256       2.437      26.750       3.138       6.242       7.378       6.820     149.950       4.680     362.283     317.930
  1858.500      73.845       2.436      25.722       3.155       6.277       7.277       6.821     151.154       4.804     353.438     318.073
  1858.600      72.225       2.433      24.842       3.171       6.311       7.216       6.842     152.156       4.895     346.159     318.294
  1858.700      71.581       2.430      24.090       3.181       6.341       7.192       6.882     152.660       4.940     340.234     318.779
  1858.800      71.195       2.428      23.615       3.185       6.369       7.199       6.937     152.585       4.956     334.525     319.718
  1858.900      70.646       2.428      23.524       3.185       6.389       7.224       7.002     152.173       4.960     328.627     321.189
  1859.000      69.976       2.430      23.999       3.182       6.401       7.253       7.070     151.724       4.967     323.671     322.990
  1859.100      69.234       2.434      24.885       3.180       6.407       7.289       7.134     151.470       4.983     320.392     324.723
  1859.200      68.853       2.437      25.947       3.181       6.407       7.327       7.189     151.462       4.989     319.106     325.971
  1859.300      69.419       2.437      27.198       3.189       6.402       7.357       7.231     151.521       4.975     320.122     326.394
  1859.400      70.569       2.435      28.429       3.202       6.395       7.382       7.262     151.555       4.935     322.751     325.974
  1859.500      71.754       2.429      29.253       3.215       6.389       7.408       7.284     151.636       4.874     325.899     325.005
  1859.600      73.323       2.420      29.888       3.230       6.383       7.433       7.302     151.728       4.824     329.260     323.909
  1859.700      75.196       2.412      30.383       3.244       6.382       7.453       7.320     151.825       4.799     332.798     323.113
  1859.800      76.952       2.403      30.120       3.252       6.385       7.470       7.339     151.953       4.768     336.010     322.689
  1859.900      78.767       2.396      29.298       3.255       6.391       7.488       7.361     152.007       4.715     338.428     322.478
  1860.000      80.555       2.389      28.133       3.257       6.401       7.505       7.388     151.936       4.657     339.423     322.434
  1860.100      81.445       2.385      26.576       3.256       6.413       7.522       7.418     151.863       4.602     338.591     322.404
  1860.200      81.278       2.386      25.205       3.251       6.426       7.547       7.454     151.972       4.556     336.122     322.220
  1860.300      80.608       2.391      24.454       3.250       6.439       7.577       7.496     152.383       4.525     332.638     321.969
  1860.400      79.684       2.400      24.245       3.249       6.452       7.611       7.541     153.018       4.515     328.986     321.805
  1860.500      78.740       2.412      24.504       3.250       6.462       7.647       7.587     153.623       4.515     326.147     321.768
  1860.600      77.749       2.423      25.015       3.252       6.467       7.683       7.631     153.912       4.515     324.709     321.924
  1860.700      76.402       2.429      25.406       3.255       6.468       7.722       7.673     153.604       4.543     324.421     322.398
  1860.800      74.379       2.432      25.389       3.261       6.465       7.767       7.710     152.654       4.635     324.550     323.269
  1860.900      71.828       2.435      24.791       3.272       6.459       7.821       7.744     151.354       4.790     324.160     324.572
  1861.000      68.937       2.439      23.620       3.290       6.451       7.878       7.775     150.115       4.988     322.502     326.216
  1861.100      65.840       2.446      22.024       3.312       6.440       7.935       7.805     149.393       5.236     319.229     327.990
  1861.200      62.825       2.458      20.410       3.332       6.426       7.993       7.835     149.442       5.531     314.463     329.751
  1861.300      60.182       2.473      19.024       3.349       6.404       8.053       7.865     150.100       5.852     308.703     331.376
  1861.400      58.178       2.487      17.896       3.360       6.374       8.116       7.897     150.939       6.171     302.550     332.648
  1861.500      56.928       2.499      17.195       3.370       6.334       8.183       7.931     151.576       6.422     296.392     333.464
  1861.600      56.895       2.507      17.055       3.381       6.283       8.250       7.964     151.822       6.568     290.695     333.863
  1861.700      58.155       2.511      17.400       3.398       6.221       8.314       7.991     151.686       6.605     286.136     333.862
  1861.800      60.616       2.508      18.167       3.419       6.151       8.377       8.012     151.296       6.517     283.621     333.415
  1861.900      64.003       2.502      19.410       3.439       6.075       8.442       8.025     150.791       6.285     283.638     332.538
  1862.000      67.933       2.491      21.067       3.454       6.000       8.518       8.028     150.206       5.973     287.132     331.234
  1862.100      72.300       2.476      22.976       3.458       5.930       8.607       8.018     149.575       5.621     294.166     329.499
  1862.200      76.737       2.458      25.043       3.449       5.870       8.695       7.993     149.117       5.235     303.351     327.422
  1862.300      81.040       2.439      27.193       3.426       5.819       8.767       7.951     149.179       4.846     314.706     325.147
  1862.400      84.952       2.421      29.040       3.390       5.778       8.816       7.889     150.011       4.514     326.520     322.879
  1862.500      88.252       2.408      30.350       3.339       5.744       8.831       7.807     151.516       4.262     335.409     320.881
  1862.600      91.050       2.399      31.254       3.279       5.714       8.804       7.709     153.107       4.092     340.378     319.280
  1862.700      93.532       2.396      31.642       3.214       5.686       8.743       7.598     153.981       3.989     341.313     318.036
  1862.800      95.792       2.397      31.500       3.149       5.656       8.645       7.481     153.629       3.923     337.132     317.134
  1862.900      97.808       2.400      31.077       3.087       5.620       8.509       7.366     152.111       3.879     329.479     316.471
  1863.000      99.461       2.404      30.539       3.031       5.575       8.353       7.258     150.117       3.856     321.070     315.958
  1863.100     100.279       2.407      29.964       2.984       5.519       8.187       7.161     148.536       3.841     312.986     315.602
  1863.200     100.224       2.408      29.452       2.945       5.452       8.021       7.078     147.963       3.837     306.593     315.417
  1863.300      99.697       2.405      29.059       2.913       5.376       7.876       7.008     148.502       3.854     302.702     315.443
  1863.400      99.067       2.397      28.925       2.885       5.297       7.762       6.950     149.795       3.884     302.034     315.702
  1863.500      98.582       2.387      29.098       2.859       5.217       7.675       6.901     151.332       3.893     305.603     316.063
  1863.600      98.382       2.375      29.461       2.830       5.141       7.614       6.856     152.735       3.874     313.852     316.373
  1863.700      98.965       2.366      29.976       2.799       5.074       7.568       6.814     153.769       3.841     326.241     316.538
  1863.800     100.029       2.359      30.557       2.768       5.015       7.524       6.770     154.276       3.791     341.153     316.506
  1863.900     100.952       2.355      31.156       2.737       4.965       7.475       6.720     154.283       3.734     356.013     316.288
