~Version Information

VERS.                     1.20: CWLS log ASCII Standard - VERSION  1.20

WRAP.                       NO: One line per depth step

~Well Information Block

#MNEM.UNIT           Data Type   Information

#컴컴컴컴컴        컴컴컴컴컴�   컴컴컴컴컴컴컴�

STRT.M               1500.000 :

STOP.M               2399.900 :

STEP.M                  0.100 :

NULL.                  -1.000 :

COMP.                  COMPANY:   

WELL.                     WELL:  A-6

FLD .                    FIELD:   

LOC .                 LOCATION:   

PROV.                 PROVINCE:  Nieznany

SRVC.          SERVICE COMPANY:  Zaklad Geofizyka Krakow   

DATE.                 LOG DATE:  Nieznany

UWI .           UNIQUE WELL ID:   

~Parameter  Information Block

#MNEM.UNIT             Value      Description

#컴컴컴컴컴        컴컴컴컴컴�   컴컴컴컴컴컴컴�

DD  .M                 -1.000 :  Depth Driller

DL  .M                 -1.000 :  Depth Logger

BS  .MM                   311 :  Bit Size

BS1 .                         :  Bit Size1

BS2 .                         :  Bit Size2

BS3 .                         :  Bit Size3

CBD .M                 -1.000 :  Casing Bottom Driller

CBL .M                 -1.000 :  Casing Bottom Logger

CSIZ.IN                       :  Casing Size

CSIN.MM                    -1 :  Internal Casing Size

CS1 .                         :  Casing Size 1

CS2 .                         :  Casing Size 2

CS3 .                         :  Casing Size 3

CAST.                         :  Casing Thickness

FD  .G/C3               1.230 :  Mud Fluid Density

DFTH.                         :  Drilling Fluid Thixotropy

DFL .C3                    -1 :  Mud Fluid Loss

DFV .S/1500C3              -1 :  Mud Fluid Viscosity

DFPH.                         :  Drilling Fluid Ph

SALI.G/L               19.800 :  Salinity of the Mud

RMS .OHMM               0.300 :  Resistivity of Mud Sample

MST .DEGC               8.000 :  Mud Sample Temperature

RMC .OHMM                     :  Mud Cake Resistivity

MCST.                         :  Mud Cake Sample Temperature

RMFS.                         :  Mud Filtrate Resistivity

MFST.                         :  Mud Filtrate Sample Temperature

MRT .                         :  Maximum Recorded Temperature

BHT .DEGC                     :  Bottom Hole Temperature

MST .                         :  Mean Surface Temperature

TGRD.                         :  Temperature Gradient

MDEN.                         :  Matrix Density

DTM .                         :  Delta-T Matrix

FDEN.                         :  Fluid Density

DTF .                         :  Delta-T Fluid

MATR.                         :  Matrix (0=LIME,1=SAND,2=DOLO)

FNUM.                         :  Tortuosity  Constant Archie's (a)

FEXP.                         :  Cementation Exponent Archie's (m)

SEXP.                         :  Saturation Exponent Archie's (n)

LATI.                         :  Latitude

LONG.                         :  Longitude

PDEV.M                 -1.000 :  Elevation of Permanent Datum

EGL .M                 -1.000 :  Elevation of Ground Level

EDF .M                        :  Elevation of Derrick Floor

EKB .M                 -1.000 :  Elevation of Kelly Bushing

~Curve Information

#MNEM.UNIT         API CODE      Opis krzywych

#컴컴컴컴컴        컴컴컴컴컴�   컴컴컴컴컴컴컴�

DEPT.M                       :   1    Glebokosc [m]

GR.API                        :   2    Prof.gamma naturalne PG

RHOB.G/C3                     :   3    Gestosc objet.PGGg[g/ccm]

NTCN.NPHI                     :   4    Prof.n-n termiczny PNNt

EN00.OHMM                     :   5    Sonda potencjalowa

EN01.OHMM                     :   6    Sonda potencjalowa

EL00.OHMM                     :   7    Sonda gradientowa

EL01.OHMM                     :   8    Sonda gradientowa

SP.MV                         :   9    Prof.potencj. naturalnych PS

LL3.OHMM                      :  10    Laterolog 3

DT.US/M                       :  11    Profilowanie akustyczne PAdt

CALI.MM                       :  12    Srednica otworu PSr[mm]

~A DEPTH       GR         RHOB        NTCN        EN00        EN01        EL00        EL01         SP         LL3          DT         CALI    
# ...
  2334.400      57.660       2.451       7.429       9.337      32.235      59.771      65.330     130.254      47.594     256.292     376.886
  2334.500      55.941       2.456       7.581       9.377      32.444      60.310      66.375     130.147      46.465     262.838     374.678
  2334.600      54.189       2.446       7.572       9.414      32.670      60.759      67.313     129.942      44.595     266.194     374.071
  2334.700      52.443       2.429       7.942       9.452      32.904      61.084      68.148     129.426      42.658     266.669     375.136
  2334.800      51.055       2.415       8.316       9.493      33.136      61.261      68.894     128.478      41.203     264.265     377.283
  2334.900      50.505       2.405       8.637       9.535      33.362      61.277      69.585     127.153      40.034     260.112     379.507
  2335.000      50.753       2.403       8.812       9.578      33.577      61.146      70.251     125.669      39.430     254.982     381.117
  2335.100      51.435       2.409       8.726       9.621      33.777      60.916      70.934     124.358      40.183     248.448     381.653
  2335.200      52.424       2.416       8.482       9.661      33.968      60.646      71.675     123.495      42.040     240.594     380.854
  2335.300      53.484       2.414       8.250       9.696      34.146      60.411      72.502     123.057      44.196     231.918     379.397
  2335.400      54.467       2.403       8.082       9.725      34.309      60.283      73.438     122.783      46.452     222.205     378.264
  2335.500      55.494       2.391       8.000       9.750      34.451      60.295      74.484     122.510      48.225     212.018     377.429
  2335.600      56.591       2.386       8.012       9.773      34.565      60.459      75.634     122.273      48.873     203.075     376.691
  2335.700      57.651       2.392       8.118       9.792      34.642      60.796      76.874     122.256      48.878     196.279     376.121
  2335.800      58.576       2.411       8.263       9.808      34.678      61.286      78.183     122.757      48.882     191.356     375.224
  2335.900      59.243       2.442       8.344       9.823      34.670      61.894      79.551     123.939      48.932     188.295     373.550
  2336.000      59.570       2.474       8.310       9.835      34.619      62.615      80.951     125.486      48.921     186.727     371.552
  2336.100      59.668       2.494       8.184       9.844      34.527      63.439      82.372     126.830      48.786     186.269     369.690
  2336.200      59.666       2.506       7.917       9.850      34.397      64.329      83.796     127.486      48.481     188.051     367.846
  2336.300      59.521       2.515       7.554       9.854      34.237      65.289      85.190     127.178      47.918     192.656     365.802
  2336.400      59.088       2.529       7.486       9.856      34.057      66.310      86.540     126.034      47.175     198.574     363.527
  2336.500      58.442       2.550       7.187       9.854      33.866      67.350      87.808     124.572      46.581     203.493     361.086
  2336.600      57.774       2.573       6.964       9.847      33.671      68.373      88.980     123.348      45.825     205.974     358.545
  2336.700      57.059       2.586       6.843       9.837      33.476      69.356      90.042     122.641      44.373     205.352     356.229
  2336.800      56.462       2.585       6.791       9.820      33.286      70.272      90.987     122.364      42.590     202.027     354.490
  2336.900      56.184       2.574       6.703       9.795      33.101      71.119      91.816     122.199      41.161     197.091     353.026
  2337.000      55.957       2.560       6.589       9.766      32.924      71.896      92.512     121.855      40.484     192.454     351.417
  2337.100      55.450       2.552       6.513       9.734      32.759      72.568      93.067     121.762      40.679     189.858     349.696
  2337.200      54.871       2.554       6.489       9.702      32.604      73.119      93.472     121.670      41.342     189.572     348.095
  2337.300      54.463       2.563       6.516       9.673      32.459      73.522      93.728     121.577      41.913     191.302     346.888
  2337.400      54.110       2.573       6.606       9.646      32.319      73.757      93.853     121.485      42.096     194.538     346.487
  2337.500      53.729       2.573       6.729       9.619      32.182      73.842      93.875     121.393      41.887     198.729     347.103
  2337.600      53.295       2.561       6.823       9.592      32.046      73.824      93.827     121.300      41.388     202.681     348.181
  2337.700      52.873       2.542       6.845       9.565      31.906      73.732      93.735     121.208      40.986     205.287     348.874
  2337.800      52.464       2.521       6.809       9.536      31.764      73.599      93.612     121.115      40.981     206.040     348.832
  2337.900      52.342       2.506       6.800       9.506      31.618      73.472      93.462     121.023      41.478     205.049     348.086
  2338.000      52.869       2.501       6.793       9.474      31.467      73.370      93.278     120.930      42.490     203.259     346.657
  2338.100      54.076       2.506       6.773       9.438      31.313      73.298      93.047     125.421      43.796     202.155     344.958
  2338.200      55.614       2.519       6.813       9.399      31.159      73.271      92.754     129.168      45.118     203.181     343.731
  2338.300      56.914       2.531       6.896       9.359      31.008      73.273      92.386     131.888      46.048     206.707     343.344
  2338.400      57.708       2.535       6.948       9.318      30.867      73.273      91.934     133.567      46.060     212.179     343.902
  2338.500      57.998       2.533       7.020       9.280      30.747      73.249      91.379     134.424      44.945     218.654     345.569
  2338.600      57.707       2.529       7.223       9.248      30.654      73.165      90.715     134.850      42.862     224.571     348.004
  2338.700      56.920       2.525       7.575       9.219      30.594      72.971      89.934     135.103      39.862     228.247     350.603
  2338.800      55.848       2.522       7.716       9.192      30.568      72.643      89.042     135.177      36.514     229.162     353.266
  2338.900      54.547       2.514       8.186       9.165      30.571      72.160      88.062     135.088      33.517     227.861     355.917
  2339.000      53.384       2.497       8.707       9.137      30.595      71.495      87.037     134.860      30.757     224.906     358.500
  2339.100      52.668       2.474       9.157       9.108      30.631      70.672      86.026     134.465      28.245     221.138     361.430
  2339.200      52.231       2.449       9.397       9.081      30.672      69.732      85.072     133.995      26.563     217.228     365.000
  2339.300      52.402       2.429       9.442       9.059      30.714      68.738      84.222     133.649      25.913     213.719     368.634
  2339.400      53.092       2.423       9.352       9.041      30.752      67.766      83.506     133.567      26.481     210.952     371.654
  2339.500      53.485       2.429       9.172       9.026      30.787      66.891      82.939     133.796      28.332     208.751     373.557
  2339.600      53.560       2.444       8.931       9.011      30.812      66.190      82.527     134.252      31.057     206.787     374.024
  2339.700      53.450       2.462       8.668       8.990      30.828      65.706      82.258     134.702      33.994     204.697     373.480
  2339.800      53.114       2.473       8.436       8.964      30.835      65.459      82.108     134.886      36.561     202.671     372.856
  2339.900      52.924       2.477       8.282       8.932      30.835      65.449      82.030     134.746      38.156     200.297     372.859
