~Version Information

VERS.                     1.20: CWLS log ASCII Standard - VERSION  1.20

WRAP.                       NO: One line per depth step

~Well Information Block

#MNEM.UNIT           Data Type   Information

#컴컴컴컴컴        컴컴컴컴컴�   컴컴컴컴컴컴컴�

STRT.M               1500.000 :

STOP.M               2399.900 :

STEP.M                  0.100 :

NULL.                  -1.000 :

COMP.                  COMPANY:   

WELL.                     WELL:  A-6

FLD .                    FIELD:   

LOC .                 LOCATION:   

PROV.                 PROVINCE:  Nieznany

SRVC.          SERVICE COMPANY:  Zaklad Geofizyka Krakow   

DATE.                 LOG DATE:  Nieznany

UWI .           UNIQUE WELL ID:   

~Parameter  Information Block

#MNEM.UNIT             Value      Description

#컴컴컴컴컴        컴컴컴컴컴�   컴컴컴컴컴컴컴�

DD  .M                 -1.000 :  Depth Driller

DL  .M                 -1.000 :  Depth Logger

BS  .MM                   311 :  Bit Size

BS1 .                         :  Bit Size1

BS2 .                         :  Bit Size2

BS3 .                         :  Bit Size3

CBD .M                 -1.000 :  Casing Bottom Driller

CBL .M                 -1.000 :  Casing Bottom Logger

CSIZ.IN                       :  Casing Size

CSIN.MM                    -1 :  Internal Casing Size

CS1 .                         :  Casing Size 1

CS2 .                         :  Casing Size 2

CS3 .                         :  Casing Size 3

CAST.                         :  Casing Thickness

FD  .G/C3               1.230 :  Mud Fluid Density

DFTH.                         :  Drilling Fluid Thixotropy

DFL .C3                    -1 :  Mud Fluid Loss

DFV .S/1500C3              -1 :  Mud Fluid Viscosity

DFPH.                         :  Drilling Fluid Ph

SALI.G/L               19.800 :  Salinity of the Mud

RMS .OHMM               0.300 :  Resistivity of Mud Sample

MST .DEGC               8.000 :  Mud Sample Temperature

RMC .OHMM                     :  Mud Cake Resistivity

MCST.                         :  Mud Cake Sample Temperature

RMFS.                         :  Mud Filtrate Resistivity

MFST.                         :  Mud Filtrate Sample Temperature

MRT .                         :  Maximum Recorded Temperature

BHT .DEGC                     :  Bottom Hole Temperature

MST .                         :  Mean Surface Temperature

TGRD.                         :  Temperature Gradient

MDEN.                         :  Matrix Density

DTM .                         :  Delta-T Matrix

FDEN.                         :  Fluid Density

DTF .                         :  Delta-T Fluid

MATR.                         :  Matrix (0=LIME,1=SAND,2=DOLO)

FNUM.                         :  Tortuosity  Constant Archie's (a)

FEXP.                         :  Cementation Exponent Archie's (m)

SEXP.                         :  Saturation Exponent Archie's (n)

LATI.                         :  Latitude

LONG.                         :  Longitude

PDEV.M                 -1.000 :  Elevation of Permanent Datum

EGL .M                 -1.000 :  Elevation of Ground Level

EDF .M                        :  Elevation of Derrick Floor

EKB .M                 -1.000 :  Elevation of Kelly Bushing

~Curve Information

#MNEM.UNIT         API CODE      Opis krzywych

#컴컴컴컴컴        컴컴컴컴컴�   컴컴컴컴컴컴컴�

DEPT.M                       :   1    Glebokosc [m]

GR.API                        :   2    Prof.gamma naturalne PG

RHOB.G/C3                     :   3    Gestosc objet.PGGg[g/ccm]

NTCN.NPHI                     :   4    Prof.n-n termiczny PNNt

EN00.OHMM                     :   5    Sonda potencjalowa

EN01.OHMM                     :   6    Sonda potencjalowa

EL00.OHMM                     :   7    Sonda gradientowa

EL01.OHMM                     :   8    Sonda gradientowa

SP.MV                         :   9    Prof.potencj. naturalnych PS

LL3.OHMM                      :  10    Laterolog 3

DT.US/M                       :  11    Profilowanie akustyczne PAdt

CALI.MM                       :  12    Srednica otworu PSr[mm]

~A DEPTH       GR         RHOB        NTCN        EN00        EN01        EL00        EL01         SP         LL3          DT         CALI    
# ...
  1679.200      71.743       2.359      24.585       8.477      29.510      60.127      82.283     146.821      37.026     264.599     422.171
  1679.300      72.553       2.364      25.142       8.493      29.745      59.035      81.484     147.341      36.831     267.059     426.068
  1679.400      73.740       2.331      25.371       8.502      29.976      58.111      80.908     147.603      36.515     270.132     429.676
  1679.500      75.242       2.286      25.177       8.507      30.192      57.363      80.537     147.598      36.461     271.772     432.152
  1679.600      76.918       2.248      24.448       8.513      30.382      56.809      80.334     147.416      36.674     271.211     432.426
  1679.700      78.526       2.226      23.306       8.524      30.541      56.441      80.243     147.103      36.838     268.726     430.650
  1679.800      79.715       2.230      22.140       8.538      30.671      56.255      80.216     146.701      36.833     265.244     427.650
  1679.900      80.625       2.260      21.156       8.555      30.779      56.234      80.217     146.281      36.675     262.411     424.046
  1680.000      81.227       2.304      20.525       8.571      30.873      56.351      80.232     145.946      36.444     261.757     421.024
  1680.100      81.223       2.349      20.274       8.584      30.969      56.583      80.250     145.781      36.439     263.742     419.872
  1680.200      80.580       2.393      20.409       8.594      31.078      56.902      80.252     145.845      36.822     267.092     420.836
  1680.300      79.431       2.431      21.015       8.603      31.205      57.255      80.214     146.078      37.311     270.727     423.804
  1680.400      78.003       2.450      22.159       8.614      31.349      57.564      80.118     146.262      37.609     273.086     428.725
  1680.500      76.613       2.437      23.430       8.626      31.502      57.735      79.970     146.134      37.632     272.369     434.833
  1680.600      75.374       2.385      24.552       8.643      31.650      57.717      79.812     145.512      37.482     267.827     441.062
  1680.700      74.439       2.303      25.425       8.665      31.777      57.502      79.713     144.474      37.322     258.385     446.045
  1680.800      73.929       2.212      25.582       8.689      31.871      57.144      79.753     143.352      37.411     244.411     447.944
  1680.900      73.474       2.138      25.093       8.715      31.929      56.761      79.998     142.532      38.026     228.754     446.116
  1681.000      73.007       2.097      24.533       8.740      31.953      56.490      80.490     142.234      39.090     214.709     441.019
  1681.100      72.958       2.094      24.164       8.765      31.950      56.454      81.243     142.414      40.199     205.679     433.369
  1681.200      73.496       2.133      23.704       8.788      31.926      56.745      82.244     142.739      41.241     205.342     424.730
  1681.300      74.698       2.208      22.790       8.808      31.889      57.385      83.457     142.868      42.247     213.111     416.912
  1681.400      76.540       2.302      21.461       8.822      31.843      58.361      84.824     142.781      43.015     225.329     410.660
  1681.500      78.334       2.383      20.051       8.831      31.787      59.639      86.287     142.602      43.359     238.917     406.038
  1681.600      79.406       2.437      18.686       8.831      31.721      61.130      87.762     142.355      43.415     249.330     403.033
  1681.700      79.683       2.467      17.448       8.825      31.644      62.735      89.171     142.090      43.414     253.270     401.433
  1681.800      79.134       2.484      16.619       8.814      31.551      64.319      90.437     141.837      43.349     252.321     400.867
  1681.900      78.191       2.496      16.204       8.802      31.445      65.747      91.521     141.516      43.255     248.789     400.914
  1682.000      77.650       2.504      15.901       8.794      31.326      66.924      92.414     141.183      43.248     245.267     401.378
  1682.100      77.688       2.509      15.629       8.791      31.198      67.827      93.137     141.078      43.296     245.162     402.112
  1682.200      78.154       2.512      15.556       8.791      31.067      68.497      93.732     141.358      43.335     249.965     403.062
  1682.300      78.834       2.513      15.672       8.791      30.944      69.021      94.230     142.052      43.401     259.883     404.141
  1682.400      79.460       2.512      15.976       8.791      30.838      69.512      94.662     143.005      43.369     273.582     404.969
  1682.500      79.873       2.506      16.624       8.789      30.755      70.025      95.038     143.877      42.977     287.457     405.428
  1682.600      80.122       2.488      17.572       8.783      30.698      70.538      95.367     144.350      42.063     298.182     405.806
  1682.700      80.295       2.458      18.629       8.773      30.658      70.999      95.665     144.207      40.696     304.231     406.326
  1682.800      80.505       2.427      19.475       8.762      30.623      71.368      95.959     143.489      39.281     303.876     407.125
  1682.900      80.750       2.402      19.773       8.751      30.582      71.639      96.275     142.449      38.277     297.575     408.274
  1683.000      80.968       2.389      19.386       8.741      30.526      71.827      96.627     141.304      38.014     287.374     409.481
  1683.100      81.221       2.391      18.565       8.733      30.453      71.970      97.014     140.328      38.565     275.419     410.333
  1683.200      81.511       2.410      17.702       8.731      30.369      72.113      97.413     139.808      39.568     263.917     410.549
  1683.300      81.722       2.440      17.096       8.731      30.286      72.287      97.812     139.733      40.461     254.142     410.023
  1683.400      81.816       2.471      16.847       8.730      30.207      72.522      98.202     140.003      40.942     247.561     409.101
  1683.500      81.805       2.495      16.845       8.725      30.138      72.857      98.584     140.633      40.944     244.556     408.213
  1683.600      81.512       2.505      16.920       8.715      30.081      73.305      98.960     141.406      40.504     244.755     407.506
  1683.700      80.803       2.505      16.941       8.698      30.032      73.846      99.314     141.951      39.802     247.397     407.162
  1683.800      79.908       2.495      16.928       8.674      29.985      74.435      99.615     142.160      39.060     251.352     407.294
  1683.900      79.118       2.481      16.919       8.649      29.933      74.992      99.834     142.069      38.440     255.632     407.761
  1684.000      78.691       2.468      17.072       8.625      29.871      75.433      99.940     141.828      37.983     259.480     408.377
  1684.100      78.819       2.456      17.452       8.601      29.797      75.713      99.921     141.739      37.704     263.100     408.884
  1684.200      79.430       2.445      17.985       8.577      29.713      75.832      99.790     142.008      37.640     266.717     409.107
  1684.300      80.230       2.435      18.739       8.555      29.627      75.819      99.575     142.589      37.706     270.092     409.232
  1684.400      80.745       2.426      19.553       8.531      29.545      75.712      99.309     143.311      37.628     272.782     409.583
  1684.500      80.721       2.418      20.191       8.506      29.473      75.522      99.035     143.945      37.234     274.009     410.574
  1684.600      80.342       2.412      20.674       8.481      29.409      75.246      98.789     144.259      36.598     272.663     412.608
  1684.700      79.857       2.407      20.841       8.454      29.347      74.889      98.597     144.202      35.883     268.413     415.474
