~Version Information

VERS.                     1.20: CWLS log ASCII Standard - VERSION  1.20

WRAP.                       NO: One line per depth step

~Well Information Block

#MNEM.UNIT           Data Type   Information

#컴컴컴컴컴        컴컴컴컴컴�   컴컴컴컴컴컴컴�

STRT.M               1500.000 :

STOP.M               2399.900 :

STEP.M                  0.100 :

NULL.                  -1.000 :

COMP.                  COMPANY:   

WELL.                     WELL:  A-6

FLD .                    FIELD:   

LOC .                 LOCATION:   

PROV.                 PROVINCE:  Nieznany

SRVC.          SERVICE COMPANY:  Zaklad Geofizyka Krakow   

DATE.                 LOG DATE:  Nieznany

UWI .           UNIQUE WELL ID:   

~Parameter  Information Block

#MNEM.UNIT             Value      Description

#컴컴컴컴컴        컴컴컴컴컴�   컴컴컴컴컴컴컴�

DD  .M                 -1.000 :  Depth Driller

DL  .M                 -1.000 :  Depth Logger

BS  .MM                   311 :  Bit Size

BS1 .                         :  Bit Size1

BS2 .                         :  Bit Size2

BS3 .                         :  Bit Size3

CBD .M                 -1.000 :  Casing Bottom Driller

CBL .M                 -1.000 :  Casing Bottom Logger

CSIZ.IN                       :  Casing Size

CSIN.MM                    -1 :  Internal Casing Size

CS1 .                         :  Casing Size 1

CS2 .                         :  Casing Size 2

CS3 .                         :  Casing Size 3

CAST.                         :  Casing Thickness

FD  .G/C3               1.230 :  Mud Fluid Density

DFTH.                         :  Drilling Fluid Thixotropy

DFL .C3                    -1 :  Mud Fluid Loss

DFV .S/1500C3              -1 :  Mud Fluid Viscosity

DFPH.                         :  Drilling Fluid Ph

SALI.G/L               19.800 :  Salinity of the Mud

RMS .OHMM               0.300 :  Resistivity of Mud Sample

MST .DEGC               8.000 :  Mud Sample Temperature

RMC .OHMM                     :  Mud Cake Resistivity

MCST.                         :  Mud Cake Sample Temperature

RMFS.                         :  Mud Filtrate Resistivity

MFST.                         :  Mud Filtrate Sample Temperature

MRT .                         :  Maximum Recorded Temperature

BHT .DEGC                     :  Bottom Hole Temperature

MST .                         :  Mean Surface Temperature

TGRD.                         :  Temperature Gradient

MDEN.                         :  Matrix Density

DTM .                         :  Delta-T Matrix

FDEN.                         :  Fluid Density

DTF .                         :  Delta-T Fluid

MATR.                         :  Matrix (0=LIME,1=SAND,2=DOLO)

FNUM.                         :  Tortuosity  Constant Archie's (a)

FEXP.                         :  Cementation Exponent Archie's (m)

SEXP.                         :  Saturation Exponent Archie's (n)

LATI.                         :  Latitude

LONG.                         :  Longitude

PDEV.M                 -1.000 :  Elevation of Permanent Datum

EGL .M                 -1.000 :  Elevation of Ground Level

EDF .M                        :  Elevation of Derrick Floor

EKB .M                 -1.000 :  Elevation of Kelly Bushing

~Curve Information

#MNEM.UNIT         API CODE      Opis krzywych

#컴컴컴컴컴        컴컴컴컴컴�   컴컴컴컴컴컴컴�

DEPT.M                       :   1    Glebokosc [m]

GR.API                        :   2    Prof.gamma naturalne PG

RHOB.G/C3                     :   3    Gestosc objet.PGGg[g/ccm]

NTCN.NPHI                     :   4    Prof.n-n termiczny PNNt

EN00.OHMM                     :   5    Sonda potencjalowa

EN01.OHMM                     :   6    Sonda potencjalowa

EL00.OHMM                     :   7    Sonda gradientowa

EL01.OHMM                     :   8    Sonda gradientowa

SP.MV                         :   9    Prof.potencj. naturalnych PS

LL3.OHMM                      :  10    Laterolog 3

DT.US/M                       :  11    Profilowanie akustyczne PAdt

CALI.MM                       :  12    Srednica otworu PSr[mm]

~A DEPTH       GR         RHOB        NTCN        EN00        EN01        EL00        EL01         SP         LL3          DT         CALI    
# ...
  1617.600      83.969       2.591      11.533      15.344      54.004     139.805     203.433     113.508      46.629     226.138     327.699
  1617.700      81.661       2.591      11.017      15.318      53.879     138.759     202.247     113.845      46.796     216.152     327.250
  1617.800      78.681       2.591      10.521      15.298      53.762     137.730     201.143     113.955      48.059     208.599     326.640
  1617.900      75.378       2.592      10.079      15.283      53.650     136.743     200.131     113.838      50.328     204.686     325.812
  1618.000      72.210       2.594       9.818      15.274      53.543     135.815     199.226     113.565      53.582     205.073     324.723
  1618.100      69.532       2.600       9.760      15.268      53.441     134.970     198.447     113.196      57.994     209.578     323.481
  1618.200      67.771       2.608       9.798      15.265      53.343     134.232     197.790     112.884      62.988     216.970     322.285
  1618.300      67.005       2.618       9.884      15.263      53.251     133.627     197.243     112.809      66.981     226.064     321.219
  1618.400      67.022       2.625      10.077      15.263      53.168     133.148     196.776     113.052      69.277     235.553     320.335
  1618.500      67.861       2.627      10.338      15.265      53.096     132.795     196.353     113.569      70.182     243.594     319.719
  1618.600      69.405       2.624      10.622      15.267      53.034     132.561     195.931     114.156      69.641     248.592     319.346
  1618.700      71.248       2.617      10.925      15.271      52.981     132.403     195.489     114.539      67.814     249.725     319.103
  1618.800      72.903       2.611      11.226      15.277      52.937     132.287     195.018     114.551      65.680     247.665     318.954
  1618.900      73.941       2.607      11.441      15.285      52.902     132.184     194.506     114.131      63.757     243.506     318.891
  1619.000      74.489       2.604      11.505      15.294      52.875     132.052     193.952     113.388      61.777     238.244     318.887
  1619.100      75.010       2.601      11.425      15.302      52.859     131.867     193.363     112.593      59.660     233.193     318.913
  1619.200      75.594       2.600      11.267      15.310      52.853     131.622     192.739     111.966      57.798     229.496     318.948
  1619.300      76.348       2.599      11.135      15.317      52.853     131.311     192.081     111.616      56.683     226.853     319.020
  1619.400      77.639       2.600      11.030      15.323      52.859     130.937     191.399     111.499      56.319     224.711     319.111
  1619.500      79.174       2.604      11.036      15.329      52.870     130.530     190.701     111.434      56.264     223.030     319.142
  1619.600      80.145       2.610      11.214      15.337      52.884     130.102     189.997     111.330      56.100     221.885     319.096
  1619.700      80.453       2.615      11.509      15.344      52.901     129.661     189.282     111.355      55.606     221.731     319.001
  1619.800      80.036       2.620      11.869      15.348      52.922     129.207     188.554     111.756      54.821     223.010     318.891
  1619.900      78.858       2.621      12.183      15.349      52.946     128.734     187.813     112.603      54.101     226.154     318.838
  1620.000      77.328       2.620      12.249      15.347      52.969     128.233     187.056     113.775      53.864     230.892     318.841
  1620.100      75.593       2.618      11.995      15.343      52.991     127.694     186.292     114.968      54.250     236.152     318.843
  1620.200      73.607       2.617      11.530      15.341      53.011     127.131     185.538     115.868      55.197     240.980     318.861
  1620.300      71.729       2.616      10.916      15.341      53.028     126.562     184.812     116.402      56.663     243.910     318.889
  1620.400      70.352       2.620      10.313      15.348      53.044     125.987     184.117     116.796      58.664     243.523     318.918
  1620.500      69.611       2.627       9.922      15.360      53.062     125.424     183.453     117.406      60.912     239.851     319.048
  1620.600      69.543       2.634       9.811      15.372      53.081     124.896     182.812     118.598      62.675     234.139     319.242
  1620.700      70.055       2.640       9.945      15.384      53.105     124.405     182.182     120.406      63.308     228.087     319.344
  1620.800      71.105       2.644      10.277      15.397      53.135     123.954     181.563     122.376      62.469     223.632     319.354
  1620.900      72.342       2.646      10.797      15.408      53.170     123.537     180.954     123.897      60.158     222.291     319.228
  1621.000      73.294       2.646      11.353      15.417      53.209     123.130     180.363     124.426      57.036     224.086     318.918
  1621.100      74.075       2.644      11.758      15.426      53.255     122.718     179.794     123.708      54.281     227.675     318.552
  1621.200      74.776       2.643      11.989      15.435      53.303     122.291     179.256     122.087      52.794     231.475     318.200
  1621.300      75.269       2.643      12.092      15.441      53.351     121.839     178.749     120.287      53.256     234.643     317.862
  1621.400      75.542       2.645      12.148      15.447      53.397     121.372     178.272     118.925      56.398     236.329     317.528
  1621.500      75.893       2.649      12.152      15.459      53.442     120.910     177.819     118.369      61.873     236.008     317.190
  1621.600      76.698       2.652      12.117      15.475      53.484     120.461     177.389     118.597      67.072     234.577     316.914
  1621.700      77.815       2.653      12.073      15.492      53.521     120.029     176.977     119.233      70.290     232.977     316.796
  1621.800      78.730       2.650      11.986      15.511      53.552     119.636     176.588     119.906      71.972     231.429     316.833
  1621.900      79.100       2.645      11.811      15.531      53.577     119.293     176.219     120.530      72.090     230.392     316.914
  1622.000      78.787       2.636      11.590      15.548      53.599     118.999     175.860     121.099      70.133     230.110     316.922
  1622.100      77.528       2.628      11.399      15.566      53.620     118.770     175.499     121.528      67.643     230.103     316.815
  1622.200      75.742       2.623      11.235      15.587      53.643     118.597     175.120     121.798      65.994     230.091     316.603
  1622.300      74.376       2.620      11.097      15.610      53.672     118.447     174.706     121.922      64.586     229.678     316.348
  1622.400      73.704       2.620      10.991      15.632      53.706     118.299     174.240     121.938      62.865     228.520     316.158
  1622.500      73.319       2.624      10.923      15.653      53.743     118.137     173.719     121.958      61.508     226.993     316.029
  1622.600      73.277       2.628      10.873      15.671      53.783     117.939     173.151     122.164      61.189     225.354     315.895
  1622.700      73.733       2.633      10.830      15.688      53.827     117.702     172.538     122.642      61.930     223.287     315.714
  1622.800      74.370       2.637      10.793      15.703      53.873     117.427     171.893     123.303      63.518     221.098     315.359
  1622.900      75.522       2.639      10.738      15.717      53.919     117.119     171.221     123.959      65.463     219.406     314.830
  1623.000      77.413       2.640      10.711      15.732      53.965     116.797     170.537     124.419      67.252     218.205     314.301
  1623.100      79.562       2.639      10.708      15.749      54.006     116.482     169.847     124.631      68.594     217.704     313.850
