~Version Information

VERS.                     1.20: CWLS log ASCII Standard - VERSION  1.20

WRAP.                       NO: One line per depth step

~Well Information Block

#MNEM.UNIT           Data Type   Information

#컴컴컴컴컴        컴컴컴컴컴�   컴컴컴컴컴컴컴�

STRT.M               1500.000 :

STOP.M               2399.900 :

STEP.M                  0.100 :

NULL.                  -1.000 :

COMP.                  COMPANY:   

WELL.                     WELL:  A-6

FLD .                    FIELD:   

LOC .                 LOCATION:   

PROV.                 PROVINCE:  Nieznany

SRVC.          SERVICE COMPANY:  Zaklad Geofizyka Krakow   

DATE.                 LOG DATE:  Nieznany

UWI .           UNIQUE WELL ID:   

~Parameter  Information Block

#MNEM.UNIT             Value      Description

#컴컴컴컴컴        컴컴컴컴컴�   컴컴컴컴컴컴컴�

DD  .M                 -1.000 :  Depth Driller

DL  .M                 -1.000 :  Depth Logger

BS  .MM                   311 :  Bit Size

BS1 .                         :  Bit Size1

BS2 .                         :  Bit Size2

BS3 .                         :  Bit Size3

CBD .M                 -1.000 :  Casing Bottom Driller

CBL .M                 -1.000 :  Casing Bottom Logger

CSIZ.IN                       :  Casing Size

CSIN.MM                    -1 :  Internal Casing Size

CS1 .                         :  Casing Size 1

CS2 .                         :  Casing Size 2

CS3 .                         :  Casing Size 3

CAST.                         :  Casing Thickness

FD  .G/C3               1.230 :  Mud Fluid Density

DFTH.                         :  Drilling Fluid Thixotropy

DFL .C3                    -1 :  Mud Fluid Loss

DFV .S/1500C3              -1 :  Mud Fluid Viscosity

DFPH.                         :  Drilling Fluid Ph

SALI.G/L               19.800 :  Salinity of the Mud

RMS .OHMM               0.300 :  Resistivity of Mud Sample

MST .DEGC               8.000 :  Mud Sample Temperature

RMC .OHMM                     :  Mud Cake Resistivity

MCST.                         :  Mud Cake Sample Temperature

RMFS.                         :  Mud Filtrate Resistivity

MFST.                         :  Mud Filtrate Sample Temperature

MRT .                         :  Maximum Recorded Temperature

BHT .DEGC                     :  Bottom Hole Temperature

MST .                         :  Mean Surface Temperature

TGRD.                         :  Temperature Gradient

MDEN.                         :  Matrix Density

DTM .                         :  Delta-T Matrix

FDEN.                         :  Fluid Density

DTF .                         :  Delta-T Fluid

MATR.                         :  Matrix (0=LIME,1=SAND,2=DOLO)

FNUM.                         :  Tortuosity  Constant Archie's (a)

FEXP.                         :  Cementation Exponent Archie's (m)

SEXP.                         :  Saturation Exponent Archie's (n)

LATI.                         :  Latitude

LONG.                         :  Longitude

PDEV.M                 -1.000 :  Elevation of Permanent Datum

EGL .M                 -1.000 :  Elevation of Ground Level

EDF .M                        :  Elevation of Derrick Floor

EKB .M                 -1.000 :  Elevation of Kelly Bushing

~Curve Information

#MNEM.UNIT         API CODE      Opis krzywych

#컴컴컴컴컴        컴컴컴컴컴�   컴컴컴컴컴컴컴�

DEPT.M                       :   1    Glebokosc [m]

GR.API                        :   2    Prof.gamma naturalne PG

RHOB.G/C3                     :   3    Gestosc objet.PGGg[g/ccm]

NTCN.NPHI                     :   4    Prof.n-n termiczny PNNt

EN00.OHMM                     :   5    Sonda potencjalowa

EN01.OHMM                     :   6    Sonda potencjalowa

EL00.OHMM                     :   7    Sonda gradientowa

EL01.OHMM                     :   8    Sonda gradientowa

SP.MV                         :   9    Prof.potencj. naturalnych PS

LL3.OHMM                      :  10    Laterolog 3

DT.US/M                       :  11    Profilowanie akustyczne PAdt

CALI.MM                       :  12    Srednica otworu PSr[mm]

~A DEPTH       GR         RHOB        NTCN        EN00        EN01        EL00        EL01         SP         LL3          DT         CALI    
# ...
  2216.800      91.984       2.657       8.670      14.177      52.327     135.626     212.055     155.719     113.841     191.649     333.053
  2216.900      90.449       2.665       8.767      14.159      52.293     135.430     211.742     155.444     113.024     190.923     332.917
  2217.000      87.542       2.670       8.789      14.147      52.265     135.175     211.407     155.170     113.959     189.968     332.477
  2217.100      84.403       2.671       8.795      14.138      52.240     134.853     211.080     154.828     116.085     189.050     331.984
  2217.200      81.914       2.670       8.780      14.132      52.212     134.508     210.795     154.364     118.707     188.162     331.610
  2217.300      80.398       2.670       8.773      14.126      52.181     134.177     210.571     153.827     121.177     187.667     331.373
  2217.400      79.964       2.672       8.798      14.115      52.148     133.880     210.404     153.336     123.184     187.923     331.187
  2217.500      80.565       2.675       8.824      14.100      52.120     133.659     210.279     153.129     124.297     189.170     330.974
  2217.600      81.736       2.682       8.873      14.085      52.098     133.517     210.160     153.509     124.301     190.384     330.671
  2217.700      82.701       2.689       8.990      14.073      52.081     133.411     210.018     154.565     123.520     190.959     330.299
  2217.800      82.974       2.694       9.158      14.062      52.064     133.320     209.848     155.966     122.760     190.680     329.967
  2217.900      82.486       2.695       9.352      14.051      52.041     133.226     209.653     157.157     122.439     189.227     329.725
  2218.000      80.726       2.691       9.529      14.040      52.011     133.120     209.440     157.637     122.749     187.118     329.619
  2218.100      77.954       2.685       9.666      14.029      51.976     132.996     209.212     157.234     124.105     185.353     329.660
  2218.200      74.785       2.684       9.789      14.018      51.941     132.848     208.971     156.254     126.171     184.682     329.804
  2218.300      71.462       2.689       9.862      14.004      51.910     132.680     208.717     155.265     127.676     185.291     330.062
  2218.400      68.856       2.700       9.857      13.987      51.887     132.489     208.450     154.687     127.955     186.679     330.435
  2218.500      68.034       2.713       9.808      13.970      51.870     132.279     208.175     154.741     127.282     187.960     330.870
  2218.600      68.985       2.724       9.723      13.956      51.857     132.058     207.907     155.316     125.755     188.964     331.255
  2218.700      71.103       2.729       9.642      13.947      51.846     131.831     207.656     156.016     123.603     189.895     331.514
  2218.800      73.831       2.727       9.606      13.945      51.836     131.616     207.424     156.512     121.495     191.001     331.604
  2218.900      76.188       2.721       9.605      13.950      51.827     131.433     207.210     156.668     119.978     192.370     331.470
  2219.000      77.601       2.716       9.612      13.956      51.819     131.278     207.013     156.504     118.823     193.976     331.198
  2219.100      78.237       2.711       9.572      13.957      51.809     131.141     206.825     156.232     117.990     195.736     330.944
  2219.200      78.541       2.708       9.525      13.950      51.798     131.022     206.636     156.090     117.806     196.724     330.772
  2219.300      78.706       2.709       9.516      13.935      51.786     130.920     206.447     156.210     118.036     196.193     330.647
  2219.400      78.592       2.710       9.500      13.917      51.774     130.835     206.243     156.673     118.342     194.133     330.529
  2219.500      78.063       2.711       9.416      13.901      51.764     130.770     206.015     157.440     118.991     190.822     330.434
  2219.600      76.886       2.711       9.299      13.889      51.759     130.712     205.762     158.314     120.029     186.977     330.408
  2219.700      75.112       2.708       9.127      13.883      51.759     130.635     205.490     159.023     121.543     183.325     330.423
  2219.800      73.103       2.701       8.903      13.881      51.761     130.514     205.211     159.375     123.930     180.485     330.517
  2219.900      71.194       2.696       8.719      13.883      51.766     130.335     204.942     159.367     127.164     179.111     330.757
  2220.000      69.753       2.695       8.620      13.886      51.774     130.108     204.698     159.133     130.827     179.520     331.045
  2220.100      68.926       2.695       8.611      13.890      51.787     129.855     204.484     158.859     134.427     181.221     331.352
  2220.200      68.504       2.698       8.643      13.897      51.810     129.592     204.305     158.679     137.109     183.298     331.720
  2220.300      68.505       2.703       8.678      13.908      51.846     129.329     204.172     158.581     138.571     185.368     332.084
  2220.400      68.798       2.706       8.685      13.922      51.896     129.087     204.095     158.524     138.974     187.702     332.442
  2220.500      68.953       2.703       8.671      13.938      51.957     128.888     204.095     158.439     138.336     190.219     332.819
  2220.600      68.947       2.695       8.645      13.955      52.025     128.727     204.191     158.246     137.135     192.833     333.084
  2220.700      68.553       2.686       8.599      13.971      52.094     128.605     204.393     158.032     136.338     196.108     333.200
  2220.800      67.231       2.678       8.498      13.986      52.162     128.535     204.706     157.937     136.539     200.028     333.225
  2220.900      64.987       2.675       8.350      13.998      52.226     128.517     205.135     157.965     137.782     203.626     333.078
  2221.000      62.261       2.681       8.200      14.011      52.285     128.552     205.669     158.088     139.946     206.127     332.786
  2221.100      59.376       2.692       8.032      14.025      52.338     128.655     206.287     158.247     142.815     207.214     332.370
  2221.200      56.685       2.708       7.864      14.039      52.386     128.846     206.980     158.408     145.918     207.040     331.708
  2221.300      54.599       2.721       7.944      14.054      52.427     129.127     207.737     158.665     148.768     205.820     330.859
  2221.400      53.166       2.727       7.785      14.068      52.461     129.486     208.539     159.109     151.134     203.037     329.929
  2221.500      52.199       2.728       7.602      14.080      52.490     129.911     209.368     159.781     153.573     198.932     328.954
  2221.600      51.730       2.730       7.442      14.089      52.516     130.403     210.189     160.597     156.782     194.618     328.058
  2221.700      51.857       2.733       7.235      14.096      52.540     130.947     210.974     161.249     159.439     189.925     327.325
  2221.800      52.147       2.736       6.959      14.100      52.560     131.501     211.674     161.431     159.853     184.833     326.694
  2221.900      52.067       2.741       6.678      14.100      52.577     132.026     212.264     161.084     158.743     180.503     326.206
  2222.000      51.514       2.744       6.411      14.098      52.588     132.481     212.737     160.362     157.077     177.169     325.888
  2222.100      50.320       2.743       6.186      14.092      52.594     132.853     213.089     159.570     154.175     174.689     325.691
  2222.200      48.465       2.742       6.071      14.085      52.597     133.147     213.324     158.939     150.847     173.659     325.653
  2222.300      46.782       2.742       6.106      14.079      52.600     133.377     213.441     158.614     148.776     173.911     325.793
