~Version Information

VERS.                     1.20: CWLS log ASCII Standard - VERSION  1.20

WRAP.                       NO: One line per depth step

~Well Information Block

#MNEM.UNIT           Data Type   Information

#컴컴컴컴컴        컴컴컴컴컴�   컴컴컴컴컴컴컴�

STRT.M               1500.000 :

STOP.M               2399.900 :

STEP.M                  0.100 :

NULL.                  -1.000 :

COMP.                  COMPANY:   

WELL.                     WELL:  A-6

FLD .                    FIELD:   

LOC .                 LOCATION:   

PROV.                 PROVINCE:  Nieznany

SRVC.          SERVICE COMPANY:  Zaklad Geofizyka Krakow   

DATE.                 LOG DATE:  Nieznany

UWI .           UNIQUE WELL ID:   

~Parameter  Information Block

#MNEM.UNIT             Value      Description

#컴컴컴컴컴        컴컴컴컴컴�   컴컴컴컴컴컴컴�

DD  .M                 -1.000 :  Depth Driller

DL  .M                 -1.000 :  Depth Logger

BS  .MM                   311 :  Bit Size

BS1 .                         :  Bit Size1

BS2 .                         :  Bit Size2

BS3 .                         :  Bit Size3

CBD .M                 -1.000 :  Casing Bottom Driller

CBL .M                 -1.000 :  Casing Bottom Logger

CSIZ.IN                       :  Casing Size

CSIN.MM                    -1 :  Internal Casing Size

CS1 .                         :  Casing Size 1

CS2 .                         :  Casing Size 2

CS3 .                         :  Casing Size 3

CAST.                         :  Casing Thickness

FD  .G/C3               1.230 :  Mud Fluid Density

DFTH.                         :  Drilling Fluid Thixotropy

DFL .C3                    -1 :  Mud Fluid Loss

DFV .S/1500C3              -1 :  Mud Fluid Viscosity

DFPH.                         :  Drilling Fluid Ph

SALI.G/L               19.800 :  Salinity of the Mud

RMS .OHMM               0.300 :  Resistivity of Mud Sample

MST .DEGC               8.000 :  Mud Sample Temperature

RMC .OHMM                     :  Mud Cake Resistivity

MCST.                         :  Mud Cake Sample Temperature

RMFS.                         :  Mud Filtrate Resistivity

MFST.                         :  Mud Filtrate Sample Temperature

MRT .                         :  Maximum Recorded Temperature

BHT .DEGC                     :  Bottom Hole Temperature

MST .                         :  Mean Surface Temperature

TGRD.                         :  Temperature Gradient

MDEN.                         :  Matrix Density

DTM .                         :  Delta-T Matrix

FDEN.                         :  Fluid Density

DTF .                         :  Delta-T Fluid

MATR.                         :  Matrix (0=LIME,1=SAND,2=DOLO)

FNUM.                         :  Tortuosity  Constant Archie's (a)

FEXP.                         :  Cementation Exponent Archie's (m)

SEXP.                         :  Saturation Exponent Archie's (n)

LATI.                         :  Latitude

LONG.                         :  Longitude

PDEV.M                 -1.000 :  Elevation of Permanent Datum

EGL .M                 -1.000 :  Elevation of Ground Level

EDF .M                        :  Elevation of Derrick Floor

EKB .M                 -1.000 :  Elevation of Kelly Bushing

~Curve Information

#MNEM.UNIT         API CODE      Opis krzywych

#컴컴컴컴컴        컴컴컴컴컴�   컴컴컴컴컴컴컴�

DEPT.M                       :   1    Glebokosc [m]

GR.API                        :   2    Prof.gamma naturalne PG

RHOB.G/C3                     :   3    Gestosc objet.PGGg[g/ccm]

NTCN.NPHI                     :   4    Prof.n-n termiczny PNNt

EN00.OHMM                     :   5    Sonda potencjalowa

EN01.OHMM                     :   6    Sonda potencjalowa

EL00.OHMM                     :   7    Sonda gradientowa

EL01.OHMM                     :   8    Sonda gradientowa

SP.MV                         :   9    Prof.potencj. naturalnych PS

LL3.OHMM                      :  10    Laterolog 3

DT.US/M                       :  11    Profilowanie akustyczne PAdt

CALI.MM                       :  12    Srednica otworu PSr[mm]

~A DEPTH       GR         RHOB        NTCN        EN00        EN01        EL00        EL01         SP         LL3          DT         CALI    
# ...
  2037.600     118.104       2.386      34.942       2.477       4.683       6.360       6.493     168.666       3.709     365.996     358.389
  2037.700     118.002       2.389      35.696       2.475       4.719       6.412       6.533     168.525       3.686     366.656     358.133
  2037.800     118.704       2.394      36.705       2.476       4.756       6.442       6.566     168.255       3.679     368.993     358.671
  2037.900     119.742       2.400      37.638       2.480       4.794       6.460       6.594     167.924       3.691     373.301     359.777
  2038.000     120.549       2.407      37.698       2.488       4.832       6.468       6.617     167.553       3.723     378.994     361.443
  2038.100     121.270       2.413      36.834       2.496       4.867       6.470       6.635     167.090       3.775     384.979     363.140
  2038.200     121.534       2.417      35.935       2.503       4.899       6.474       6.649     166.488       3.841     390.344     363.836
  2038.300     120.747       2.419      35.216       2.509       4.928       6.472       6.663     165.787       3.902     394.586     362.956
  2038.400     119.061       2.416      34.418       2.517       4.955       6.467       6.676     165.082       3.940     397.569     360.519
  2038.500     117.350       2.412      33.829       2.528       4.984       6.461       6.692     164.528       3.963     399.787     357.016
  2038.600     115.736       2.409      33.702       2.541       5.015       6.447       6.712     164.303       3.976     401.930     353.340
  2038.700     114.423       2.411      33.557       2.555       5.050       6.438       6.737     164.450       3.975     403.844     350.094
  2038.800     113.630       2.417      33.250       2.571       5.086       6.438       6.766     164.886       3.968     405.254     347.668
  2038.900     112.279       2.426      32.945       2.587       5.119       6.451       6.801     165.488       3.971     405.554     346.150
  2039.000     109.429       2.435      32.701       2.601       5.147       6.478       6.842     166.151       3.992     403.810     345.306
  2039.100     105.065       2.441      32.589       2.614       5.168       6.511       6.889     166.844       4.034     399.708     345.212
  2039.200      99.039       2.440      32.682       2.628       5.180       6.551       6.942     167.564       4.072     393.666     345.973
  2039.300      92.355       2.434      32.863       2.644       5.185       6.595       6.999     168.234       4.112     385.847     347.518
  2039.400      86.496       2.427      32.877       2.661       5.186       6.634       7.058     168.700       4.158     376.770     349.592
  2039.500      81.726       2.421      32.685       2.680       5.185       6.672       7.114     168.731       4.178     367.132     351.605
  2039.600      78.299       2.417      32.349       2.700       5.183       6.718       7.166     168.177       4.173     357.942     352.806
  2039.700      76.404       2.416      32.024       2.718       5.183       6.766       7.210     167.130       4.162     349.687     352.826
  2039.800      75.238       2.418      31.933       2.733       5.185       6.824       7.244     165.867       4.136     344.464     351.716
  2039.900      74.375       2.426      32.108       2.742       5.192       6.895       7.269     164.752       4.107     343.247     349.868
  2040.000      73.604       2.436      32.109       2.746       5.203       6.965       7.285     164.121       4.117     343.341     347.760
  2040.100      72.360       2.446      31.370       2.749       5.221       7.020       7.291     163.974       4.182     343.776     345.772
  2040.200      71.223       2.455      29.987       2.750       5.243       7.045       7.288     163.990       4.286     343.452     344.330
  2040.300      70.286       2.458      28.526       2.753       5.267       7.037       7.279     163.897       4.396     340.370     343.455
  2040.400      69.327       2.455      27.373       2.760       5.290       7.006       7.268     163.638       4.488     334.909     342.877
  2040.500      69.021       2.450      26.710       2.776       5.308       6.965       7.260     163.267       4.545     329.659     342.522
  2040.600      69.158       2.445      26.649       2.797       5.320       6.927       7.261     162.985       4.539     325.190     342.297
  2040.700      69.248       2.439      27.095       2.826       5.325       6.899       7.277     163.018       4.467     322.337     342.241
  2040.800      69.604       2.436      27.672       2.859       5.323       6.883       7.311     163.403       4.374     320.082     342.710
  2040.900      69.836       2.438      28.093       2.888       5.314       6.883       7.366     164.052       4.284     316.246     343.663
  2041.000      69.656       2.443      28.352       2.908       5.300       6.902       7.438     164.880       4.221     310.182     345.008
  2041.100      70.047       2.453      28.612       2.918       5.279       6.941       7.524     165.831       4.206     300.649     346.683
  2041.200      70.991       2.464      28.932       2.915       5.253       7.010       7.618     166.834       4.228     288.553     348.280
  2041.300      71.938       2.466      29.288       2.902       5.223       7.119       7.713     167.717       4.250     277.101     349.509
  2041.400      73.190       2.459      29.693       2.885       5.189       7.244       7.803     168.211       4.268     269.955     350.313
  2041.500      74.423       2.445      29.934       2.867       5.151       7.376       7.882     168.089       4.245     270.006     350.549
  2041.600      74.838       2.429      29.865       2.853       5.107       7.519       7.945     167.343       4.167     277.387     350.159
  2041.700      74.392       2.421      29.585       2.846       5.054       7.648       7.990     166.234       4.097     290.644     349.241
  2041.800      73.171       2.428      29.300       2.842       4.991       7.744       8.013     165.135       4.092     306.329     347.868
  2041.900      71.317       2.449      29.452       2.843       4.918       7.805       8.017     164.329       4.127     319.626     346.325
  2042.000      69.743       2.481      30.162       2.846       4.840       7.837       8.002     163.939       4.192     327.631     345.057
  2042.100      69.103       2.511      31.275       2.847       4.762       7.845       7.971     163.877       4.281     330.472     344.502
  2042.200      69.661       2.528      32.647       2.847       4.686       7.837       7.923     163.923       4.335     329.449     344.651
  2042.300      71.531       2.525      33.627       2.843       4.617       7.817       7.860     163.957       4.307     326.538     344.951
  2042.400      74.579       2.503      33.618       2.835       4.560       7.790       7.778     163.971       4.216     323.765     345.073
  2042.500      78.264       2.472      32.759       2.823       4.516       7.755       7.678     163.950       4.085     322.636     344.836
  2042.600      81.555       2.440      31.272       2.810       4.484       7.699       7.558     163.880       3.931     324.523     344.035
  2042.700      83.801       2.417      29.792       2.794       4.467       7.627       7.417     163.739       3.789     328.241     342.812
  2042.800      84.834       2.404      29.032       2.776       4.462       7.548       7.257     163.495       3.680     332.712     341.538
  2042.900      84.620       2.399      28.933       2.756       4.471       7.462       7.079     163.238       3.605     337.934     340.379
  2043.000      83.577       2.399      29.379       2.732       4.495       7.353       6.885     163.152       3.558     342.693     339.284
  2043.100      82.675       2.401      30.095       2.707       4.533       7.211       6.677     163.344       3.540     346.176     338.141
