~Version Information

VERS.                     1.20: CWLS log ASCII Standard - VERSION  1.20

WRAP.                       NO: One line per depth step

~Well Information Block

#MNEM.UNIT           Data Type   Information

#컴컴컴컴컴        컴컴컴컴컴�   컴컴컴컴컴컴컴�

STRT.M               1500.000 :

STOP.M               2399.900 :

STEP.M                  0.100 :

NULL.                  -1.000 :

COMP.                  COMPANY:   

WELL.                     WELL:  A-6

FLD .                    FIELD:   

LOC .                 LOCATION:   

PROV.                 PROVINCE:  Nieznany

SRVC.          SERVICE COMPANY:  Zaklad Geofizyka Krakow   

DATE.                 LOG DATE:  Nieznany

UWI .           UNIQUE WELL ID:   

~Parameter  Information Block

#MNEM.UNIT             Value      Description

#컴컴컴컴컴        컴컴컴컴컴�   컴컴컴컴컴컴컴�

DD  .M                 -1.000 :  Depth Driller

DL  .M                 -1.000 :  Depth Logger

BS  .MM                   311 :  Bit Size

BS1 .                         :  Bit Size1

BS2 .                         :  Bit Size2

BS3 .                         :  Bit Size3

CBD .M                 -1.000 :  Casing Bottom Driller

CBL .M                 -1.000 :  Casing Bottom Logger

CSIZ.IN                       :  Casing Size

CSIN.MM                    -1 :  Internal Casing Size

CS1 .                         :  Casing Size 1

CS2 .                         :  Casing Size 2

CS3 .                         :  Casing Size 3

CAST.                         :  Casing Thickness

FD  .G/C3               1.230 :  Mud Fluid Density

DFTH.                         :  Drilling Fluid Thixotropy

DFL .C3                    -1 :  Mud Fluid Loss

DFV .S/1500C3              -1 :  Mud Fluid Viscosity

DFPH.                         :  Drilling Fluid Ph

SALI.G/L               19.800 :  Salinity of the Mud

RMS .OHMM               0.300 :  Resistivity of Mud Sample

MST .DEGC               8.000 :  Mud Sample Temperature

RMC .OHMM                     :  Mud Cake Resistivity

MCST.                         :  Mud Cake Sample Temperature

RMFS.                         :  Mud Filtrate Resistivity

MFST.                         :  Mud Filtrate Sample Temperature

MRT .                         :  Maximum Recorded Temperature

BHT .DEGC                     :  Bottom Hole Temperature

MST .                         :  Mean Surface Temperature

TGRD.                         :  Temperature Gradient

MDEN.                         :  Matrix Density

DTM .                         :  Delta-T Matrix

FDEN.                         :  Fluid Density

DTF .                         :  Delta-T Fluid

MATR.                         :  Matrix (0=LIME,1=SAND,2=DOLO)

FNUM.                         :  Tortuosity  Constant Archie's (a)

FEXP.                         :  Cementation Exponent Archie's (m)

SEXP.                         :  Saturation Exponent Archie's (n)

LATI.                         :  Latitude

LONG.                         :  Longitude

PDEV.M                 -1.000 :  Elevation of Permanent Datum

EGL .M                 -1.000 :  Elevation of Ground Level

EDF .M                        :  Elevation of Derrick Floor

EKB .M                 -1.000 :  Elevation of Kelly Bushing

~Curve Information

#MNEM.UNIT         API CODE      Opis krzywych

#컴컴컴컴컴        컴컴컴컴컴�   컴컴컴컴컴컴컴�

DEPT.M                       :   1    Glebokosc [m]

GR.API                        :   2    Prof.gamma naturalne PG

RHOB.G/C3                     :   3    Gestosc objet.PGGg[g/ccm]

NTCN.NPHI                     :   4    Prof.n-n termiczny PNNt

EN00.OHMM                     :   5    Sonda potencjalowa

EN01.OHMM                     :   6    Sonda potencjalowa

EL00.OHMM                     :   7    Sonda gradientowa

EL01.OHMM                     :   8    Sonda gradientowa

SP.MV                         :   9    Prof.potencj. naturalnych PS

LL3.OHMM                      :  10    Laterolog 3

DT.US/M                       :  11    Profilowanie akustyczne PAdt

CALI.MM                       :  12    Srednica otworu PSr[mm]

~A DEPTH       GR         RHOB        NTCN        EN00        EN01        EL00        EL01         SP         LL3          DT         CALI    
# ...
  2155.200      85.656       2.679       8.299      11.524      42.482      92.331     138.210     154.899      97.480     194.043     361.958
  2155.300      87.477       2.679       8.129      11.569      42.629      92.379     138.619     155.878      98.957     196.473     361.213
  2155.400      90.355       2.680       8.052      11.609      42.780      92.550     139.137     156.947      99.623     197.976     360.557
  2155.500      93.486       2.684       8.087      11.645      42.931      92.841     139.738     157.680      99.979     197.910     359.982
  2155.600      95.965       2.686       8.164      11.680      43.082      93.231     140.404     157.887     100.430     196.619     359.457
  2155.700      97.074       2.686       8.215      11.720      43.233      93.677     141.117     157.579     100.921     194.824     358.981
  2155.800      96.403       2.682       8.199      11.763      43.380      94.153     141.859     156.959     100.937     193.043     358.585
  2155.900      94.249       2.680       8.054      11.811      43.522      94.639     142.626     156.340     100.310     191.722     358.255
  2156.000      91.571       2.680       7.789      11.863      43.661      95.125     143.414     155.917      99.375     191.025     357.964
  2156.100      89.057       2.683       7.498      11.915      43.796      95.624     144.231     155.762      98.646     190.847     357.743
  2156.200      87.377       2.688       7.418      11.963      43.927      96.141     145.073     155.818      98.552     191.315     357.573
  2156.300      87.043       2.694       7.266      12.006      44.058      96.689     145.930     155.825      99.373     193.220     357.418
  2156.400      87.505       2.698       7.248      12.043      44.188      97.290     146.794     155.529     101.122     197.462     357.304
  2156.500      87.962       2.698       7.361      12.077      44.318      97.932     147.643     154.942     103.262     204.247     357.279
  2156.600      88.459       2.698       7.606      12.110      44.450      98.603     148.445     154.231     105.168     212.579     357.335
  2156.700      89.087       2.695       7.613      12.145      44.584      99.275     149.184     153.546     106.689     219.801     357.494
  2156.800      89.564       2.693       7.765      12.185      44.723      99.906     149.847     153.028     107.990     223.316     357.831
  2156.900      89.765       2.692       7.920      12.229      44.869     100.465     150.430     152.785     109.121     221.840     358.326
  2157.000      89.675       2.691       8.042      12.273      45.019     100.913     150.943     152.839     110.141     215.421     358.874
  2157.100      89.181       2.691       8.085      12.316      45.172     101.246     151.409     153.164     111.162     206.217     359.382
  2157.200      88.300       2.692       8.131      12.355      45.326     101.493     151.849     153.788     112.241     197.457     359.800
  2157.300      87.246       2.691       8.186      12.392      45.477     101.675     152.285     154.682     113.262     191.226     360.084
  2157.400      86.798       2.689       8.210      12.429      45.625     101.822     152.750     155.661     113.977     188.191     360.231
  2157.500      87.430       2.688       8.232      12.471      45.773     101.986     153.252     156.348     114.189     188.052     360.337
  2157.600      88.754       2.686       8.212      12.517      45.924     102.186     153.801     156.358     113.969     189.432     360.475
  2157.700      90.756       2.687       8.098      12.567      46.079     102.432     154.403     155.511     113.630     191.201     360.658
  2157.800      93.084       2.688       7.954      12.619      46.241     102.738     155.044     154.046     113.400     192.757     360.927
  2157.900      94.647       2.690       7.798      12.667      46.410     103.094     155.711     152.549     113.362     193.682     361.337
  2158.000      95.292       2.693       7.671      12.711      46.584     103.478     156.378     151.494     113.522     193.878     361.908
  2158.100      95.220       2.696       7.600      12.752      46.759     103.877     157.037     151.057     113.743     193.442     362.615
  2158.200      94.114       2.696       7.576      12.791      46.932     104.278     157.674     151.257     113.692     192.626     363.258
  2158.300      92.430       2.694       7.576      12.826      47.102     104.659     158.277     151.855     113.093     191.686     363.579
  2158.400      91.101       2.690       7.571      12.861      47.265     105.019     158.851     152.489     112.014     190.771     363.475
  2158.500      90.150       2.686       7.543      12.894      47.424     105.358     159.401     153.032     110.721     189.973     362.938
  2158.600      89.384       2.683       7.513      12.923      47.581     105.665     159.931     153.450     109.298     189.342     362.082
  2158.700      89.075       2.683       7.509      12.952      47.734     105.947     160.453     153.624     107.819     188.823     361.170
  2158.800      89.322       2.684       7.538      12.983      47.885     106.219     160.988     153.490     106.612     188.294     360.380
  2158.900      89.875       2.687       7.585      13.017      48.035     106.477     161.533     153.133     105.967     187.678     359.786
  2159.000      90.659       2.688       7.607      13.055      48.184     106.731     162.084     152.784     105.806     186.908     359.403
  2159.100      91.986       2.687       7.631      13.098      48.334     106.984     162.621     152.674     105.803     185.892     359.098
  2159.200      93.483       2.685       7.652      13.147      48.486     107.237     163.128     152.986     105.736     184.622     358.769
  2159.300      94.466       2.683       7.664      13.199      48.640     107.500     163.594     153.720     105.514     183.205     358.445
  2159.400      94.958       2.679       7.693      13.247      48.800     107.772     164.019     154.573     105.199     181.711     358.079
  2159.500      94.848       2.676       7.724      13.292      48.966     108.040     164.396     155.182     104.961     180.232     357.640
  2159.600      94.321       2.674       7.720      13.329      49.137     108.299     164.725     155.382     104.853     179.127     357.157
  2159.700      94.316       2.675       7.682      13.357      49.315     108.539     165.014     155.204     104.848     178.815     356.604
  2159.800      95.019       2.678       7.643      13.383      49.498     108.750     165.261     154.853     104.822     179.733     355.941
  2159.900      95.879       2.683       7.653      13.412      49.683     108.932     165.471     154.498     104.561     182.455     355.168
  2160.000      97.233       2.689       7.762      13.445      49.872     109.082     165.657     154.153     104.116     186.857     354.419
  2160.100      98.973       2.693       7.977      13.484      50.064     109.206     165.834     153.814     103.747     192.031     354.008
  2160.200     100.516       2.695       8.251      13.526      50.258     109.314     166.027     153.462     103.621     196.868     354.213
  2160.300     101.929       2.696       8.497      13.568      50.452     109.407     166.266     153.065     103.718     200.039     355.123
  2160.400     102.779       2.694       8.654      13.607      50.646     109.496     166.575     152.764     103.995     200.753     356.562
  2160.500     102.897       2.691       8.695      13.642      50.836     109.607     166.973     152.706     104.362     199.458     358.094
  2160.600     102.349       2.688       8.643      13.675      51.017     109.760     167.462     152.798     104.772     197.115     359.197
  2160.700     100.622       2.684       8.546      13.709      51.190     109.975     168.041     152.871     105.212     194.687     359.559
