~Version Information

VERS.                     1.20: CWLS log ASCII Standard - VERSION  1.20

WRAP.                       NO: One line per depth step

~Well Information Block

#MNEM.UNIT           Data Type   Information

#컴컴컴컴컴        컴컴컴컴컴�   컴컴컴컴컴컴컴�

STRT.M               1500.000 :

STOP.M               2399.900 :

STEP.M                  0.100 :

NULL.                  -1.000 :

COMP.                  COMPANY:   

WELL.                     WELL:  A-6

FLD .                    FIELD:   

LOC .                 LOCATION:   

PROV.                 PROVINCE:  Nieznany

SRVC.          SERVICE COMPANY:  Zaklad Geofizyka Krakow   

DATE.                 LOG DATE:  Nieznany

UWI .           UNIQUE WELL ID:   

~Parameter  Information Block

#MNEM.UNIT             Value      Description

#컴컴컴컴컴        컴컴컴컴컴�   컴컴컴컴컴컴컴�

DD  .M                 -1.000 :  Depth Driller

DL  .M                 -1.000 :  Depth Logger

BS  .MM                   311 :  Bit Size

BS1 .                         :  Bit Size1

BS2 .                         :  Bit Size2

BS3 .                         :  Bit Size3

CBD .M                 -1.000 :  Casing Bottom Driller

CBL .M                 -1.000 :  Casing Bottom Logger

CSIZ.IN                       :  Casing Size

CSIN.MM                    -1 :  Internal Casing Size

CS1 .                         :  Casing Size 1

CS2 .                         :  Casing Size 2

CS3 .                         :  Casing Size 3

CAST.                         :  Casing Thickness

FD  .G/C3               1.230 :  Mud Fluid Density

DFTH.                         :  Drilling Fluid Thixotropy

DFL .C3                    -1 :  Mud Fluid Loss

DFV .S/1500C3              -1 :  Mud Fluid Viscosity

DFPH.                         :  Drilling Fluid Ph

SALI.G/L               19.800 :  Salinity of the Mud

RMS .OHMM               0.300 :  Resistivity of Mud Sample

MST .DEGC               8.000 :  Mud Sample Temperature

RMC .OHMM                     :  Mud Cake Resistivity

MCST.                         :  Mud Cake Sample Temperature

RMFS.                         :  Mud Filtrate Resistivity

MFST.                         :  Mud Filtrate Sample Temperature

MRT .                         :  Maximum Recorded Temperature

BHT .DEGC                     :  Bottom Hole Temperature

MST .                         :  Mean Surface Temperature

TGRD.                         :  Temperature Gradient

MDEN.                         :  Matrix Density

DTM .                         :  Delta-T Matrix

FDEN.                         :  Fluid Density

DTF .                         :  Delta-T Fluid

MATR.                         :  Matrix (0=LIME,1=SAND,2=DOLO)

FNUM.                         :  Tortuosity  Constant Archie's (a)

FEXP.                         :  Cementation Exponent Archie's (m)

SEXP.                         :  Saturation Exponent Archie's (n)

LATI.                         :  Latitude

LONG.                         :  Longitude

PDEV.M                 -1.000 :  Elevation of Permanent Datum

EGL .M                 -1.000 :  Elevation of Ground Level

EDF .M                        :  Elevation of Derrick Floor

EKB .M                 -1.000 :  Elevation of Kelly Bushing

~Curve Information

#MNEM.UNIT         API CODE      Opis krzywych

#컴컴컴컴컴        컴컴컴컴컴�   컴컴컴컴컴컴컴�

DEPT.M                       :   1    Glebokosc [m]

GR.API                        :   2    Prof.gamma naturalne PG

RHOB.G/C3                     :   3    Gestosc objet.PGGg[g/ccm]

NTCN.NPHI                     :   4    Prof.n-n termiczny PNNt

EN00.OHMM                     :   5    Sonda potencjalowa

EN01.OHMM                     :   6    Sonda potencjalowa

EL00.OHMM                     :   7    Sonda gradientowa

EL01.OHMM                     :   8    Sonda gradientowa

SP.MV                         :   9    Prof.potencj. naturalnych PS

LL3.OHMM                      :  10    Laterolog 3

DT.US/M                       :  11    Profilowanie akustyczne PAdt

CALI.MM                       :  12    Srednica otworu PSr[mm]

~A DEPTH       GR         RHOB        NTCN        EN00        EN01        EL00        EL01         SP         LL3          DT         CALI    
# ...
  1920.000      82.225       2.667      13.628       7.996      23.176      35.858      37.459     144.904      16.682     224.754     335.618
  1920.100      83.239       2.656      13.907       8.023      23.210      35.605      37.324     145.588      16.646     227.118     334.133
  1920.200      85.018       2.644      14.184       8.050      23.248      35.340      37.228     146.732      16.752     227.942     331.900
  1920.300      87.172       2.637      14.415       8.076      23.295      35.102      37.174     148.426      17.023     227.727     329.390
  1920.400      89.090       2.636      14.511       8.100      23.352      34.927      37.156     150.165      17.350     226.876     326.929
  1920.500      90.120       2.638      14.490       8.121      23.415      34.815      37.171     151.368      17.651     225.145     324.827
  1920.600      90.088       2.643      14.445       8.132      23.481      34.777      37.210     151.604      17.953     223.152     323.116
  1920.700      89.206       2.647      14.441       8.136      23.542      34.836      37.258     150.762      18.236     221.283     321.767
  1920.800      87.975       2.650      14.508       8.135      23.593      34.975      37.301     149.261      18.416     219.032     320.872
  1920.900      87.046       2.654      14.622       8.130      23.632      35.167      37.325     147.717      18.475     216.941     320.364
  1921.000      86.891       2.659      14.705       8.126      23.653      35.392      37.319     146.702      18.434     216.123     320.158
  1921.100      87.285       2.666      14.769       8.131      23.652      35.607      37.281     146.522      18.326     217.167     320.250
  1921.200      87.554       2.674      14.854       8.141      23.631      35.777      37.214     147.055      18.210     220.315     320.422
  1921.300      87.683       2.678      14.986       8.154      23.599      35.897      37.124     147.936      18.128     225.317     320.351
  1921.400      87.514       2.678      15.241       8.167      23.563      35.968      37.014     148.853      18.043     231.533     320.074
  1921.500      86.650       2.674      15.697       8.178      23.538      36.003      36.883     149.554      17.902     238.314     319.867
  1921.600      85.436       2.665      16.309       8.186      23.536      36.018      36.731     149.892      17.692     245.368     319.938
  1921.700      84.057       2.652      17.012       8.190      23.565      36.007      36.560     149.949      17.461     251.823     320.616
  1921.800      82.315       2.636      17.781       8.190      23.630      35.972      36.367     149.918      17.285     255.807     322.243
  1921.900      80.691       2.617      18.340       8.185      23.728      35.907      36.153     149.994      17.168     255.679     324.932
  1922.000      79.641       2.597      18.500       8.178      23.849      35.782      35.919     150.307      17.028     250.633     328.861
  1922.100      78.853       2.580      18.284       8.168      23.986      35.584      35.662     150.956      16.883     241.021     334.017
  1922.200      78.459       2.573      17.715       8.159      24.132      35.315      35.387     151.989      16.865     229.180     339.823
  1922.300      78.841       2.575      16.973       8.154      24.280      34.977      35.103     153.258      16.965     218.107     345.441
  1922.400      79.534       2.579      16.400       8.155      24.426      34.593      34.824     154.437      17.082     209.217     350.012
  1922.500      80.140       2.580      15.963       8.165      24.571      34.197      34.566     155.243      17.270     203.237     352.955
  1922.600      80.908       2.581      15.561       8.181      24.712      33.804      34.349     155.487      17.533     200.288     354.289
  1922.700      81.723       2.580      15.322       8.198      24.845      33.439      34.187     155.132      17.700     199.538     354.622
  1922.800      82.273       2.580      15.281       8.211      24.966      33.131      34.094     154.423      17.714     200.639     354.434
  1922.900      82.807       2.586      15.506       8.218      25.070      32.903      34.076     153.693      17.703     203.879     353.717
  1923.000      83.621       2.598      16.032       8.218      25.156      32.787      34.133     153.221      17.744     209.060     352.245
  1923.100      84.416       2.615      16.691       8.215      25.222      32.793      34.261     153.202      17.758     215.405     349.771
  1923.200      85.225       2.629      17.263       8.213      25.269      32.916      34.453     153.616      17.637     221.660     346.373
  1923.300      86.005       2.637      17.589       8.212      25.294      33.148      34.701     154.319      17.414     227.042     342.363
  1923.400      86.313       2.636      17.590       8.210      25.293      33.473      35.002     155.265      17.173     231.886     338.087
  1923.500      86.139       2.630      17.359       8.203      25.261      33.871      35.347     156.357      16.921     236.038     333.994
  1923.600      85.860       2.620      17.102       8.190      25.199      34.340      35.729     157.334      16.758     239.446     330.405
  1923.700      85.825       2.613      16.929       8.174      25.114      34.865      36.136     158.006      16.796     241.881     327.302
  1923.800      85.727       2.609      16.819       8.158      25.013      35.424      36.548     158.339      17.007     241.705     324.844
  1923.900      85.638       2.610      16.676       8.143      24.900      35.986      36.951     158.454      17.310     238.425     323.808
  1924.000      85.782       2.620      16.590       8.131      24.779      36.519      37.333     158.643      17.547     233.991     324.412
  1924.100      85.940       2.630      16.651       8.118      24.651      37.018      37.693     159.226      17.616     229.800     325.946
  1924.200      86.131       2.637      16.731       8.100      24.521      37.474      38.031     160.349      17.625     227.225     327.745
  1924.300      86.777       2.640      16.759       8.078      24.393      37.893      38.349     161.827      17.650     227.941     329.274
  1924.400      87.810       2.637      16.705       8.052      24.272      38.277      38.654     163.168      17.547     230.831     330.136
  1924.500      88.438       2.627      16.475       8.027      24.159      38.603      38.955     163.906      17.269     234.262     330.491
  1924.600      88.819       2.615      16.031       8.005      24.045      38.851      39.262     163.831      16.875     237.617     330.774
  1924.700      89.228       2.604      15.447       7.986      23.919      39.025      39.589     162.999      16.377     240.477     331.158
  1924.800      89.702       2.594      14.913       7.969      23.768      39.152      39.951     161.784      15.779     243.021     331.434
  1924.900      90.355       2.589      14.581       7.952      23.586      39.282      40.350     160.674      15.306     245.122     331.071
  1925.000      91.174       2.594      14.467       7.934      23.378      39.481      40.789     159.970      15.105     246.353     329.761
  1925.100      91.704       2.609      14.619       7.918      23.157      39.800      41.249     159.791      15.140     246.900     327.532
  1925.200      91.278       2.631      15.030       7.900      22.939      40.255      41.707     160.038      15.296     246.984     324.716
  1925.300      90.335       2.647      15.606       7.876      22.740      40.828      42.134     160.411      15.486     246.173     321.999
  1925.400      89.371       2.642      16.356       7.841      22.564      41.480      42.505     160.684      15.533     245.011     320.000
  1925.500      88.424       2.610      17.270       7.791      22.410      42.151      42.793     160.808      15.464     243.729     318.751
