~Version Information

VERS.                     1.20: CWLS log ASCII Standard - VERSION  1.20

WRAP.                       NO: One line per depth step

~Well Information Block

#MNEM.UNIT           Data Type   Information

#컴컴컴컴컴        컴컴컴컴컴�   컴컴컴컴컴컴컴�

STRT.M               1500.000 :

STOP.M               2399.900 :

STEP.M                  0.100 :

NULL.                  -1.000 :

COMP.                  COMPANY:   

WELL.                     WELL:  A-6

FLD .                    FIELD:   

LOC .                 LOCATION:   

PROV.                 PROVINCE:  Nieznany

SRVC.          SERVICE COMPANY:  Zaklad Geofizyka Krakow   

DATE.                 LOG DATE:  Nieznany

UWI .           UNIQUE WELL ID:   

~Parameter  Information Block

#MNEM.UNIT             Value      Description

#컴컴컴컴컴        컴컴컴컴컴�   컴컴컴컴컴컴컴�

DD  .M                 -1.000 :  Depth Driller

DL  .M                 -1.000 :  Depth Logger

BS  .MM                   311 :  Bit Size

BS1 .                         :  Bit Size1

BS2 .                         :  Bit Size2

BS3 .                         :  Bit Size3

CBD .M                 -1.000 :  Casing Bottom Driller

CBL .M                 -1.000 :  Casing Bottom Logger

CSIZ.IN                       :  Casing Size

CSIN.MM                    -1 :  Internal Casing Size

CS1 .                         :  Casing Size 1

CS2 .                         :  Casing Size 2

CS3 .                         :  Casing Size 3

CAST.                         :  Casing Thickness

FD  .G/C3               1.230 :  Mud Fluid Density

DFTH.                         :  Drilling Fluid Thixotropy

DFL .C3                    -1 :  Mud Fluid Loss

DFV .S/1500C3              -1 :  Mud Fluid Viscosity

DFPH.                         :  Drilling Fluid Ph

SALI.G/L               19.800 :  Salinity of the Mud

RMS .OHMM               0.300 :  Resistivity of Mud Sample

MST .DEGC               8.000 :  Mud Sample Temperature

RMC .OHMM                     :  Mud Cake Resistivity

MCST.                         :  Mud Cake Sample Temperature

RMFS.                         :  Mud Filtrate Resistivity

MFST.                         :  Mud Filtrate Sample Temperature

MRT .                         :  Maximum Recorded Temperature

BHT .DEGC                     :  Bottom Hole Temperature

MST .                         :  Mean Surface Temperature

TGRD.                         :  Temperature Gradient

MDEN.                         :  Matrix Density

DTM .                         :  Delta-T Matrix

FDEN.                         :  Fluid Density

DTF .                         :  Delta-T Fluid

MATR.                         :  Matrix (0=LIME,1=SAND,2=DOLO)

FNUM.                         :  Tortuosity  Constant Archie's (a)

FEXP.                         :  Cementation Exponent Archie's (m)

SEXP.                         :  Saturation Exponent Archie's (n)

LATI.                         :  Latitude

LONG.                         :  Longitude

PDEV.M                 -1.000 :  Elevation of Permanent Datum

EGL .M                 -1.000 :  Elevation of Ground Level

EDF .M                        :  Elevation of Derrick Floor

EKB .M                 -1.000 :  Elevation of Kelly Bushing

~Curve Information

#MNEM.UNIT         API CODE      Opis krzywych

#컴컴컴컴컴        컴컴컴컴컴�   컴컴컴컴컴컴컴�

DEPT.M                       :   1    Glebokosc [m]

GR.API                        :   2    Prof.gamma naturalne PG

RHOB.G/C3                     :   3    Gestosc objet.PGGg[g/ccm]

NTCN.NPHI                     :   4    Prof.n-n termiczny PNNt

EN00.OHMM                     :   5    Sonda potencjalowa

EN01.OHMM                     :   6    Sonda potencjalowa

EL00.OHMM                     :   7    Sonda gradientowa

EL01.OHMM                     :   8    Sonda gradientowa

SP.MV                         :   9    Prof.potencj. naturalnych PS

LL3.OHMM                      :  10    Laterolog 3

DT.US/M                       :  11    Profilowanie akustyczne PAdt

CALI.MM                       :  12    Srednica otworu PSr[mm]

~A DEPTH       GR         RHOB        NTCN        EN00        EN01        EL00        EL01         SP         LL3          DT         CALI    
# ...
  1796.800      63.772       2.628       9.125      13.578      45.914      89.758      94.538     150.356      32.152     215.055     335.833
  1796.900      62.874       2.632       9.053      13.554      45.975      89.247      94.567     149.635      31.814     214.840     336.246
  1797.000      62.383       2.642       9.073      13.536      46.055      88.755      94.563     149.513      31.624     216.881     336.758
  1797.100      61.947       2.650       9.185      13.521      46.155      88.288      94.541     149.871      31.380     220.173     337.446
  1797.200      61.616       2.651       9.356      13.507      46.269      87.821      94.530     150.271      30.894     222.868     338.234
  1797.300      61.505       2.644       9.530      13.491      46.390      87.350      94.565     150.252      30.525     223.714     338.949
  1797.400      61.489       2.632       9.635      13.476      46.507      86.876      94.680     149.759      30.808     221.994     339.310
  1797.500      61.788       2.618       9.640      13.468      46.611      86.390      94.900     149.128      31.752     217.789     339.140
  1797.600      62.599       2.607       9.554      13.472      46.696      85.896      95.241     148.713      33.206     212.709     338.458
  1797.700      63.487       2.605       9.384      13.491      46.758      85.424      95.710     148.740      35.020     208.190     337.316
  1797.800      63.876       2.611       9.150      13.521      46.797      85.009      96.316     149.221      36.821     205.013     335.881
  1797.900      63.669       2.623       8.920      13.559      46.814      84.708      97.076     149.880      38.301     204.032     334.339
  1798.000      62.896       2.637       8.723      13.598      46.816      84.600      98.007     150.399      39.611     204.581     332.848
  1798.100      61.560       2.647       8.511      13.635      46.808      84.750      99.111     150.719      40.969     205.022     331.475
  1798.200      60.136       2.654       8.303      13.669      46.794      85.192     100.367     150.996      42.321     205.176     330.134
  1798.300      59.501       2.659       8.107      13.703      46.779      85.911     101.729     151.399      43.527     205.388     328.839
  1798.400      59.850       2.663       7.889      13.738      46.761      86.849     103.139     151.999      44.290     205.921     327.662
  1798.500      60.335       2.667       7.655      13.772      46.737      87.931     104.555     152.619      44.328     207.955     326.589
  1798.600      60.414       2.671       7.597      13.806      46.704      89.070     105.923     152.871      43.654     211.773     325.661
  1798.700      60.157       2.672       7.383      13.837      46.663      90.189     107.222     152.470      42.947     216.844     324.913
  1798.800      59.552       2.670       7.290      13.864      46.617      91.251     108.431     151.454      42.780     222.404     324.209
  1798.900      58.863       2.668       7.328      13.888      46.570      92.240     109.547     150.171      42.987     226.596     323.584
  1799.000      59.113       2.667       7.483      13.908      46.531      93.139     110.573     149.034      43.159     228.673     323.049
  1799.100      60.404       2.666       7.729      13.924      46.504      93.947     111.501     148.361      42.975     229.231     322.450
  1799.200      62.008       2.664       7.773      13.937      46.495      94.662     112.333     148.228      41.722     228.464     321.908
  1799.300      63.427       2.664       7.996      13.951      46.504      95.271     113.065     148.465      39.548     226.699     321.480
  1799.400      64.044       2.663       8.198      13.969      46.529      95.768     113.689     148.852      37.446     224.916     321.134
  1799.500      63.643       2.661       8.372      13.989      46.568      96.155     114.203     149.302      35.905     223.121     320.908
  1799.600      62.954       2.660       8.491      14.010      46.621      96.430     114.610     149.771      34.921     221.066     320.690
  1799.700      62.322       2.660       8.544      14.028      46.681      96.590     114.919     150.166      34.524     219.168     320.345
  1799.800      61.876       2.657       8.536      14.041      46.747      96.635     115.138     150.454      34.330     217.717     319.861
  1799.900      61.950       2.656       8.447      14.049      46.814      96.571     115.290     150.638      33.930     216.769     319.246
  1800.000      62.024       2.657       8.294      14.056      46.879      96.417     115.400     150.742      33.778     216.076     318.596
  1800.100      61.787       2.660       8.091      14.065      46.940      96.213     115.494     150.892      34.406     215.251     318.039
  1800.200      61.474       2.666       7.830      14.074      46.997      96.005     115.595     151.255      35.507     213.912     317.639
  1800.300      60.810       2.674       7.704      14.084      47.048      95.832     115.720     151.854      36.663     212.133     317.453
  1800.400      59.788       2.680       7.303      14.093      47.089      95.710     115.885     152.539      37.776     210.375     317.390
  1800.500      58.930       2.683       6.855      14.100      47.117      95.641     116.098     153.107      38.491     209.288     317.413
  1800.600      57.712       2.683       6.407      14.108      47.126      95.608     116.363     153.372      39.323     209.109     317.567
  1800.700      55.879       2.682       6.046      14.116      47.110      95.602     116.673     153.251      41.829     209.739     317.735
  1800.800      53.986       2.682       5.803      14.126      47.072      95.640     117.021     152.782      45.869     211.165     317.856
  1800.900      52.432       2.682       5.705      14.139      47.016      95.748     117.388     152.128      49.352     212.599     318.016
  1801.000      51.435       2.681       5.791      14.153      46.947      95.938     117.754     151.458      51.214     213.206     318.195
  1801.100      51.512       2.682       6.048      14.166      46.871      96.203     118.098     150.854      50.767     213.351     318.411
  1801.200      52.841       2.683       6.420      14.175      46.794      96.519     118.410     150.346      47.443     213.363     318.686
  1801.300      54.856       2.684       6.863      14.177      46.718      96.847     118.683     149.893      42.538     212.997     318.978
  1801.400      57.180       2.686       7.300      14.171      46.643      97.148     118.914     149.389      38.479     212.704     319.225
  1801.500      59.068       2.685       7.624      14.155      46.568      97.395     119.103     148.869      36.005     212.841     319.310
  1801.600      60.205       2.680       7.798      14.131      46.488      97.563     119.249     148.508      35.093     212.900     319.218
  1801.700      60.759       2.673       7.831      14.104      46.398      97.631     119.352     148.346      35.704     212.715     319.032
  1801.800      60.675       2.663       7.756      14.073      46.293      97.591     119.416     148.294      36.899     212.552     318.850
  1801.900      60.084       2.653       7.640      14.037      46.170      97.453     119.447     148.247      37.830     212.504     318.736
  1802.000      59.668       2.647       7.570      13.995      46.024      97.250     119.456     148.069      38.848     212.456     318.728
  1802.100      59.511       2.646       7.600      13.947      45.853      97.040     119.451     147.714      39.666     212.481     318.770
  1802.200      59.338       2.650       7.709      13.892      45.656      96.870     119.432     147.370      39.418     212.495     318.813
  1802.300      59.439       2.658       7.847      13.831      45.430      96.754     119.398     147.341      38.283     212.306     318.863
