~Version Information

VERS.                     1.20: CWLS log ASCII Standard - VERSION  1.20

WRAP.                       NO: One line per depth step

~Well Information Block

#MNEM.UNIT           Data Type   Information

#컴컴컴컴컴        컴컴컴컴컴�   컴컴컴컴컴컴컴�

STRT.M               1500.000 :

STOP.M               2399.900 :

STEP.M                  0.100 :

NULL.                  -1.000 :

COMP.                  COMPANY:   

WELL.                     WELL:  A-6

FLD .                    FIELD:   

LOC .                 LOCATION:   

PROV.                 PROVINCE:  Nieznany

SRVC.          SERVICE COMPANY:  Zaklad Geofizyka Krakow   

DATE.                 LOG DATE:  Nieznany

UWI .           UNIQUE WELL ID:   

~Parameter  Information Block

#MNEM.UNIT             Value      Description

#컴컴컴컴컴        컴컴컴컴컴�   컴컴컴컴컴컴컴�

DD  .M                 -1.000 :  Depth Driller

DL  .M                 -1.000 :  Depth Logger

BS  .MM                   311 :  Bit Size

BS1 .                         :  Bit Size1

BS2 .                         :  Bit Size2

BS3 .                         :  Bit Size3

CBD .M                 -1.000 :  Casing Bottom Driller

CBL .M                 -1.000 :  Casing Bottom Logger

CSIZ.IN                       :  Casing Size

CSIN.MM                    -1 :  Internal Casing Size

CS1 .                         :  Casing Size 1

CS2 .                         :  Casing Size 2

CS3 .                         :  Casing Size 3

CAST.                         :  Casing Thickness

FD  .G/C3               1.230 :  Mud Fluid Density

DFTH.                         :  Drilling Fluid Thixotropy

DFL .C3                    -1 :  Mud Fluid Loss

DFV .S/1500C3              -1 :  Mud Fluid Viscosity

DFPH.                         :  Drilling Fluid Ph

SALI.G/L               19.800 :  Salinity of the Mud

RMS .OHMM               0.300 :  Resistivity of Mud Sample

MST .DEGC               8.000 :  Mud Sample Temperature

RMC .OHMM                     :  Mud Cake Resistivity

MCST.                         :  Mud Cake Sample Temperature

RMFS.                         :  Mud Filtrate Resistivity

MFST.                         :  Mud Filtrate Sample Temperature

MRT .                         :  Maximum Recorded Temperature

BHT .DEGC                     :  Bottom Hole Temperature

MST .                         :  Mean Surface Temperature

TGRD.                         :  Temperature Gradient

MDEN.                         :  Matrix Density

DTM .                         :  Delta-T Matrix

FDEN.                         :  Fluid Density

DTF .                         :  Delta-T Fluid

MATR.                         :  Matrix (0=LIME,1=SAND,2=DOLO)

FNUM.                         :  Tortuosity  Constant Archie's (a)

FEXP.                         :  Cementation Exponent Archie's (m)

SEXP.                         :  Saturation Exponent Archie's (n)

LATI.                         :  Latitude

LONG.                         :  Longitude

PDEV.M                 -1.000 :  Elevation of Permanent Datum

EGL .M                 -1.000 :  Elevation of Ground Level

EDF .M                        :  Elevation of Derrick Floor

EKB .M                 -1.000 :  Elevation of Kelly Bushing

~Curve Information

#MNEM.UNIT         API CODE      Opis krzywych

#컴컴컴컴컴        컴컴컴컴컴�   컴컴컴컴컴컴컴�

DEPT.M                       :   1    Glebokosc [m]

GR.API                        :   2    Prof.gamma naturalne PG

RHOB.G/C3                     :   3    Gestosc objet.PGGg[g/ccm]

NTCN.NPHI                     :   4    Prof.n-n termiczny PNNt

EN00.OHMM                     :   5    Sonda potencjalowa

EN01.OHMM                     :   6    Sonda potencjalowa

EL00.OHMM                     :   7    Sonda gradientowa

EL01.OHMM                     :   8    Sonda gradientowa

SP.MV                         :   9    Prof.potencj. naturalnych PS

LL3.OHMM                      :  10    Laterolog 3

DT.US/M                       :  11    Profilowanie akustyczne PAdt

CALI.MM                       :  12    Srednica otworu PSr[mm]

~A DEPTH       GR         RHOB        NTCN        EN00        EN01        EL00        EL01         SP         LL3          DT         CALI    
# ...
  1976.000     217.820       2.354      35.552       2.760       5.214       7.047       7.084     183.987       3.984     358.090     381.366
  1976.100     219.971       2.348      34.474       2.761       5.191       7.120       7.110     183.746       3.994     359.064     379.272
  1976.200     222.555       2.341      34.228       2.766       5.167       7.179       7.130     183.306       4.008     359.269     376.518
  1976.300     225.329       2.331      34.893       2.775       5.142       7.231       7.145     182.794       4.004     356.974     373.699
  1976.400     228.160       2.322      36.159       2.784       5.117       7.281       7.153     182.404       3.996     352.816     371.354
  1976.500     228.233       2.319      37.311       2.791       5.090       7.328       7.153     182.309       3.981     347.620     369.827
  1976.600     225.184       2.324      38.014       2.792       5.065       7.370       7.144     182.649       3.966     341.759     369.065
  1976.700     220.913       2.335      38.101       2.790       5.045       7.411       7.123     183.312       4.001     336.987     368.806
  1976.800     216.682       2.346      37.759       2.786       5.033       7.449       7.086     183.927       4.073     334.984     368.710
  1976.900     213.127       2.354      37.613       2.781       5.032       7.473       7.033     184.192       4.119     335.351     368.571
  1977.000     211.102       2.355      37.863       2.779       5.043       7.475       6.966     183.930       4.129     337.722     368.183
  1977.100     210.132       2.349      38.235       2.779       5.065       7.450       6.888     183.090       4.107     341.695     367.422
  1977.200     208.665       2.342      38.690       2.781       5.092       7.390       6.803     181.960       4.041     346.162     366.362
  1977.300     206.208       2.336      39.264       2.784       5.121       7.290       6.717     180.991       3.977     350.219     365.211
  1977.400     202.697       2.335      39.711       2.789       5.149       7.166       6.632     180.453       3.976     352.851     364.346
  1977.500     199.350       2.340      39.974       2.797       5.176       7.038       6.550     180.403       4.035     354.289     364.070
  1977.600     198.256       2.346      40.337       2.809       5.200       6.919       6.476     180.660       4.129     355.175     364.385
  1977.700     199.439       2.349      40.718       2.823       5.225       6.814       6.411     180.805       4.226     355.938     365.138
  1977.800     201.759       2.348      40.697       2.837       5.251       6.717       6.357     180.573       4.301     357.437     366.157
  1977.900     204.939       2.344      40.269       2.850       5.279       6.622       6.316     180.043       4.315     360.224     367.167
  1978.000     208.021       2.337      39.389       2.861       5.309       6.529       6.288     179.394       4.287     363.040     368.220
  1978.100     209.478       2.332      38.019       2.868       5.339       6.448       6.271     178.829       4.239     365.016     369.503
  1978.200     209.433       2.329      36.480       2.872       5.367       6.391       6.263     178.532       4.169     366.509     370.986
  1978.300     209.264       2.328      35.152       2.874       5.389       6.362       6.263     178.489       4.091     366.199     372.547
  1978.400     209.628       2.328      34.121       2.874       5.401       6.364       6.268     178.568       4.047     364.110     373.885
  1978.500     210.294       2.328      33.467       2.871       5.402       6.382       6.277     178.760       4.024     362.530     374.403
  1978.600     210.715       2.327      33.377       2.868       5.393       6.402       6.289     179.128       4.019     362.657     373.796
  1978.700     211.216       2.327      33.852       2.865       5.378       6.421       6.305     179.649       4.046     364.133     372.290
  1978.800     211.633       2.328      34.601       2.864       5.359       6.435       6.323     180.133       4.084     367.064     370.170
  1978.900     211.221       2.332      35.213       2.864       5.339       6.444       6.346     180.245       4.120     370.657     367.987
  1979.000     210.196       2.339      35.569       2.865       5.320       6.460       6.371     179.610       4.153     373.564     366.439
  1979.100     209.276       2.348      35.677       2.865       5.300       6.483       6.398     178.044       4.175     374.850     365.827
  1979.200     209.128       2.358      35.582       2.867       5.277       6.508       6.425     175.807       4.194     374.989     366.033
  1979.300     209.824       2.367      35.505       2.872       5.253       6.544       6.450     173.436       4.211     375.498     366.822
  1979.400     211.582       2.372      35.943       2.876       5.227       6.584       6.468     171.478       4.220     375.999     367.895
  1979.500     215.097       2.372      37.090       2.879       5.199       6.616       6.480     170.456       4.202     376.130     369.037
  1979.600     219.782       2.366      38.594       2.877       5.171       6.636       6.483     170.598       4.153     376.203     370.183
  1979.700     223.572       2.357      40.046       2.869       5.144       6.641       6.479     171.610       4.093     375.567     371.249
  1979.800     224.934       2.346      41.101       2.857       5.119       6.627       6.468     172.950       4.036     373.431     372.057
  1979.900     223.380       2.336      41.010       2.844       5.099       6.601       6.452     174.048       3.971     371.252     372.443
  1980.000     218.824       2.330      39.519       2.830       5.087       6.571       6.431     174.418       3.911     369.455     372.467
  1980.100     212.273       2.328      37.344       2.819       5.084       6.547       6.406     173.930       3.869     368.093     372.438
  1980.200     206.396       2.329      34.839       2.810       5.090       6.533       6.376     172.826       3.826     367.784     372.718
  1980.300     203.241       2.332      32.634       2.802       5.102       6.522       6.346     171.562       3.777     367.782     373.522
  1980.400     203.032       2.335      31.696       2.797       5.118       6.511       6.315     170.617       3.744     367.490     374.744
  1980.500     205.392       2.338      32.204       2.795       5.132       6.493       6.287     170.272       3.738     365.960     376.007
  1980.600     210.099       2.341      34.124       2.799       5.140       6.458       6.263     170.527       3.766     362.968     376.870
  1980.700     215.710       2.342      37.604       2.807       5.142       6.406       6.244     171.152       3.836     359.365     377.135
  1980.800     220.492       2.340      41.320       2.818       5.138       6.346       6.230     171.779       3.937     355.291     377.045
  1980.900     223.935       2.336      43.583       2.831       5.130       6.288       6.217     172.106       4.058     350.761     376.909
  1981.000     225.863       2.330      44.178       2.840       5.121       6.246       6.206     171.995       4.187     347.487     376.785
  1981.100     226.296       2.325      43.300       2.846       5.114       6.233       6.194     171.436       4.296     345.071     376.707
  1981.200     225.766       2.322      41.778       2.850       5.111       6.253       6.182     170.581       4.368     342.359     376.565
  1981.300     225.116       2.324      40.915       2.853       5.114       6.299       6.167     169.665       4.407     341.589     376.029
  1981.400     224.552       2.330      41.227       2.860       5.123       6.355       6.147     168.865       4.418     343.380     375.125
  1981.500     223.838       2.335      42.052       2.872       5.139       6.406       6.120     168.296       4.397     346.858     374.117
