~Version Information

VERS.                     1.20: CWLS log ASCII Standard - VERSION  1.20

WRAP.                       NO: One line per depth step

~Well Information Block

#MNEM.UNIT           Data Type   Information

#컴컴컴컴컴        컴컴컴컴컴�   컴컴컴컴컴컴컴�

STRT.M               1500.000 :

STOP.M               2399.900 :

STEP.M                  0.100 :

NULL.                  -1.000 :

COMP.                  COMPANY:   

WELL.                     WELL:  A-6

FLD .                    FIELD:   

LOC .                 LOCATION:   

PROV.                 PROVINCE:  Nieznany

SRVC.          SERVICE COMPANY:  Zaklad Geofizyka Krakow   

DATE.                 LOG DATE:  Nieznany

UWI .           UNIQUE WELL ID:   

~Parameter  Information Block

#MNEM.UNIT             Value      Description

#컴컴컴컴컴        컴컴컴컴컴�   컴컴컴컴컴컴컴�

DD  .M                 -1.000 :  Depth Driller

DL  .M                 -1.000 :  Depth Logger

BS  .MM                   311 :  Bit Size

BS1 .                         :  Bit Size1

BS2 .                         :  Bit Size2

BS3 .                         :  Bit Size3

CBD .M                 -1.000 :  Casing Bottom Driller

CBL .M                 -1.000 :  Casing Bottom Logger

CSIZ.IN                       :  Casing Size

CSIN.MM                    -1 :  Internal Casing Size

CS1 .                         :  Casing Size 1

CS2 .                         :  Casing Size 2

CS3 .                         :  Casing Size 3

CAST.                         :  Casing Thickness

FD  .G/C3               1.230 :  Mud Fluid Density

DFTH.                         :  Drilling Fluid Thixotropy

DFL .C3                    -1 :  Mud Fluid Loss

DFV .S/1500C3              -1 :  Mud Fluid Viscosity

DFPH.                         :  Drilling Fluid Ph

SALI.G/L               19.800 :  Salinity of the Mud

RMS .OHMM               0.300 :  Resistivity of Mud Sample

MST .DEGC               8.000 :  Mud Sample Temperature

RMC .OHMM                     :  Mud Cake Resistivity

MCST.                         :  Mud Cake Sample Temperature

RMFS.                         :  Mud Filtrate Resistivity

MFST.                         :  Mud Filtrate Sample Temperature

MRT .                         :  Maximum Recorded Temperature

BHT .DEGC                     :  Bottom Hole Temperature

MST .                         :  Mean Surface Temperature

TGRD.                         :  Temperature Gradient

MDEN.                         :  Matrix Density

DTM .                         :  Delta-T Matrix

FDEN.                         :  Fluid Density

DTF .                         :  Delta-T Fluid

MATR.                         :  Matrix (0=LIME,1=SAND,2=DOLO)

FNUM.                         :  Tortuosity  Constant Archie's (a)

FEXP.                         :  Cementation Exponent Archie's (m)

SEXP.                         :  Saturation Exponent Archie's (n)

LATI.                         :  Latitude

LONG.                         :  Longitude

PDEV.M                 -1.000 :  Elevation of Permanent Datum

EGL .M                 -1.000 :  Elevation of Ground Level

EDF .M                        :  Elevation of Derrick Floor

EKB .M                 -1.000 :  Elevation of Kelly Bushing

~Curve Information

#MNEM.UNIT         API CODE      Opis krzywych

#컴컴컴컴컴        컴컴컴컴컴�   컴컴컴컴컴컴컴�

DEPT.M                       :   1    Glebokosc [m]

GR.API                        :   2    Prof.gamma naturalne PG

RHOB.G/C3                     :   3    Gestosc objet.PGGg[g/ccm]

NTCN.NPHI                     :   4    Prof.n-n termiczny PNNt

EN00.OHMM                     :   5    Sonda potencjalowa

EN01.OHMM                     :   6    Sonda potencjalowa

EL00.OHMM                     :   7    Sonda gradientowa

EL01.OHMM                     :   8    Sonda gradientowa

SP.MV                         :   9    Prof.potencj. naturalnych PS

LL3.OHMM                      :  10    Laterolog 3

DT.US/M                       :  11    Profilowanie akustyczne PAdt

CALI.MM                       :  12    Srednica otworu PSr[mm]

~A DEPTH       GR         RHOB        NTCN        EN00        EN01        EL00        EL01         SP         LL3          DT         CALI    
# ...
  1740.800      82.060       2.513      30.898       6.660      19.960      58.739      66.817     131.697      14.108     320.942     319.478
  1740.900      81.537       2.512      30.762       6.604      19.708      58.851      66.718     131.472      14.219     326.379     319.025
  1741.000      81.908       2.515      30.830       6.552      19.470      58.873      66.535     131.477      14.370     329.049     318.633
  1741.100      82.829       2.520      30.913       6.508      19.248      58.769      66.260     131.758      14.520     328.742     318.374
  1741.200      84.210       2.526      31.006       6.471      19.041      58.537      65.893     132.208      14.650     325.385     318.167
  1741.300      85.413       2.530      31.245       6.444      18.852      58.183      65.443     132.603      14.723     319.766     317.860
  1741.400      86.317       2.530      31.631       6.427      18.679      57.717      64.920     132.807      14.730     314.390     317.381
  1741.500      87.689       2.527      32.067       6.414      18.526      57.166      64.336     132.853      14.714     311.162     316.634
  1741.600      89.634       2.521      32.694       6.402      18.394      56.554      63.698     132.908      14.676     309.830     315.630
  1741.700      91.679       2.511      33.583       6.388      18.284      55.887      63.014     133.153      14.583     310.198     314.555
  1741.800      93.785       2.501      34.453       6.369      18.199      55.167      62.295     133.598      14.427     311.862     313.513
  1741.900      95.560       2.495      35.080       6.345      18.136      54.405      61.552     134.061      14.239     312.551     312.609
  1742.000      96.677       2.488      35.382       6.316      18.092      53.598      60.794     134.265      14.053     312.656     312.028
  1742.100      96.840       2.482      35.165       6.285      18.061      52.764      60.034     133.947      13.906     313.950     311.764
  1742.200      96.111       2.478      34.551       6.256      18.038      51.929      59.277     133.135      13.833     316.468     311.764
  1742.300      94.871       2.473      33.936       6.233      18.020      51.095      58.529     132.265      13.817     320.732     312.123
  1742.400      93.694       2.469      33.327       6.214      18.006      50.261      57.784     131.870      13.794     327.444     312.864
  1742.500      92.939       2.468      32.904       6.202      17.996      49.431      57.027     132.346      13.737     335.241     314.021
  1742.600      92.581       2.468      32.859       6.194      17.993      48.595      56.254     133.770      13.661     342.540     315.718
  1742.700      92.251       2.468      32.741       6.184      17.999      47.753      55.458     135.731      13.578     350.029     318.014
  1742.800      91.860       2.468      32.428       6.169      18.011      46.905      54.653     137.568      13.516     357.366     320.768
  1742.900      91.230       2.466      32.077       6.149      18.029      46.032      53.854     138.839      13.482     363.303     323.680
  1743.000      90.144       2.464      31.434       6.126      18.052      45.130      53.082     139.424      13.429     366.301     326.448
  1743.100      89.165       2.465      30.743       6.104      18.082      44.197      52.356     139.487      13.352     365.906     328.882
  1743.200      88.517       2.466      30.323       6.087      18.118      43.247      51.683     139.329      13.323     362.897     330.993
  1743.300      88.202       2.469      29.849       6.081      18.165      42.311      51.075     139.196      13.403     358.650     332.907
  1743.400      88.316       2.474      29.397       6.081      18.225      41.410      50.522     139.214      13.586     356.249     334.618
  1743.500      88.832       2.481      29.269       6.086      18.295      40.578      50.022     139.342      13.819     358.152     335.987
  1743.600      89.668       2.487      29.277       6.092      18.371      39.816      49.575     139.504      14.056     364.753     336.889
  1743.700      90.953       2.492      29.535       6.099      18.452      39.117      49.182     139.745      14.241     374.731     337.181
  1743.800      92.381       2.495      30.320       6.106      18.532      38.456      48.840     140.114      14.332     385.757     336.858
  1743.900      93.403       2.494      31.263       6.113      18.607      37.820      48.549     140.572      14.375     394.273     336.184
  1744.000      94.084       2.490      32.254       6.124      18.678      37.198      48.299     141.026      14.439     398.054     335.462
  1744.100      94.619       2.486      33.430       6.136      18.744      36.593      48.083     141.306      14.496     396.185     334.877
  1744.200      94.791       2.484      34.479       6.151      18.804      36.024      47.889     141.208      14.484     388.934     334.443
  1744.300      94.598       2.487      34.992       6.168      18.857      35.509      47.713     140.633      14.395     377.990     334.018
  1744.400      94.520       2.495      34.845       6.184      18.907      35.066      47.552     139.661      14.247     365.501     333.636
  1744.500      94.726       2.503      34.234       6.197      18.961      34.691      47.402     138.531      14.078     353.744     333.550
  1744.600      95.221       2.507      33.091       6.207      19.023      34.378      47.266     137.522      13.944     343.548     333.906
  1744.700      96.371       2.506      31.966       6.215      19.098      34.110      47.141     136.774      13.890     335.119     334.919
  1744.800      98.184       2.499      31.476       6.224      19.183      33.882      47.027     136.253      13.888     328.645     336.784
  1744.900     100.280       2.490      31.674       6.238      19.274      33.680      46.924     135.789      13.875     324.153     339.216
  1745.000     102.088       2.479      32.441       6.257      19.366      33.501      46.829     135.333      13.828     321.267     341.583
  1745.100     102.878       2.471      33.588       6.280      19.452      33.347      46.739     135.063      13.772     320.173     343.315
  1745.200     102.577       2.467      34.571       6.306      19.530      33.204      46.653     135.130      13.767     320.651     343.970
  1745.300     101.517       2.467      35.002       6.331      19.601      33.057      46.570     135.549      13.871     321.609     343.359
  1745.400     100.057       2.469      34.984       6.353      19.666      32.913      46.498     136.235      14.078     322.201     341.799
  1745.500      98.578       2.474      34.405       6.374      19.725      32.790      46.445     136.936      14.359     321.742     339.944
  1745.600      97.298       2.478      33.586       6.397      19.775      32.703      46.424     137.396      14.701     319.984     338.469
  1745.700      96.220       2.484      32.973       6.422      19.819      32.671      46.441     137.584      15.025     317.270     337.746
  1745.800      95.470       2.491      32.710       6.450      19.856      32.703      46.493     137.691      15.265     313.958     337.819
  1745.900      95.016       2.499      32.742       6.483      19.885      32.800      46.571     137.947      15.464     310.817     338.584
  1746.000      94.594       2.507      32.986       6.516      19.908      32.960      46.659     138.430      15.666     308.444     339.773
  1746.100      94.331       2.514      33.297       6.549      19.927      33.180      46.741     138.964      15.867     306.034     341.048
  1746.200      94.050       2.517      33.269       6.579      19.943      33.461      46.805     139.197      16.074     303.427     342.226
  1746.300      93.553       2.519      32.512       6.607      19.959      33.793      46.840     138.820      16.234     301.540     343.279
